timestamp_ns,phase_sin,phase_cos,cmd_linear_x,cmd_linear_y,cmd_angular_z,left_contact,right_contact,base_euler_x,base_euler_y,base_euler_z,base_ang_vel_x,base_ang_vel_y,base_ang_vel_z,action_left_hip_pitch_joint,pos_left_hip_pitch_joint,vel_left_hip_pitch_joint,effort_left_hip_pitch_joint,pos_des_raw_left_hip_pitch_joint,pos_des_lpf_left_hip_pitch_joint,tau_des_raw_left_hip_pitch_joint,tau_des_lpf_left_hip_pitch_joint,is_parallel_left_hip_pitch_joint,action_left_hip_roll_joint,pos_left_hip_roll_joint,vel_left_hip_roll_joint,effort_left_hip_roll_joint,pos_des_raw_left_hip_roll_joint,pos_des_lpf_left_hip_roll_joint,tau_des_raw_left_hip_roll_joint,tau_des_lpf_left_hip_roll_joint,is_parallel_left_hip_roll_joint,action_left_hip_yaw_joint,pos_left_hip_yaw_joint,vel_left_hip_yaw_joint,effort_left_hip_yaw_joint,pos_des_raw_left_hip_yaw_joint,pos_des_lpf_left_hip_yaw_joint,tau_des_raw_left_hip_yaw_joint,tau_des_lpf_left_hip_yaw_joint,is_parallel_left_hip_yaw_joint,action_left_knee_pitch_joint,pos_left_knee_pitch_joint,vel_left_knee_pitch_joint,effort_left_knee_pitch_joint,pos_des_raw_left_knee_pitch_joint,pos_des_lpf_left_knee_pitch_joint,tau_des_raw_left_knee_pitch_joint,tau_des_lpf_left_knee_pitch_joint,is_parallel_left_knee_pitch_joint,action_left_ankle_pitch_joint,pos_left_ankle_pitch_joint,vel_left_ankle_pitch_joint,effort_left_ankle_pitch_joint,pos_des_raw_left_ankle_pitch_joint,pos_des_lpf_left_ankle_pitch_joint,tau_des_raw_left_ankle_pitch_joint,tau_des_lpf_left_ankle_pitch_joint,is_parallel_left_ankle_pitch_joint,action_left_ankle_roll_joint,pos_left_ankle_roll_joint,vel_left_ankle_roll_joint,effort_left_ankle_roll_joint,pos_des_raw_left_ankle_roll_joint,pos_des_lpf_left_ankle_roll_joint,tau_des_raw_left_ankle_roll_joint,tau_des_lpf_left_ankle_roll_joint,is_parallel_left_ankle_roll_joint,action_right_hip_pitch_joint,pos_right_hip_pitch_joint,vel_right_hip_pitch_joint,effort_right_hip_pitch_joint,pos_des_raw_right_hip_pitch_joint,pos_des_lpf_right_hip_pitch_joint,tau_des_raw_right_hip_pitch_joint,tau_des_lpf_right_hip_pitch_joint,is_parallel_right_hip_pitch_joint,action_right_hip_roll_joint,pos_right_hip_roll_joint,vel_right_hip_roll_joint,effort_right_hip_roll_joint,pos_des_raw_right_hip_roll_joint,pos_des_lpf_right_hip_roll_joint,tau_des_raw_right_hip_roll_joint,tau_des_lpf_right_hip_roll_joint,is_parallel_right_hip_roll_joint,action_right_hip_yaw_joint,pos_right_hip_yaw_joint,vel_right_hip_yaw_joint,effort_right_hip_yaw_joint,pos_des_raw_right_hip_yaw_joint,pos_des_lpf_right_hip_yaw_joint,tau_des_raw_right_hip_yaw_joint,tau_des_lpf_right_hip_yaw_joint,is_parallel_right_hip_yaw_joint,action_right_knee_pitch_joint,pos_right_knee_pitch_joint,vel_right_knee_pitch_joint,effort_right_knee_pitch_joint,pos_des_raw_right_knee_pitch_joint,pos_des_lpf_right_knee_pitch_joint,tau_des_raw_right_knee_pitch_joint,tau_des_lpf_right_knee_pitch_joint,is_parallel_right_knee_pitch_joint,action_right_ankle_pitch_joint,pos_right_ankle_pitch_joint,vel_right_ankle_pitch_joint,effort_right_ankle_pitch_joint,pos_des_raw_right_ankle_pitch_joint,pos_des_lpf_right_ankle_pitch_joint,tau_des_raw_right_ankle_pitch_joint,tau_des_lpf_right_ankle_pitch_joint,is_parallel_right_ankle_pitch_joint,action_right_ankle_roll_joint,pos_right_ankle_roll_joint,vel_right_ankle_roll_joint,effort_right_ankle_roll_joint,pos_des_raw_right_ankle_roll_joint,pos_des_lpf_right_ankle_roll_joint,tau_des_raw_right_ankle_roll_joint,tau_des_lpf_right_ankle_roll_joint,is_parallel_right_ankle_roll_joint,clip_count,imu_quat_w,imu_quat_x,imu_quat_y,imu_quat_z,imu_gyro_x,imu_gyro_y,imu_gyro_z,imu_accel_x,imu_accel_y,imu_accel_z,left_foot_contact_force_z,right_foot_contact_force_z,left_foot_contact_force_mag,right_foot_contact_force_mag,feet_contact_force_penalty,base_lin_vel_x,base_lin_vel_y,base_lin_vel_z
1782900764084586701,0.2660350799560547,-0.9639633297920227,0.4000000059604645,0.0,0.0,1,0,-0.09867668151855469,0.013081055134534836,0.0271031204611063,0.4817869961261749,0.135847270488739,-0.17561474442481995,-1.0941452980041504,0.36404651403427124,-0.6966124176979065,-9.168133735656738,-0.14707264304161072,-0.14707264304161072,nan,nan,0,-0.7027424573898315,0.11730434745550156,0.5349505543708801,-22.030540466308594,-0.3013712279498577,-0.3013712279498577,nan,nan,0,0.14373235404491425,-0.22249561548233032,0.794990062713623,-5.883406162261963,-0.23813382536172867,-0.23813382536172867,nan,nan,0,0.08365350216627121,0.5509117841720581,-0.7165388464927673,-8.646636962890625,0.5318267606198788,0.5318267606198788,nan,nan,0,1.1566709280014038,-0.28252077102661133,0.13687744736671448,18.6407470703125,0.36833547055721283,0.36833547055721283,nan,nan,0,-2.091663360595703,0.18518082797527313,0.0985274389386177,-36.7061882019043,-1.0458316802978516,-1.0458316802978516,nan,nan,0,-0.33678823709487915,-0.271964430809021,-0.4993785619735718,-5.584825038909912,-0.568394124507904,-0.568394124507904,nan,nan,0,-0.4321576952934265,-0.07499461621046066,-0.6367928981781006,-6.536337375640869,-0.2660788483917713,-0.2660788483917713,nan,nan,0,0.0477609820663929,0.2847214639186859,-0.00346737215295434,-1.3925259113311768,0.33388049341738224,0.33388049341738224,nan,nan,0,-0.3373256325721741,0.5885985493659973,-1.738411545753479,-2.151895523071289,0.32133719325065613,0.32133719325065613,nan,nan,0,-1.8672860860824585,-0.41000041365623474,0.0026167193427681923,-39.32343673706055,-1.1436430364847183,-1.1436430364847183,nan,nan,0,-0.057969290763139725,0.04005812481045723,0.13641393184661865,0.31144458055496216,-0.028984645381569862,-0.028984645381569862,nan,nan,0,0,0.9986656308174133,-0.0494011826813221,0.005863617639988661,0.013856900855898857,0.4817869961261749,0.135847270488739,-0.17561474442481995,nan,nan,nan,331.9387512207031,0.0,331.9387512207031,0.0,0.0,0.09101957827806473,-0.013340763747692108,-0.02826056256890297
1782900764094586701,0.17855599522590637,-0.9839297533035278,0.4000000059604645,0.0,0.0,1,0,-0.09369087219238281,0.014179576188325882,0.025140520185232162,0.5143744349479675,0.12239056080579758,-0.19153457880020142,-0.8521171808242798,0.35726073384284973,-0.665212094783783,-10.023488998413086,-0.026058584451675415,-0.026058584451675415,nan,nan,0,-0.4739815592765808,0.12303826957941055,0.5677168369293213,-22.280818939208984,-0.18699077889323235,-0.18699077889323235,nan,nan,0,0.10582683980464935,-0.2145974338054657,0.8097105026245117,-6.64574670791626,-0.2570865824818611,-0.2570865824818611,nan,nan,0,0.3293522000312805,0.5441766977310181,-0.6470343470573425,-6.883398532867432,0.6546761095523834,0.6546761095523834,nan,nan,0,1.0363829135894775,-0.28112539649009705,0.10648562014102936,19.658946990966797,0.3081914633512497,0.3081914633512497,nan,nan,0,-2.1256890296936035,0.1876571774482727,0.08944658190011978,-38.33449172973633,-1.0628445148468018,-1.0628445148468018,nan,nan,0,-0.2017619013786316,-0.2776550352573395,-0.6483131051063538,-5.665018558502197,-0.5008809566497803,-0.5008809566497803,nan,nan,0,-0.07859121263027191,-0.08194084465503693,-0.7486639618873596,-5.794576644897461,-0.08929560706019402,-0.08929560706019402,nan,nan,0,0.2790210247039795,0.2847118079662323,-0.009356068447232246,-1.1057876348495483,0.44951051473617554,0.44951051473617554,nan,nan,0,-0.3583865165710449,0.5706611275672913,-1.759722113609314,-2.059112071990967,0.3108067512512207,0.3108067512512207,nan,nan,0,-1.4237316846847534,-0.4100003242492676,0.0024814740754663944,-37.18540573120117,-0.9218658357858658,-0.9218658357858658,nan,nan,0,-0.25311338901519775,0.04068003594875336,0.02078336849808693,0.09132759273052216,-0.12655669450759888,-0.12655669450759888,nan,nan,0,0,0.9987947940826416,-0.04691252484917641,0.006492776330560446,0.012887798249721527,0.5143744349479675,0.12239056080579758,-0.19153457880020142,nan,nan,nan,329.3760986328125,0.0,329.3760986328125,0.0,0.0,0.08687150478363037,-0.024278895929455757,-0.03992416337132454
1782900764104586701,0.0896383747458458,-0.9959743618965149,0.4000000059604645,0.0,0.0,1,0,-0.08834648132324219,0.015174157917499542,0.023119892925024033,0.5531606674194336,0.11269637942314148,-0.1928577423095703,-0.1909296214580536,0.3510495722293854,-0.6019307971000671,-10.918082237243652,0.3045351952314377,0.3045351952314377,nan,nan,0,-0.2550925612449646,0.1292503923177719,0.6170830130577087,-21.206636428833008,-0.07754627987742424,-0.07754627987742424,nan,nan,0,0.001429542899131775,-0.20693466067314148,0.788901150226593,-6.837428569793701,-0.3092852309346199,-0.3092852309346199,nan,nan,0,0.7254488468170166,0.5384138822555542,-0.5461935997009277,-4.325978755950928,0.8527244329452515,0.8527244329452515,nan,nan,0,0.6309598684310913,-0.28011518716812134,0.07424614578485489,20.988317489624023,0.10547994077205658,0.10547994077205658,nan,nan,0,-1.9605655670166016,0.19012749195098877,0.07658179849386215,-40.22241973876953,-0.9802827835083008,-0.9802827835083008,nan,nan,0,0.25072741508483887,-0.28492099046707153,-0.8097597360610962,-5.955504417419434,-0.27463629841804504,-0.27463629841804504,nan,nan,0,0.7956210374832153,-0.0899272933602333,-0.8472650647163391,-5.907483100891113,0.3478105179965496,0.3478105179965496,nan,nan,0,0.8123540878295898,0.28472796082496643,0.006074946373701096,-0.8879268169403076,0.7161770462989807,0.7161770462989807,nan,nan,0,-0.4040107727050781,0.5524928569793701,-1.782731294631958,-2.218358039855957,0.2879946231842041,0.2879946231842041,nan,nan,0,-0.6254530549049377,-0.4100003242492676,0.0024776868522167206,-35.280731201171875,-0.522726520895958,-0.522726520895958,nan,nan,0,-0.6540301442146301,0.04013367369771004,-0.02808225527405739,-0.007004633545875549,-0.32701507210731506,-0.32701507210731506,nan,nan,0,0,0.9989251494407654,-0.044242341071367264,0.0070686498656868935,0.011883091181516647,0.5531606674194336,0.11269637942314148,-0.1928577423095703,nan,nan,nan,323.0704650878906,0.0,323.0704650878906,0.0,0.0,0.08179334551095963,-0.035069458186626434,-0.05408706143498421
1782900764114586701,-9.775241096576792e-07,-1.0,0.4000000059604645,0.0,0.0,1,0,-0.08251333236694336,0.015921397134661674,0.021045178174972534,0.6117796897888184,0.07309900969266891,-0.20906256139278412,1.1208988428115845,0.3452458083629608,-0.6031877398490906,-11.835543632507324,0.9604494273662567,0.9604494273662567,nan,nan,0,-0.36555930972099304,0.13607577979564667,0.6885891556739807,-20.99341583251953,-0.13277965411543846,-0.13277965411543846,nan,nan,0,-0.32286781072616577,-0.19936268031597137,0.6665223836898804,-5.39251708984375,-0.4714339077472687,-0.4714339077472687,nan,nan,0,1.3418058156967163,0.5338385701179504,-0.3727670907974243,-2.584177255630493,1.1609029173851013,1.1609029173851013,nan,nan,0,-0.0008660405874252319,-0.27986714243888855,-0.5523425936698914,23.311885833740234,-0.2104330137372017,-0.2104330137372017,nan,nan,0,-1.1911561489105225,0.1920730322599411,-0.46854326128959656,-41.210853576660156,-0.5955780744552612,-0.5955780744552612,nan,nan,0,0.8458349108695984,-0.2935628890991211,-0.9189433455467224,-5.68849515914917,0.022917449474334717,0.022917449474334717,nan,nan,0,2.773038625717163,-0.09861285239458084,-0.8884227275848389,-5.311335563659668,1.3365193121135235,1.3365193121135235,nan,nan,0,1.5580581426620483,0.28462615609169006,0.01207754947245121,-0.8211663961410522,1.08902907371521,1.08902907371521,nan,nan,0,-0.34921738505363464,0.5345554947853088,-1.7442816495895386,-1.9328604936599731,0.31539131700992584,0.31539131700992584,nan,nan,0,0.2645668685436249,-0.4100000560283661,0.0027772150933742523,-31.759429931640625,-0.07771655917167664,-0.07771655917167664,nan,nan,0,-1.2670557498931885,0.036214083433151245,-0.21113920211791992,-0.35713791847229004,-0.6335278749465942,-0.6335278749465942,nan,nan,0,0,0.9990586042404175,-0.04132506996393204,0.007519418373703957,0.010841423645615578,0.6117796897888184,0.07309900969266891,-0.20906256139278412,nan,nan,nan,320.66241455078125,0.0,320.66241455078125,0.0,0.0,0.07563944905996323,-0.04571443051099777,-0.06771547347307205
1782900764124586701,-0.08964031934738159,-0.9959741830825806,0.4000000059604645,0.0,0.0,1,0,-0.0760040283203125,0.016227031126618385,0.01893584430217743,0.6921533942222595,0.013536890037357807,-0.2129976898431778,2.046189546585083,0.34102144837379456,-0.4170100688934326,-12.90858268737793,1.423094779253006,1.423094779253006,nan,nan,0,-0.7165290713310242,0.14378073811531067,0.7938513159751892,-20.348642349243164,-0.308264534920454,-0.308264534920454,nan,nan,0,-0.6821427345275879,-0.192522794008255,0.5627138018608093,-4.791876792907715,-0.6510713696479797,-0.6510713696479797,nan,nan,0,2.1123640537261963,0.5326015949249268,0.022940166294574738,0.43853726983070374,1.5461820363998413,1.5461820363998413,nan,nan,0,-0.5435327291488647,-0.2811315953731537,-0.6116217374801636,23.631677627563477,-0.48176635801792145,-0.48176635801792145,nan,nan,0,-0.17518725991249084,0.19044572114944458,-0.9269440770149231,-42.42036056518555,-0.08759362995624542,-0.08759362995624542,nan,nan,0,1.176168441772461,-0.3028113842010498,-0.9287663698196411,-4.822535991668701,0.188084214925766,0.188084214925766,nan,nan,0,4.3036088943481445,-0.10759641230106354,-0.8569120168685913,-2.9439830780029297,2.101804446429014,2.101804446429014,nan,nan,0,1.6026982069015503,0.2866628170013428,0.319095641374588,0.18451587855815887,1.111349105834961,1.111349105834961,nan,nan,0,-0.26012495160102844,0.5166061520576477,-1.7524601221084595,-1.5462156534194946,0.35993753373622894,0.35993753373622894,nan,nan,0,0.7304677367210388,-0.4099996089935303,-0.00965779647231102,-26.242061614990234,0.15523387491703033,0.15523387491703033,nan,nan,0,-1.577272653579712,0.022667907178401947,-0.7645116448402405,-1.2870750427246094,-0.788636326789856,-0.788636326789856,nan,nan,0,0,0.9991974830627441,-0.03806663677096367,0.007747509051114321,0.009768872521817684,0.6921533942222595,0.013536890037357807,-0.2129976898431778,nan,nan,nan,313.7716979980469,0.0,313.7716979980469,0.0,0.0,0.0676058679819107,-0.05639709159731865,-0.08322294801473618
1782900764134586701,-0.17855793237686157,-0.9839293956756592,0.4000000059604645,0.0,0.0,1,1,-0.06892824172973633,0.015510465018451214,0.01807478256523609,0.7047194242477417,-0.170830637216568,0.013792273588478565,2.188124418258667,0.3402254283428192,-0.16330327093601227,-10.038924217224121,1.494062215089798,1.494062215089798,nan,nan,0,-1.064845085144043,0.15237896144390106,0.8214744329452515,-16.256357192993164,-0.4824225418269634,-0.4824225418269634,nan,nan,0,-0.7696979641914368,-0.1887977123260498,0.2291770875453949,-4.22880744934082,-0.6948489844799042,-0.6948489844799042,nan,nan,0,2.3590688705444336,0.5389983057975769,0.827335000038147,3.2712559700012207,1.66953444480896,1.66953444480896,nan,nan,0,-0.826844334602356,-0.28604862093925476,-0.8755217790603638,21.88141632080078,-0.623422160744667,-0.623422160744667,nan,nan,0,0.11297967284917831,0.17543214559555054,-2.6699185371398926,-41.59670639038086,0.05648983642458916,0.05648983642458916,nan,nan,0,1.0791938304901123,-0.30964404344558716,-0.24361646175384521,-4.6012067794799805,0.13959690928459167,0.13959690928459167,nan,nan,0,4.3246846199035645,-0.10863632708787918,0.8078095316886902,-1.9713786840438843,2.112342309206724,2.112342309206724,nan,nan,0,1.2296231985092163,0.29890185594558716,0.4752092659473419,2.0497021675109863,0.924811601638794,0.924811601638794,nan,nan,0,-0.2280159294605255,0.5193328857421875,0.5117236971855164,-26.227304458618164,0.3759920448064804,0.3759920448064804,nan,nan,0,0.9468461871147156,-0.39000067114830017,1.2611645460128784,-19.959543228149414,0.2634231001138687,0.2634231001138687,nan,nan,0,-1.4739713668823242,0.000644298386760056,-0.531092643737793,-3.8824820518493652,-0.7369856834411621,-0.7369856834411621,nan,nan,0,0,0.9993329644203186,-0.034524865448474884,0.007438842207193375,0.009298841468989849,0.7047194242477417,-0.170830637216568,0.013792273588478565,nan,nan,nan,269.681396484375,230.68972778320312,269.681396484375,230.68972778320312,0.0,0.07091280817985535,-0.04015972092747688,-0.04984769970178604
1782900764144586701,-0.2660379111766815,-0.9639625549316406,0.4000000059604645,0.0,0.0,1,1,-0.06166982650756836,0.014063999988138676,0.019226595759391785,0.773406445980072,-0.1797391027212143,0.08144915103912354,1.9770115613937378,0.34960076212882996,1.0486170053482056,-5.143004417419434,1.3885057866573334,1.3885057866573334,nan,nan,0,-0.9887812733650208,0.16211901605129242,1.012842059135437,-13.356766700744629,-0.4443906359374523,-0.4443906359374523,nan,nan,0,-0.4646797180175781,-0.19181141257286072,-0.20519571006298065,0.3383760452270508,-0.5423398613929749,-0.5423398613929749,nan,nan,0,2.2415034770965576,0.561249852180481,2.526522397994995,2.764859199523926,1.610751748085022,1.610751748085022,nan,nan,0,-0.7216768264770508,-0.2918446660041809,-0.8858680725097656,15.350496292114258,-0.5708384066820145,-0.5708384066820145,nan,nan,0,0.056890882551670074,0.14259754121303558,-3.6596291065216064,-36.48162078857422,0.028445441275835037,0.028445441275835037,nan,nan,0,0.53098464012146,-0.30539822578430176,0.6391593217849731,-1.216904640197754,-0.1345076858997345,-0.1345076858997345,nan,nan,0,3.5532422065734863,-0.10134521126747131,0.8968369960784912,14.484251022338867,1.726621102541685,1.726621102541685,nan,nan,0,0.9090473651885986,0.3049067258834839,0.6938902735710144,11.331993103027344,0.7645236849784851,0.7645236849784851,nan,nan,0,-0.2491309642791748,0.5148428082466125,-0.6717277765274048,-16.204328536987305,0.36543452739715576,0.36543452739715576,nan,nan,0,0.9844312071800232,-0.3578701913356781,3.091709613800049,-7.907442092895508,0.2822156101465225,0.2822156101465225,nan,nan,0,-1.3324744701385498,-0.04178917035460472,-3.1265320777893066,-8.190122604370117,-0.6662372350692749,-0.6662372350692749,nan,nan,0,0,0.9994515776634216,-0.030895527452230453,0.006731907371431589,0.009825127199292183,0.773406445980072,-0.1797391027212143,0.08144915103912354,nan,nan,nan,172.1719512939453,120.2796401977539,172.1719512939453,120.2796401977539,0.0,0.07235518842935562,-0.04435718059539795,-0.060030657798051834
1782900764154586701,-0.35137587785720825,-0.9362344741821289,0.4000000059604645,0.0,0.0,1,1,-0.053063392639160156,0.013499910943210125,0.021008260548114777,0.9213006496429443,-0.04971243813633919,0.1384536623954773,1.629797101020813,0.37711775302886963,3.1275103092193604,7.593339443206787,1.214898556470871,1.214898556470871,nan,nan,0,-0.6184978485107422,0.1749284267425537,1.3740360736846924,-16.635665893554688,-0.25924892351031303,-0.25924892351031303,nan,nan,0,-0.27689382433891296,-0.20498858392238617,-1.1414612531661987,-3.667621374130249,-0.4484469145536423,-0.4484469145536423,nan,nan,0,1.9590972661972046,0.6079933047294617,4.981436729431152,5.448587894439697,1.4695486426353455,1.4695486426353455,nan,nan,0,-0.47066882252693176,-0.30657440423965454,-0.4035002589225769,4.243496894836426,-0.44533440470695496,-0.44533440470695496,nan,nan,0,-0.014716029167175293,0.07426053285598755,-6.05084228515625,-19.87434959411621,-0.0073580145835876465,-0.0073580145835876465,nan,nan,0,0.2159241884946823,-0.3007966876029968,0.062221698462963104,8.87180233001709,-0.2920379117131233,-0.2920379117131233,nan,nan,0,2.4534835815429688,-0.08878893405199051,1.6070480346679688,51.45511245727539,1.1767417900264263,1.1767417900264263,nan,nan,0,0.45786458253860474,0.3216215670108795,0.5279171466827393,23.496606826782227,0.5389322936534882,0.5389322936534882,nan,nan,0,-0.13256654143333435,0.5015299916267395,-1.0181093215942383,-7.395007610321045,0.423716738820076,0.423716738820076,nan,nan,0,0.8983027338981628,-0.27725642919540405,5.97151517868042,3.26289701461792,0.23915137350559235,0.23915137350559235,nan,nan,0,-1.1504260301589966,-0.05897167697548866,3.8697690963745117,-22.483186721801758,-0.5752130150794983,-0.5752130150794983,nan,nan,0,0,0.9995682239532471,-0.02659727819263935,0.006468509789556265,0.01067905593663454,0.9213006496429443,-0.04971243813633919,0.1384536623954773,nan,nan,nan,75.56690979003906,264.60321044921875,75.56690979003906,264.60321044921875,0.0,0.0635036900639534,-0.03472891449928284,-0.10709598660469055
1782900764164586701,-0.43388479948043823,-0.9009683728218079,0.4000000059604645,0.0,0.0,0,1,-0.04385185241699219,0.013938112184405327,0.02274877019226551,0.9331231713294983,0.024620413780212402,0.10878869891166687,1.3542360067367554,0.4228816628456116,4.804847240447998,15.003289222717285,1.0771180093288422,1.0771180093288422,nan,nan,0,-0.29209205508232117,0.18767105042934418,0.9405857920646667,-23.070392608642578,-0.09604602679610252,-0.09604602679610252,nan,nan,0,-0.12441875040531158,-0.22612684965133667,-1.8225250244140625,-6.540410995483398,-0.3722093775868416,-0.3722093775868416,nan,nan,0,1.5508449077606201,0.68539959192276,7.889598369598389,6.812699317932129,1.2654224634170532,1.2654224634170532,nan,nan,0,-0.2996164560317993,-0.3437470495700836,-2.1282081604003906,-2.994427442550659,-0.35980822145938873,-0.35980822145938873,nan,nan,0,-0.034230418503284454,0.03386085107922554,-1.8737304210662842,-2.8706090450286865,-0.017115209251642227,-0.017115209251642227,nan,nan,0,0.09715388715267181,-0.2998407483100891,0.30567440390586853,13.254680633544922,-0.35142306238412857,-0.35142306238412857,nan,nan,0,1.1809124946594238,-0.06967461854219437,1.8633588552474976,80.57759857177734,0.5404562465846539,0.5404562465846539,nan,nan,0,0.06515048444271088,0.32374948263168335,0.13288156688213348,28.453441619873047,0.34257524460554123,0.34257524460554123,nan,nan,0,0.04413873702287674,0.49585527181625366,-0.9605244398117065,-5.97167444229126,0.5120693780481815,0.5120693780481815,nan,nan,0,0.8430570960044861,-0.28768181800842285,0.21727383136749268,16.953107833862305,0.21152855455875397,0.21152855455875397,nan,nan,0,-0.9501950144767761,0.00047618610551580787,5.439898490905762,-29.822599411010742,-0.47509750723838806,-0.47509750723838806,nan,nan,0,0,0.9996690154075623,-0.02200143225491047,0.00671751145273447,0.01152391079813242,0.9331231713294983,0.024620413780212402,0.10878869891166687,nan,nan,nan,0.0,333.3212890625,0.0,333.3212890625,0.0,0.059406667947769165,-0.029431167989969254,-0.12480639666318893
1782900764174586701,-0.5128994584083557,-0.8584486842155457,0.4000000059604645,0.0,0.0,0,1,-0.03708314895629883,0.013873506337404251,0.023263532668352127,0.4837910830974579,-0.17161017656326294,0.09325248003005981,1.0266965627670288,0.4752982258796692,5.060060977935791,14.583260536193848,0.9133482873439789,0.9133482873439789,nan,nan,0,-0.07724089175462723,0.18711170554161072,-0.8804875612258911,-24.15657615661621,0.011379554867744446,0.011379554867744446,nan,nan,0,-0.15780974924564362,-0.2443079799413681,-1.7854148149490356,-7.991815090179443,-0.3889048770070076,-0.3889048770070076,nan,nan,0,1.2449597120285034,0.7701348662376404,8.065810203552246,8.887116432189941,1.1124798655509949,1.1124798655509949,nan,nan,0,-0.23022940754890442,-0.3999556005001068,-3.8295562267303467,-5.044496536254883,-0.3251146972179413,-0.3251146972179413,nan,nan,0,-0.021036967635154724,0.03363925218582153,-0.02035541832447052,0.23551616072654724,-0.010518483817577362,-0.010518483817577362,nan,nan,0,0.3243221640586853,-0.3062552511692047,-0.11558874696493149,14.95473575592041,-0.23783892393112183,-0.23783892393112183,nan,nan,0,0.7283443808555603,-0.05904288962483406,0.7489126324653625,84.32969665527344,0.3141721896827221,0.3141721896827221,nan,nan,0,0.12390501797199249,0.32952573895454407,0.19527700543403625,18.975805282592773,0.37195251137018204,0.37195251137018204,nan,nan,0,0.20529595017433167,0.502045750617981,0.5284469723701477,-21.416261672973633,0.592647984623909,0.592647984623909,nan,nan,0,1.0470694303512573,-0.2898373007774353,-0.05874764919281006,19.959514617919922,0.3135347217321396,0.3135347217321396,nan,nan,0,-0.8127315640449524,0.02381029538810253,0.7540968656539917,-26.370033264160156,-0.4063657820224762,-0.4063657820224762,nan,nan,0,0,0.9997348785400391,-0.01861940138041973,0.006719388533383608,0.011757825501263142,0.4837910830974579,-0.17161017656326294,0.09325248003005981,nan,nan,nan,0.0,453.4702453613281,0.0,453.4702453613281,0.0,0.05980571731925011,-0.002947824075818062,0.03643764927983284
1782900764184586701,-0.5877862572669983,-0.8090162873268127,0.4000000059604645,0.0,0.0,0,1,-0.03250741958618164,0.011412350460886955,0.02381889894604683,0.4506957530975342,-0.28412094712257385,-0.015109580010175705,0.7883627414703369,0.5245131254196167,4.8449320793151855,10.73890495300293,0.7941813766956329,0.7941813766956329,nan,nan,0,0.24932366609573364,0.1722741425037384,-1.8800171613693237,-19.005311965942383,0.17466183379292488,0.17466183379292488,nan,nan,0,-0.09657123684883118,-0.2580081820487976,-1.1953802108764648,-4.359687805175781,-0.3582856208086014,-0.3582856208086014,nan,nan,0,1.103369116783142,0.8440071940422058,6.950187683105469,6.484053134918213,1.0416845679283142,1.0416845679283142,nan,nan,0,-0.19378337264060974,-0.409999817609787,0.00026092538610100746,-6.250057220458984,-0.30689167976379395,-0.30689167976379395,nan,nan,0,-0.02311857044696808,0.029892969876527786,-0.28279638290405273,-0.4851866364479065,-0.01155928522348404,-0.01155928522348404,nan,nan,0,0.07423549890518188,-0.3018834590911865,0.5127490162849426,3.2045626640319824,-0.36288225650787354,-0.36288225650787354,nan,nan,0,1.0500637292861938,-0.05120023712515831,0.8406781554222107,67.79932403564453,0.47503186389803886,0.47503186389803886,nan,nan,0,0.3508613705635071,0.32756173610687256,-0.07100175321102142,15.771717071533203,0.48543068766593933,0.48543068766593933,nan,nan,0,0.11455444246530533,0.5029374361038208,-0.026149965822696686,-13.449515342712402,0.5472772307693958,0.5472772307693958,nan,nan,0,0.9195975065231323,-0.29279395937919617,0.24101829528808594,19.428264617919922,0.2497987598180771,0.2497987598180771,nan,nan,0,-1.0088727474212646,0.02356918342411518,1.1176040172576904,-24.996767044067383,-0.5044363737106323,-0.5044363737106323,nan,nan,0,0,0.9997797012329102,-0.016319576650857925,0.005511428229510784,0.012000137940049171,0.4506957530975342,-0.28412094712257385,-0.015109580010175705,nan,nan,nan,0.0,424.7035217285156,0.0,424.7035217285156,0.0,0.0699196606874466,0.009470277465879917,0.0667845830321312
1782900764194586701,-0.6579396724700928,-0.7530706524848938,0.4000000059604645,0.0,0.0,0,1,-0.027944564819335938,0.00810368824750185,0.023001911118626595,0.4838882088661194,-0.3534505367279053,-0.1305665373802185,0.7224603891372681,0.5680601596832275,4.118710517883301,6.395439624786377,0.7612302005290985,0.7612302005290985,nan,nan,0,0.3651941418647766,0.15005460381507874,-2.358776092529297,-9.079487800598145,0.23259707167744637,0.23259707167744637,nan,nan,0,-0.0837133377790451,-0.266979843378067,-0.8209831118583679,-2.272845983505249,-0.35185667127370834,-0.35185667127370834,nan,nan,0,1.0818326473236084,0.9014332890510559,5.180360317230225,4.244261264801025,1.0309163331985474,1.0309163331985474,nan,nan,0,-0.3091832995414734,-0.4099998474121094,0.0001440441992599517,-1.857468605041504,-0.36459164321422577,-0.36459164321422577,nan,nan,0,-0.007663995027542114,0.022783096879720688,-0.3093563914299011,-0.5005029439926147,-0.003831997513771057,-0.003831997513771057,nan,nan,0,-0.0920807421207428,-0.2972326874732971,0.532700777053833,-1.6321624517440796,-0.4460403770208359,-0.4460403770208359,nan,nan,0,1.1497975587844849,-0.04284264147281647,0.9936964511871338,44.915340423583984,0.5248987786471844,0.5248987786471844,nan,nan,0,0.4468576908111572,0.3262721002101898,-0.10967113822698593,8.485391616821289,0.5334288477897644,0.5334288477897644,nan,nan,0,-0.0028843954205513,0.5049592852592468,-0.0378105528652668,-8.29255199432373,0.4885578118264675,0.4885578118264675,nan,nan,0,0.8141936659812927,-0.29387450218200684,1.1229257583618164,17.4794864654541,0.1970968395471573,0.1970968395471573,nan,nan,0,-1.0703303813934326,0.02795352227985859,1.7341983318328857,-22.21586799621582,-0.5351651906967163,-0.5351651906967163,nan,nan,0,0,0.9998273849487305,-0.014017348177731037,0.003890485502779484,0.011556091718375683,0.4838882088661194,-0.3534505367279053,-0.1305665373802185,nan,nan,nan,0.0,214.2216796875,0.0,214.2216796875,0.0,0.07931450009346008,0.024077143520116806,0.06603844463825226
1782900764204586701,-0.7227957844734192,-0.6910617351531982,0.4000000059604645,0.0,0.0,0,1,-0.023070335388183594,0.004316843114793301,0.021191392093896866,0.4800060987472534,-0.38202017545700073,-0.20050393044948578,0.7544457912445068,0.6033093333244324,3.300092935562134,3.668869733810425,0.7772229015827179,0.7772229015827179,nan,nan,0,0.26013556122779846,0.12480833381414413,-2.5669572353363037,-0.8397601842880249,0.1800677813589573,0.1800677813589573,nan,nan,0,-0.021053403615951538,-0.27256378531455994,-0.5437232851982117,-0.5638944506645203,-0.32052670419216156,-0.32052670419216156,nan,nan,0,1.1457953453063965,0.9376169443130493,3.049156427383423,1.359398365020752,1.0628976821899414,1.0628976821899414,nan,nan,0,-0.34957143664360046,-0.3998795747756958,0.5749671459197998,0.44294530153274536,-0.3847857117652893,-0.3847857117652893,nan,nan,0,-0.008257418870925903,0.016097603365778923,-0.3005957007408142,-0.6130572557449341,-0.004128709435462952,-0.004128709435462952,nan,nan,0,-0.29464322328567505,-0.2936880886554718,0.31017202138900757,-3.0105981826782227,-0.547321617603302,-0.547321617603302,nan,nan,0,0.7773007154464722,-0.03445246443152428,0.7550455331802368,19.9322566986084,0.338650356978178,0.338650356978178,nan,nan,0,0.22552594542503357,0.32762205600738525,0.19534869492053986,-0.47350430488586426,0.4227629750967026,0.4227629750967026,nan,nan,0,-0.06380683928728104,0.5089529752731323,0.5747213959693909,-5.44253396987915,0.45809658989310265,0.45809658989310265,nan,nan,0,0.7285839915275574,-0.2917744219303131,-0.2543777823448181,18.3197078704834,0.1542920023202896,0.1542920023202896,nan,nan,0,-1.0696778297424316,0.035705581307411194,0.12333503365516663,-18.076175689697266,-0.5348389148712158,-0.5348389148712158,nan,nan,0,0,0.9998747706413269,-0.011557033285498619,0.0020359379705041647,0.010619663633406162,0.4800060987472534,-0.38202017545700073,-0.20050393044948578,nan,nan,nan,0.0,239.44125366210938,0.0,239.44125366210938,0.0,0.08520148694515228,0.03271011635661125,0.033192023634910583
1782900764214586701,-0.7818323373794556,-0.6234887838363647,0.4000000059604645,0.0,0.0,0,1,-0.018439292907714844,0.00012159830657765269,0.018938247114419937,0.4505235254764557,-0.43539491295814514,-0.23371417820453644,0.7254147529602051,0.6302629113197327,2.4110476970672607,0.5916292667388916,0.762707382440567,0.762707382440567,nan,nan,0,0.166066974401474,0.09936785697937012,-2.4496147632598877,4.1843061447143555,0.13303348794579506,0.13303348794579506,nan,nan,0,-0.008869469165802002,-0.27806589007377625,-0.6560566425323486,-0.5555606484413147,-0.3144347369670868,-0.3144347369670868,nan,nan,0,1.305545449256897,0.9554763436317444,1.3689851760864258,1.2368128299713135,1.1427727341651917,1.1427727341651917,nan,nan,0,-0.44460201263427734,-0.38529762625694275,0.876394510269165,0.9751161932945251,-0.43230099976062775,-0.43230099976062775,nan,nan,0,0.006075315177440643,0.012527070939540863,-0.13470426201820374,-0.35532239079475403,0.0030376575887203217,0.0030376575887203217,nan,nan,0,-0.43185916543006897,-0.2926940619945526,0.06234680116176605,1.1512072086334229,-0.615929588675499,-0.615929588675499,nan,nan,0,0.6063443422317505,-0.02781272679567337,0.6888362169265747,10.876181602478027,0.2531721703708172,0.2531721703708172,nan,nan,0,0.13541308045387268,0.3302903473377228,0.3576500117778778,-0.5074983835220337,0.37770654261112213,0.37770654261112213,nan,nan,0,-0.11596640199422836,0.5190866589546204,1.0476115942001343,-3.1988039016723633,0.432016808539629,0.432016808539629,nan,nan,0,0.7047774791717529,-0.3002709746360779,-0.46971696615219116,22.304290771484375,0.1423887461423874,0.1423887461423874,nan,nan,0,-1.0312590599060059,0.02912176214158535,0.2101617455482483,-15.576659202575684,-0.5156295299530029,-0.5156295299530029,nan,nan,0,0,0.9999126195907593,-0.009219590574502945,-2.6504760171519592e-05,0.009469140321016312,0.4505235254764557,-0.43539491295814514,-0.23371417820453644,nan,nan,nan,0.0,261.78656005859375,0.0,261.78656005859375,0.0,0.08679752796888351,0.051656998693943024,0.011121992021799088
1782900764224586701,-0.8345740437507629,-0.5508958697319031,0.4000000059604645,0.0,0.0,0,1,-0.013329505920410156,-0.0042095184326171875,0.016587235033512115,0.5478758811950684,-0.4186164438724518,-0.23963993787765503,0.7098759412765503,0.6493339538574219,1.6350122690200806,-1.2221101522445679,0.7549379765987396,0.7549379765987396,nan,nan,0,0.16453060507774353,0.07867299765348434,-1.7646905183792114,9.590246200561523,0.13226530328392982,0.13226530328392982,nan,nan,0,-0.0442269891500473,-0.2848895192146301,-0.7289775013923645,1.139862298965454,-0.33211349695920944,-0.33211349695920944,nan,nan,0,1.294556975364685,0.9625966548919678,0.5250979661941528,2.081413984298706,1.1372784972190857,1.1372784972190857,nan,nan,0,-0.4789257347583771,-0.3715716004371643,0.8739523887634277,1.1464762687683105,-0.4494628608226776,-0.4494628608226776,nan,nan,0,0.01332896202802658,0.010735657066106796,-0.055793363600969315,-0.35870519280433655,0.00666448101401329,0.00666448101401329,nan,nan,0,-0.43954136967658997,-0.29237207770347595,0.02756730653345585,-2.5332186222076416,-0.6197706907987595,-0.6197706907987595,nan,nan,0,0.802725076675415,-0.019854029640555382,0.8523749709129333,16.509571075439453,0.35136253759264946,0.35136253759264946,nan,nan,0,0.06102870777249336,0.33436068892478943,0.39876818656921387,3.4922571182250977,0.34051435627043247,0.34051435627043247,nan,nan,0,-0.12641775608062744,0.5296576619148254,1.050649881362915,-8.910741806030273,0.42679113149642944,0.42679113149642944,nan,nan,0,0.6851052641868591,-0.30685096979141235,-0.8669874668121338,20.49771499633789,0.1325526386499405,0.1325526386499405,nan,nan,0,-1.0130348205566406,0.030600816011428833,-0.24679958820343018,-18.401643753051758,-0.5065174102783203,-0.5065174102783203,nan,nan,0,0,0.9999412894248962,-0.006646961439400911,-0.002159862080588937,0.008279293775558472,0.5478758811950684,-0.4186164438724518,-0.23963993787765503,nan,nan,nan,0.0,250.67318725585938,0.0,250.67318725585938,0.0,0.09053181111812592,0.07401740550994873,-0.017887568101286888
1782900764234586701,-0.8805962204933167,-0.47386741638183594,0.4000000059604645,0.0,0.0,0,1,-0.007205963134765625,-0.008008480072021484,0.014192731119692326,0.6518312096595764,-0.34209004044532776,-0.24904462695121765,0.7755622863769531,0.6628555655479431,1.1714982986450195,-1.169492483139038,0.787781149148941,0.787781149148941,nan,nan,0,0.18582099676132202,0.06535129994153976,-1.0184592008590698,10.156078338623047,0.14291049912571907,0.14291049912571907,nan,nan,0,-0.06082400679588318,-0.2925341725349426,-0.7629262208938599,1.7353018522262573,-0.3404120057821274,-0.3404120057821274,nan,nan,0,1.2376290559768677,0.9667540192604065,0.3617725670337677,2.6505649089813232,1.108814537525177,1.108814537525177,nan,nan,0,-0.5350254774093628,-0.37077367305755615,-0.12076393514871597,-0.5506812930107117,-0.47751273214817047,-0.47751273214817047,nan,nan,0,0.014490567147731781,0.008876791223883629,-0.2286580353975296,-0.9078726768493652,0.0072452835738658905,0.0072452835738658905,nan,nan,0,-0.47481030225753784,-0.29222729802131653,-0.00019086897373199463,-4.963391304016113,-0.6374051570892334,-0.6374051570892334,nan,nan,0,0.6861057281494141,-0.009348735213279724,1.129149079322815,17.243633270263672,0.29305286332964897,0.29305286332964897,nan,nan,0,0.07283852994441986,0.3389529883861542,0.4530593454837799,4.805582046508789,0.3464192673563957,0.3464192673563957,nan,nan,0,-0.15178829431533813,0.538670539855957,0.8296343684196472,-13.564072608947754,0.4141058623790741,0.4141058623790741,nan,nan,0,0.6184922456741333,-0.31713828444480896,-1.2468736171722412,19.21297264099121,0.09924612939357758,0.09924612939357758,nan,nan,0,-1.0225803852081299,0.03753643110394478,0.39348167181015015,-20.368484497070312,-0.5112901926040649,-0.5112901926040649,nan,nan,0,0,0.9999604821205139,-0.0035744006745517254,-0.004029757343232632,0.007081776857376099,0.6518312096595764,-0.34209004044532776,-0.24904462695121765,nan,nan,nan,0.0,255.40126037597656,0.0,255.40126037597656,0.0,0.09515177458524704,0.09719950705766678,-0.047733597457408905
1782900764244586701,-0.9195279479026794,-0.39302459359169006,0.4000000059604645,0.0,0.0,0,1,-0.0007638931274414062,-0.010952949523925781,0.011720939539372921,0.6310993432998657,-0.2597235441207886,-0.250447541475296,0.769801139831543,0.6746261119842529,1.1241644620895386,-0.8450206518173218,0.784900575876236,0.784900575876236,nan,nan,0,0.21980193257331848,0.05698158219456673,-0.7134527564048767,7.34018611907959,0.1599009670317173,0.1599009670317173,nan,nan,0,0.031937867403030396,-0.29905882477760315,-0.5470014214515686,2.2601938247680664,-0.2940310686826706,-0.2940310686826706,nan,nan,0,1.1841650009155273,0.9721866846084595,0.606974720954895,2.9849119186401367,1.0820825099945068,1.0820825099945068,nan,nan,0,-0.6083067655563354,-0.3719351887702942,-0.44718143343925476,-1.0920069217681885,-0.5141533762216568,-0.5141533762216568,nan,nan,0,0.007321618497371674,0.007520596496760845,-0.22130095958709717,-0.8757709264755249,0.003660809248685837,0.003660809248685837,nan,nan,0,-0.41545456647872925,-0.29241275787353516,-0.01417586114257574,-7.310523986816406,-0.6077272891998291,-0.6077272891998291,nan,nan,0,0.5742106437683105,0.0025231679901480675,1.1884825229644775,9.08337116241455,0.2371053211390972,0.2371053211390972,nan,nan,0,0.03995661810040474,0.3438982665538788,0.4781048595905304,0.6197614073753357,0.32997831143438816,0.32997831143438816,nan,nan,0,-0.1595228910446167,0.545716404914856,0.6313030123710632,-15.338578224182129,0.4102385640144348,0.4102385640144348,nan,nan,0,0.6642406582832336,-0.3302750289440155,-1.4436028003692627,18.287029266357422,0.12212033569812775,0.12212033569812775,nan,nan,0,-0.9907776117324829,0.048885516822338104,1.0023382902145386,-21.095640182495117,-0.49538880586624146,-0.49538880586624146,nan,nan,0,0,0.9999678134918213,-0.0003497862780932337,-0.005478646140545607,0.005858256481587887,0.6310993432998657,-0.2597235441207886,-0.250447541475296,nan,nan,nan,0.0,258.3522644042969,0.0,258.3522644042969,0.0,0.09882128983736038,0.11483003199100494,-0.07829118520021439
1782900764254586701,-0.9510566592216492,-0.30901649594306946,0.4000000059604645,0.0,0.0,0,1,0.004777009133249521,-0.013064384460449219,0.009150426834821701,0.4143284559249878,-0.21272552013397217,-0.25209927558898926,0.8017617464065552,0.6873088479042053,1.2119883298873901,-2.1864306926727295,0.8008808791637421,0.8008808791637421,nan,nan,0,0.2419634461402893,0.05006072297692299,-0.8542817234992981,6.116094589233398,0.1709817238152027,0.1709817238152027,nan,nan,0,0.07799141108989716,-0.30395838618278503,-0.37514400482177734,2.016834259033203,-0.2710042968392372,-0.2710042968392372,nan,nan,0,1.1379687786102295,0.9827264547348022,1.0303760766983032,5.348597526550293,1.058984398841858,1.058984398841858,nan,nan,0,-0.6613258123397827,-0.3832124173641205,-0.7421776652336121,-0.696036159992218,-0.5406628996133804,-0.5406628996133804,nan,nan,0,0.007612593472003937,0.007847137749195099,-0.13773813843727112,-0.6675127744674683,0.0038062967360019684,0.0038062967360019684,nan,nan,0,-0.32345619797706604,-0.2957642674446106,-0.8529970645904541,-5.574576377868652,-0.5617281049489975,-0.5617281049489975,nan,nan,0,0.5725672245025635,0.012650428339838982,0.570418655872345,7.555377006530762,0.23628361150622368,0.23628361150622368,nan,nan,0,0.07060174643993378,0.35096484422683716,1.075872540473938,-4.817145824432373,0.3453008756041527,0.3453008756041527,nan,nan,0,-0.14534494280815125,0.5547755360603333,1.6209943294525146,-32.33675003051758,0.41732753813266754,0.41732753813266754,nan,nan,0,0.764047384262085,-0.3426905572414398,-0.692360520362854,17.86796760559082,0.1720236986875534,0.1720236986875534,nan,nan,0,-0.9855733513832092,0.05923813208937645,-0.32079780101776123,-19.423667907714844,-0.4927866756916046,-0.4927866756916046,nan,nan,0,0,0.9999651908874512,0.0024183124769479036,-0.006521207746118307,0.004590687807649374,0.4143284559249878,-0.21272552013397217,-0.25209927558898926,nan,nan,nan,0.0,295.1391296386719,0.0,295.1391296386719,0.0,0.10059615969657898,0.1419319212436676,-0.05230967327952385
1782900764264586701,-0.9749282598495483,-0.22251944243907928,0.4000000059604645,0.0,0.0,0,1,0.008587236516177654,-0.015467643737792969,0.007555844262242317,0.33201247453689575,-0.2394595444202423,-0.11232511699199677,0.7837346792221069,0.6970961093902588,0.8563447594642639,-1.4090445041656494,0.7918673455715179,0.7918673455715179,nan,nan,0,0.2663378417491913,0.042796920984983444,-0.6627542972564697,5.835715293884277,0.1831689216196537,0.1831689216196537,nan,nan,0,0.05809478461742401,-0.30760088562965393,-0.37469184398651123,1.364526629447937,-0.2809526100754738,-0.2809526100754738,nan,nan,0,1.0435541868209839,0.9935413599014282,1.034186601638794,3.687784433364868,1.011777102947235,1.011777102947235,nan,nan,0,-0.7161383628845215,-0.39484331011772156,-0.7870169281959534,-0.848316490650177,-0.5680691748857498,-0.5680691748857498,nan,nan,0,0.011793091893196106,0.008554748259484768,-0.1176028698682785,-0.5865590572357178,0.005896545946598053,0.005896545946598053,nan,nan,0,-0.22173422574996948,-0.29750674962997437,-0.01588328741490841,-9.103139877319336,-0.5108671188354492,-0.5108671188354492,nan,nan,0,0.9119671583175659,0.020626239478588104,0.7491464018821716,10.258102416992188,0.4059835784137249,0.4059835784137249,nan,nan,0,0.168855682015419,0.3556552529335022,0.3035047948360443,-2.2248048782348633,0.3944278433918953,0.3944278433918953,nan,nan,0,-0.13857847452163696,0.563635528087616,0.7587340474128723,-22.186986923217773,0.4207107722759247,0.4207107722759247,nan,nan,0,0.8588439226150513,-0.3504919409751892,-0.7787327766418457,17.868816375732422,0.21942196786403656,0.21942196786403656,nan,nan,0,-1.0334149599075317,0.06432302296161652,0.020331472158432007,-19.831769943237305,-0.5167074799537659,-0.5167074799537659,nan,nan,0,0,0.99995356798172,0.00432266341522336,-0.00771741708740592,0.003810970578342676,0.33201247453689575,-0.2394595444202423,-0.11232511699199677,nan,nan,nan,0.0,301.6958923339844,0.0,301.6958923339844,0.0,0.11061637848615646,0.16752630472183228,-0.05151407793164253
1782900764274586701,-0.9909498691558838,-0.13423265516757965,0.4000000059604645,0.0,0.0,0,1,0.011453977786004543,-0.017418861389160156,0.006728236097842455,0.24017195403575897,-0.15957440435886383,-0.05830654129385948,0.744581937789917,0.7048090696334839,0.7342987060546875,-0.22256608307361603,0.772290974855423,0.772290974855423,nan,nan,0,0.22847983241081238,0.03729931265115738,-0.4774743318557739,5.893306732177734,0.16423991695046425,0.16423991695046425,nan,nan,0,0.04012636840343475,-0.3114811182022095,-0.41579586267471313,1.3672583103179932,-0.2899368181824684,-0.2899368181824684,nan,nan,0,0.9828540682792664,1.0027345418930054,0.7995667457580566,2.1255598068237305,0.9814270436763763,0.9814270436763763,nan,nan,0,-0.7743467092514038,-0.40888556838035583,-0.9988890290260315,-1.22328782081604,-0.597173348069191,-0.597173348069191,nan,nan,0,0.017709843814373016,0.009184276685118675,-0.11891722679138184,-0.5866562128067017,0.008854921907186508,0.008854921907186508,nan,nan,0,-0.28890976309776306,-0.2976904809474945,-0.05904829502105713,-9.717854499816895,-0.544454887509346,-0.544454887509346,nan,nan,0,0.9888725876808167,0.028167789801955223,0.675521731376648,7.763448715209961,0.44443629309535027,0.44443629309535027,nan,nan,0,0.284481406211853,0.35827919840812683,0.26443082094192505,-1.7098389863967896,0.4522407054901123,0.4522407054901123,nan,nan,0,-0.19247356057167053,0.5701559782028198,0.6571781635284424,-22.400970458984375,0.3937632292509079,0.3937632292509079,nan,nan,0,0.8374937176704407,-0.35732531547546387,-0.6770147085189819,16.90715217590332,0.20874686539173126,0.20874686539173126,nan,nan,0,-1.0559364557266235,0.06923852860927582,0.2199866622686386,-20.548030853271484,-0.5279682278633118,-0.5279682278633118,nan,nan,0,0,0.9999397993087769,0.005756006110459566,-0.00868985615670681,0.003413806203752756,0.24017195403575897,-0.15957440435886383,-0.05830654129385948,nan,nan,nan,0.0,335.3671569824219,0.0,335.3671569824219,0.0,0.11855243891477585,0.1910616010427475,-0.05502118170261383
1782900764284586701,-0.9989930987358093,-0.04486418515443802,0.4000000059604645,0.0,0.0,0,1,0.013365144841372967,-0.018689632415771484,0.006360541097819805,0.141805499792099,-0.09402699023485184,-0.017399469390511513,0.6609580516815186,0.7110190987586975,0.5943204760551453,-0.06247401237487793,0.7304790318012238,0.7304790318012238,nan,nan,0,0.2296788990497589,0.03309818357229233,-0.36988571286201477,6.403433799743652,0.16483945026993752,0.16483945026993752,nan,nan,0,0.047535449266433716,-0.31388092041015625,-0.18844811618328094,2.1955909729003906,-0.28623227775096893,-0.28623227775096893,nan,nan,0,0.9203857779502869,1.008334994316101,0.4919586181640625,2.020068407058716,0.9501928985118866,0.9501928985118866,nan,nan,0,-0.8171789646148682,-0.4100000262260437,0.00013603398110717535,-4.266075611114502,-0.6185894757509232,-0.6185894757509232,nan,nan,0,0.0170917809009552,0.00931460689753294,-0.16319814324378967,-0.6945643424987793,0.0085458904504776,0.0085458904504776,nan,nan,0,-0.250373512506485,-0.2976309359073639,-0.019329097121953964,-8.944645881652832,-0.525186762213707,-0.525186762213707,nan,nan,0,1.0658464431762695,0.034891527146101,0.5867217779159546,5.527455806732178,0.4829232208430767,0.4829232208430767,nan,nan,0,0.32259318232536316,0.36004170775413513,0.1650083065032959,-1.9493072032928467,0.47129659354686737,0.47129659354686737,nan,nan,0,-0.21594858169555664,0.5752659440040588,0.5122542977333069,-21.832738876342773,0.38202571868896484,0.38202571868896484,nan,nan,0,0.8623520135879517,-0.36332589387893677,-0.604741096496582,17.878122329711914,0.22117601335048676,0.22117601335048676,nan,nan,0,-1.0686440467834473,0.07402097433805466,0.1563962697982788,-20.112817764282227,-0.5343220233917236,-0.5343220233917236,nan,nan,0,0,0.9999287724494934,0.006711915601044893,-0.00932325143367052,0.0032425017561763525,0.141805499792099,-0.09402699023485184,-0.017399469390511513,nan,nan,nan,0.0,328.7700500488281,0.0,328.7700500488281,0.0,0.1262456625699997,0.21337449550628662,-0.05951397493481636
1782900764294586701,-0.9989929795265198,0.04486646503210068,0.4000000059604645,0.0,0.0,0,1,0.014296635054051876,-0.019220352172851562,0.006340829189866781,0.04393279179930687,-0.01463412307202816,0.015657680109143257,0.6432822942733765,0.716292679309845,0.5386141538619995,0.4844038784503937,0.7216411530971527,0.7216411530971527,nan,nan,0,0.1655040979385376,0.03013845533132553,-0.2307286560535431,6.576621055603027,0.13275204971432686,0.13275204971432686,nan,nan,0,0.027630478143692017,-0.31442126631736755,-0.06686441600322723,0.7176472544670105,-0.2961847633123398,-0.2961847633123398,nan,nan,0,0.8526217937469482,1.0117058753967285,0.29065677523612976,1.508915662765503,0.9163109064102173,0.9163109064102173,nan,nan,0,-0.8530600070953369,-0.4100000262260437,0.00016355072148144245,-5.193911075592041,-0.6365299969911575,-0.6365299969911575,nan,nan,0,0.018186844885349274,0.009331194683909416,-0.2119106650352478,-0.688579797744751,0.009093422442674637,0.009093422442674637,nan,nan,0,-0.15670667588710785,-0.29780203104019165,-0.05556531623005867,-7.469494819641113,-0.4783533439040184,-0.4783533439040184,nan,nan,0,1.1130684614181519,0.04062812402844429,0.4729939103126526,5.606916427612305,0.5065342299640179,0.5065342299640179,nan,nan,0,0.32055211067199707,0.36137956380844116,0.11195159703493118,-1.239236831665039,0.4702760577201843,0.4702760577201843,nan,nan,0,-0.19946086406707764,0.5793466567993164,0.4160120189189911,-20.57308578491211,0.39026957750320435,0.39026957750320435,nan,nan,0,0.8953121900558472,-0.36864492297172546,-0.5548633337020874,19.783172607421875,0.2376561015844345,0.2376561015844345,nan,nan,0,-1.0685064792633057,0.07870034128427505,-0.11702218651771545,-19.78089141845703,-0.5342532396316528,-0.5342532396316528,nan,nan,0,0,0.999923050403595,0.00717835733667016,-0.009587041102349758,0.0032388761173933744,0.04393279179930687,-0.01463412307202816,0.015657680109143257,nan,nan,nan,0.0,328.9768981933594,0.0,328.9768981933594,0.0,0.13282348215579987,0.23549029231071472,-0.06638146191835403
1782900764304586701,-0.9909496903419495,0.1342339813709259,0.4000000059604645,0.0,0.0,0,1,0.01451661717146635,-0.019060611724853516,0.006731150671839714,-0.007051400374621153,0.04772736132144928,0.05646909400820732,0.6148492693901062,0.719843864440918,0.3131844401359558,0.723325252532959,0.7074246406555176,0.7074246406555176,nan,nan,0,0.1387181580066681,0.029298340901732445,0.012060735374689102,6.338068962097168,0.1193590797483921,0.1193590797483921,nan,nan,0,-0.02528858184814453,-0.31454986333847046,-0.020890705287456512,1.9903740882873535,-0.32264429330825806,-0.32264429330825806,nan,nan,0,0.7283147573471069,1.0116113424301147,-0.08509743213653564,1.214708924293518,0.8541573882102966,0.8541573882102966,nan,nan,0,-0.886966347694397,-0.4100000560283661,0.0001661967544350773,-6.15313720703125,-0.6534831672906876,-0.6534831672906876,nan,nan,0,0.021390382200479507,0.009502476081252098,-0.15224789083003998,-0.6283677220344543,0.010695191100239754,0.010695191100239754,nan,nan,0,-0.07167341560125351,-0.29826876521110535,-0.06327976286411285,-5.903970241546631,-0.43583671376109123,-0.43583671376109123,nan,nan,0,1.2218623161315918,0.045839231461286545,0.4418715238571167,12.303836822509766,0.5609311573207378,0.5609311573207378,nan,nan,0,0.3521823585033417,0.36237117648124695,0.05050389841198921,0.7107334733009338,0.48609118163585663,0.48609118163585663,nan,nan,0,-0.18136191368103027,0.582461953163147,0.3110499083995819,-19.456588745117188,0.399319052696228,0.399319052696228,nan,nan,0,0.922002375125885,-0.37337586283683777,-0.4962828755378723,21.584936141967773,0.25100119411945343,0.25100119411945343,nan,nan,0,-1.064713716506958,0.08351051062345505,-0.3917715847492218,-20.636661529541016,-0.532356858253479,-0.532356858253479,nan,nan,0,0,0.9999223947525024,0.0072899479418993,-0.009505516849458218,0.003434500191360712,-0.007051400374621153,0.04772736132144928,0.05646909400820732,nan,nan,nan,0.0,342.2960205078125,0.0,342.2960205078125,0.0,0.139598548412323,0.2600822150707245,-0.06798440963029861
1782900764314586701,-0.9749277234077454,0.22252167761325836,0.4000000059604645,0.0,0.0,0,1,0.014228543266654015,-0.018115997314453125,0.007271172013133764,-0.05896206945180893,0.13436244428157806,0.05085790529847145,0.6068621873855591,0.721939206123352,0.19064535200595856,0.4432036578655243,0.703431099653244,0.703431099653244,nan,nan,0,0.09588577598333359,0.030585307627916336,0.19032368063926697,4.634119987487793,0.09794288873672485,0.09794288873672485,nan,nan,0,-0.06645797193050385,-0.31454968452453613,-0.017804360017180443,1.6979877948760986,-0.3432289883494377,-0.3432289883494377,nan,nan,0,0.6079038381576538,1.0087308883666992,-0.35178545117378235,1.0928106307983398,0.7939519286155701,0.7939519286155701,nan,nan,0,-0.8900461196899414,-0.4100000262260437,0.00018051519873552024,-7.171793460845947,-0.6550230532884598,-0.6550230532884598,nan,nan,0,0.017836570739746094,0.01000877283513546,-0.12884986400604248,-0.5556609630584717,0.008918285369873047,0.008918285369873047,nan,nan,0,0.007152050733566284,-0.29957327246665955,-0.17445681989192963,-6.534492492675781,-0.39642398059368134,-0.39642398059368134,nan,nan,0,1.222299337387085,0.050697676837444305,0.3993023931980133,13.775245666503906,0.5611496679484844,0.5611496679484844,nan,nan,0,0.3539885878562927,0.3637312948703766,0.11153113842010498,2.4588253498077393,0.48699429631233215,0.48699429631233215,nan,nan,0,-0.14787650108337402,0.5847772359848022,0.23347899317741394,-21.63190269470215,0.41606175899505615,0.41606175899505615,nan,nan,0,0.8955977559089661,-0.37753376364707947,-0.44459789991378784,21.328489303588867,0.23779888451099396,0.23779888451099396,nan,nan,0,-1.0575003623962402,0.08848514407873154,-0.39386889338493347,-21.190692901611328,-0.5287501811981201,-0.5287501811981201,nan,nan,0,0,0.9999268651008606,0.007146801799535751,-0.009031613357365131,0.0036997750867158175,-0.05896206945180893,0.13436244428157806,0.05085790529847145,nan,nan,nan,0.0,346.8660583496094,0.0,346.8660583496094,0.0,0.14713846147060394,0.2847345471382141,-0.06921610236167908
1782900764324586701,-0.9510560035705566,0.30901864171028137,0.4000000059604645,0.0,0.0,0,1,0.013441229239106178,-0.016483783721923828,0.007773527875542641,-0.10901248455047607,0.19714511930942535,0.04753680154681206,0.5524380803108215,0.7221421003341675,0.003241595346480608,0.7695567011833191,0.6762190461158752,0.6762190461158752,nan,nan,0,0.11430194228887558,0.033412858843803406,0.34021270275115967,4.119037628173828,0.10715097188949585,0.10715097188949585,nan,nan,0,-0.08134482055902481,-0.31427574157714844,-0.02567148208618164,0.030371546745300293,-0.3506724126636982,-0.3506724126636982,nan,nan,0,0.45181384682655334,1.0030335187911987,-0.5973760485649109,1.243617296218872,0.7159069329500198,0.7159069329500198,nan,nan,0,-0.8943488597869873,-0.4100000262260437,0.00020735166617669165,-7.9213690757751465,-0.6571744233369827,-0.6571744233369827,nan,nan,0,0.013556499034166336,0.01015611831098795,-0.18666872382164001,-0.5670437216758728,0.006778249517083168,0.006778249517083168,nan,nan,0,0.13563454151153564,-0.30127325654029846,-0.1846785694360733,-5.884375095367432,-0.33218273520469666,-0.33218273520469666,nan,nan,0,1.1985602378845215,0.05528416857123375,0.3769455850124359,15.199636459350586,0.5492801181972027,0.5492801181972027,nan,nan,0,0.3306083083152771,0.36531925201416016,0.10254448652267456,3.1009364128112793,0.47530415654182434,0.47530415654182434,nan,nan,0,-0.1162886992096901,0.5859276652336121,0.0998135581612587,-21.608442306518555,0.4318556599318981,0.4318556599318981,nan,nan,0,0.9111457467079163,-0.3809160590171814,-0.3779902756214142,21.835601806640625,0.24557287991046906,0.24557287991046906,nan,nan,0,-1.0377130508422852,0.09370174258947372,-0.4857599139213562,-21.553979873657227,-0.5188565254211426,-0.5188565254211426,nan,nan,0,0,0.9999357461929321,0.006752319168299437,-0.008215527050197124,0.003941924311220646,-0.10901248455047607,0.19714511930942535,0.04753680154681206,nan,nan,nan,0.0,348.2232971191406,0.0,348.2232971191406,0.0,0.15505193173885345,0.31049007177352905,-0.06710700690746307
1782900764334586701,-0.9195270538330078,0.3930266499519348,0.4000000059604645,0.0,0.0,0,1,0.012050075456500053,-0.014302730560302734,0.008245266042649746,-0.17538239061832428,0.2447364330291748,0.042881373316049576,0.5230653882026672,0.7210473418235779,-0.09525635093450546,0.8228838443756104,0.6615327000617981,0.6615327000617981,nan,nan,0,0.137567400932312,0.03701579570770264,0.36479419469833374,2.5813634395599365,0.11878370121121407,0.11878370121121407,nan,nan,0,-0.09595576673746109,-0.3140864968299866,-0.02901621162891388,-0.2840011715888977,-0.35797788575291634,-0.35797788575291634,nan,nan,0,0.3194344639778137,0.9950905442237854,-0.8158990144729614,0.7618815898895264,0.64971724152565,0.64971724152565,nan,nan,0,-0.8369078636169434,-0.4100000560283661,0.00022035464644432068,-8.549298286437988,-0.6284539252519608,-0.6284539252519608,nan,nan,0,0.014380201697349548,0.010157345794141293,-0.19206005334854126,-0.5440036058425903,0.007190100848674774,0.007190100848674774,nan,nan,0,0.3082796037197113,-0.3029327392578125,-0.16242076456546783,-4.479440212249756,-0.24586020410060883,-0.24586020410060883,nan,nan,0,1.058948040008545,0.05948710814118385,0.32842427492141724,16.11949920654297,0.4794740192592144,0.4794740192592144,nan,nan,0,0.2855437397956848,0.3667656481266022,0.0781695544719696,3.1087896823883057,0.4527718722820282,0.4527718722820282,nan,nan,0,-0.05641388148069382,0.5858302712440491,-0.023724490776658058,-19.228092193603516,0.46179306879639626,0.46179306879639626,nan,nan,0,0.9554405808448792,-0.38354960083961487,-0.2965044379234314,22.47154998779297,0.2677202969789505,0.2677202969789505,nan,nan,0,-0.9933858513832092,0.09907243400812149,-0.4558996856212616,-21.743459701538086,-0.4966929256916046,-0.4966929256916046,nan,nan,0,0,0.9999476075172424,0.006054277531802654,-0.007126313168555498,0.004165527876466513,-0.17538239061832428,0.2447364330291748,0.042881373316049576,nan,nan,nan,0.0,337.403564453125,0.0,337.403564453125,0.0,0.16210365295410156,0.33428841829299927,-0.0678301453590393
1782900764344586701,-0.8805951476097107,0.4738694131374359,0.4000000059604645,0.0,0.0,0,1,0.010097207501530647,-0.011707305908203125,0.008642256259918213,-0.22521743178367615,0.2792748510837555,0.03206663578748703,0.46348196268081665,0.7182468771934509,-0.29638513922691345,1.0542634725570679,0.6317409873008728,0.6317409873008728,nan,nan,0,0.155501127243042,0.040783777832984924,0.366128534078598,1.8576653003692627,0.12775056436657906,0.12775056436657906,nan,nan,0,-0.1461707502603531,-0.3140505850315094,-0.02199154533445835,0.4988359808921814,-0.38308537751436234,-0.38308537751436234,nan,nan,0,0.15854519605636597,0.9832590222358704,-1.2615931034088135,0.04069200158119202,0.5692726075649261,0.5692726075649261,nan,nan,0,-0.7836498022079468,-0.4100000560283661,0.0002246275544166565,-9.142664909362793,-0.6018248945474625,-0.6018248945474625,nan,nan,0,0.010141227394342422,0.01030231174081564,-0.15141907334327698,-0.4880451560020447,0.005070613697171211,0.005070613697171211,nan,nan,0,0.41153669357299805,-0.30450865626335144,-0.15335412323474884,-3.179985284805298,-0.19423165917396545,-0.19423165917396545,nan,nan,0,0.8995051383972168,0.06332550942897797,0.297726035118103,18.242382049560547,0.39975256845355034,0.39975256845355034,nan,nan,0,0.24445275962352753,0.3680817782878876,0.06716744601726532,3.663001775741577,0.43222638219594955,0.43222638219594955,nan,nan,0,0.005744598805904388,0.5847864747047424,-0.10700491815805435,-17.3784122467041,0.49287230893969536,0.49287230893969536,nan,nan,0,0.9434880614280701,-0.3856765627861023,-0.2542796730995178,22.98849868774414,0.26174403727054596,0.26174403727054596,nan,nan,0,-0.9342859387397766,0.10458195209503174,-0.4619610011577606,-21.871110916137695,-0.4671429693698883,-0.4671429693698883,nan,nan,0,0,0.9999606013298035,0.005073742475360632,-0.005831779446452856,0.004350537899881601,-0.22521743178367615,0.2792748510837555,0.03206663578748703,nan,nan,nan,0.0,332.77947998046875,0.0,332.77947998046875,0.0,0.16886641085147858,0.35733845829963684,-0.07023265212774277
