timestamp_ns,phase_sin,phase_cos,cmd_linear_x,cmd_linear_y,cmd_angular_z,left_contact,right_contact,base_euler_x,base_euler_y,base_euler_z,base_ang_vel_x,base_ang_vel_y,base_ang_vel_z,action_left_hip_pitch_joint,pos_left_hip_pitch_joint,vel_left_hip_pitch_joint,effort_left_hip_pitch_joint,pos_des_raw_left_hip_pitch_joint,pos_des_lpf_left_hip_pitch_joint,tau_des_raw_left_hip_pitch_joint,tau_des_lpf_left_hip_pitch_joint,is_parallel_left_hip_pitch_joint,action_left_hip_roll_joint,pos_left_hip_roll_joint,vel_left_hip_roll_joint,effort_left_hip_roll_joint,pos_des_raw_left_hip_roll_joint,pos_des_lpf_left_hip_roll_joint,tau_des_raw_left_hip_roll_joint,tau_des_lpf_left_hip_roll_joint,is_parallel_left_hip_roll_joint,action_left_hip_yaw_joint,pos_left_hip_yaw_joint,vel_left_hip_yaw_joint,effort_left_hip_yaw_joint,pos_des_raw_left_hip_yaw_joint,pos_des_lpf_left_hip_yaw_joint,tau_des_raw_left_hip_yaw_joint,tau_des_lpf_left_hip_yaw_joint,is_parallel_left_hip_yaw_joint,action_left_knee_pitch_joint,pos_left_knee_pitch_joint,vel_left_knee_pitch_joint,effort_left_knee_pitch_joint,pos_des_raw_left_knee_pitch_joint,pos_des_lpf_left_knee_pitch_joint,tau_des_raw_left_knee_pitch_joint,tau_des_lpf_left_knee_pitch_joint,is_parallel_left_knee_pitch_joint,action_left_ankle_pitch_joint,pos_left_ankle_pitch_joint,vel_left_ankle_pitch_joint,effort_left_ankle_pitch_joint,pos_des_raw_left_ankle_pitch_joint,pos_des_lpf_left_ankle_pitch_joint,tau_des_raw_left_ankle_pitch_joint,tau_des_lpf_left_ankle_pitch_joint,is_parallel_left_ankle_pitch_joint,action_left_ankle_roll_joint,pos_left_ankle_roll_joint,vel_left_ankle_roll_joint,effort_left_ankle_roll_joint,pos_des_raw_left_ankle_roll_joint,pos_des_lpf_left_ankle_roll_joint,tau_des_raw_left_ankle_roll_joint,tau_des_lpf_left_ankle_roll_joint,is_parallel_left_ankle_roll_joint,action_right_hip_pitch_joint,pos_right_hip_pitch_joint,vel_right_hip_pitch_joint,effort_right_hip_pitch_joint,pos_des_raw_right_hip_pitch_joint,pos_des_lpf_right_hip_pitch_joint,tau_des_raw_right_hip_pitch_joint,tau_des_lpf_right_hip_pitch_joint,is_parallel_right_hip_pitch_joint,action_right_hip_roll_joint,pos_right_hip_roll_joint,vel_right_hip_roll_joint,effort_right_hip_roll_joint,pos_des_raw_right_hip_roll_joint,pos_des_lpf_right_hip_roll_joint,tau_des_raw_right_hip_roll_joint,tau_des_lpf_right_hip_roll_joint,is_parallel_right_hip_roll_joint,action_right_hip_yaw_joint,pos_right_hip_yaw_joint,vel_right_hip_yaw_joint,effort_right_hip_yaw_joint,pos_des_raw_right_hip_yaw_joint,pos_des_lpf_right_hip_yaw_joint,tau_des_raw_right_hip_yaw_joint,tau_des_lpf_right_hip_yaw_joint,is_parallel_right_hip_yaw_joint,action_right_knee_pitch_joint,pos_right_knee_pitch_joint,vel_right_knee_pitch_joint,effort_right_knee_pitch_joint,pos_des_raw_right_knee_pitch_joint,pos_des_lpf_right_knee_pitch_joint,tau_des_raw_right_knee_pitch_joint,tau_des_lpf_right_knee_pitch_joint,is_parallel_right_knee_pitch_joint,action_right_ankle_pitch_joint,pos_right_ankle_pitch_joint,vel_right_ankle_pitch_joint,effort_right_ankle_pitch_joint,pos_des_raw_right_ankle_pitch_joint,pos_des_lpf_right_ankle_pitch_joint,tau_des_raw_right_ankle_pitch_joint,tau_des_lpf_right_ankle_pitch_joint,is_parallel_right_ankle_pitch_joint,action_right_ankle_roll_joint,pos_right_ankle_roll_joint,vel_right_ankle_roll_joint,effort_right_ankle_roll_joint,pos_des_raw_right_ankle_roll_joint,pos_des_lpf_right_ankle_roll_joint,tau_des_raw_right_ankle_roll_joint,tau_des_lpf_right_ankle_roll_joint,is_parallel_right_ankle_roll_joint,clip_count,imu_quat_w,imu_quat_x,imu_quat_y,imu_quat_z,imu_gyro_x,imu_gyro_y,imu_gyro_z,imu_accel_x,imu_accel_y,imu_accel_z,left_foot_contact_force_z,right_foot_contact_force_z,left_foot_contact_force_mag,right_foot_contact_force_mag,feet_contact_force_penalty,base_lin_vel_x,base_lin_vel_y,base_lin_vel_z
1782200957466552127,0.2660350799560547,-0.9639633297920227,0.4000000059604645,0.0,0.0,1,1,0.009920814074575901,-0.020314693450927734,-0.015022754669189453,0.17627716064453125,0.2795296609401703,0.014646420255303383,-0.41559937596321106,0.4521186947822571,-0.43489593267440796,-2.6209769248962402,0.19220031797885895,0.19220031797885895,nan,nan,0,0.49999186396598816,-0.002315343590453267,-0.12013107538223267,4.087864875793457,0.29999593272805214,0.29999593272805214,nan,nan,0,0.1640949547290802,-0.3505060076713562,0.3554673492908478,0.8460431694984436,-0.2279525250196457,-0.2279525250196457,nan,nan,0,-0.4531150162220001,0.5148124098777771,-0.9439500570297241,-10.821953773498535,0.2634425014257431,0.2634425014257431,nan,nan,0,-0.06682240217924118,-0.18766723573207855,0.4914945960044861,-3.689578056335449,-0.24341119453310966,-0.24341119453310966,nan,nan,0,0.27764415740966797,-0.046369440853595734,0.3172168731689453,11.199721336364746,0.13882207870483398,0.13882207870483398,nan,nan,0,-0.3400166630744934,-0.360024631023407,-0.03158506751060486,-5.636966228485107,-0.5700083374977112,-0.5700083374977112,nan,nan,0,-0.04400409758090973,-0.03438667580485344,-0.0426214262843132,-5.680342674255371,-0.07200204953551292,-0.07200204953551292,nan,nan,0,0.10010456293821335,0.32010942697525024,-0.004251217935234308,-1.6990909576416016,0.36005228385329247,0.36005228385329247,nan,nan,0,-0.33318090438842773,0.552564263343811,-0.2718726694583893,-16.68474006652832,0.3234095573425293,0.3234095573425293,nan,nan,0,-0.06932620704174042,-0.27170243859291077,-0.012816265225410461,-1.590624451637268,-0.24466309696435928,-0.24466309696435928,nan,nan,0,-0.23418506979942322,0.008060448803007603,-0.33517181873321533,-1.6398788690567017,-0.11709253489971161,-0.11709253489971161,nan,nan,0,0,0.9999082088470459,0.004883698187768459,-0.010194134898483753,-0.0074603441171348095,0.17627716064453125,0.2795296609401703,0.014646420255303383,nan,nan,nan,178.5564727783203,172.54884338378906,178.5564727783203,172.54884338378906,0.0,0.1257219910621643,-0.16409994661808014,0.04839804768562317
1782200957476552127,0.17855599522590637,-0.9839297533035278,0.4000000059604645,0.0,0.0,1,1,0.011859975755214691,-0.01734161376953125,-0.014766216278076172,0.19909729063510895,0.3272036015987396,0.03372335433959961,-0.43341079354286194,0.44638752937316895,-0.546988308429718,-2.699699878692627,0.1832946091890335,0.1832946091890335,nan,nan,0,0.4592736065387726,-0.003646772587671876,-0.11001384258270264,9.911744117736816,0.27963680401444435,0.27963680401444435,nan,nan,0,0.19046691060066223,-0.3464243710041046,0.43942952156066895,0.7458474040031433,-0.21476654708385468,-0.21476654708385468,nan,nan,0,-0.4237878620624542,0.5036967396736145,-1.1800576448440552,-11.47060775756836,0.27810607850551605,0.27810607850551605,nan,nan,0,-0.03066757321357727,-0.18424364924430847,0.603701114654541,-4.396673202514648,-0.2253337800502777,-0.2253337800502777,nan,nan,0,0.2247486710548401,-0.046142324805259705,0.17499111592769623,9.034690856933594,0.11237433552742004,0.11237433552742004,nan,nan,0,-0.25148770213127136,-0.36000093817710876,-0.08784864097833633,-6.902791976928711,-0.5257438570261002,-0.5257438570261002,nan,nan,0,0.05271370708942413,-0.03424208611249924,-0.011286117136478424,-4.537481307983398,-0.023643147200345993,-0.023643147200345993,nan,nan,0,0.11836348474025726,0.3198072016239166,0.03272844851016998,-0.9886995553970337,0.3691817447543144,0.3691817447543144,nan,nan,0,-0.29683196544647217,0.5487766861915588,-0.31201741099357605,-20.34851837158203,0.3415840268135071,0.3415840268135071,nan,nan,0,0.007010120898485184,-0.2708238959312439,0.0020768046379089355,-1.2664521932601929,-0.20649493299424648,-0.20649493299424648,nan,nan,0,-0.2771016061306,0.006051716860383749,-0.3844470679759979,-2.1089043617248535,-0.1385508030653,-0.1385508030653,nan,nan,0,0,0.9999179244041443,0.005865551996976137,-0.008714149706065655,-0.007331334054470062,0.19909729063510895,0.3272036015987396,0.03372335433959961,nan,nan,nan,157.1565704345703,218.55165100097656,157.1565704345703,218.55165100097656,0.0,0.13383245468139648,-0.1600850522518158,0.05614759400486946
1782200957486552127,0.0896383747458458,-0.9959743618965149,0.4000000059604645,0.0,0.0,1,1,0.014017662033438683,-0.014071941375732422,-0.014374732971191406,0.2169829159975052,0.34071826934814453,0.0341574065387249,-0.32061830163002014,0.44016337394714355,-0.5890564322471619,-4.447859764099121,0.2396908551454544,0.2396908551454544,nan,nan,0,0.4988119304180145,-0.004615920130163431,-0.08213301748037338,8.988014221191406,0.2994059659540653,0.2994059659540653,nan,nan,0,0.15326178073883057,-0.34195461869239807,0.4739907681941986,1.3650946617126465,-0.2333691120147705,-0.2333691120147705,nan,nan,0,-0.34906893968582153,0.49155065417289734,-1.2306222915649414,-7.91778039932251,0.3154655396938324,0.3154655396938324,nan,nan,0,-0.02243754267692566,-0.1803087741136551,0.6142915487289429,-3.4630112648010254,-0.2212187647819519,-0.2212187647819519,nan,nan,0,0.13803613185882568,-0.04562812298536301,0.2106533646583557,8.616447448730469,0.06901806592941284,0.06901806592941284,nan,nan,0,-0.18328402936458588,-0.36053305864334106,-0.1432521641254425,-5.703638553619385,-0.4916420206427574,-0.4916420206427574,nan,nan,0,0.26770591735839844,-0.03375297039747238,0.017388341948390007,-5.520792007446289,0.08385295793414116,0.08385295793414116,nan,nan,0,0.2758108079433441,0.31988081336021423,0.0804506242275238,-0.8661993145942688,0.44790540635585785,0.44790540635585785,nan,nan,0,-0.2517142593860626,0.544969916343689,-0.2748351991176605,-18.425636291503906,0.36414287984371185,0.36414287984371185,nan,nan,0,0.12629669904708862,-0.26992109417915344,-0.021774232387542725,-0.35888922214508057,-0.14685164391994476,-0.14685164391994476,nan,nan,0,-0.340613454580307,0.004164450336247683,-0.3040986657142639,-2.597838878631592,-0.1703067272901535,-0.1703067272901535,nan,nan,0,0,0.9999251961708069,0.0069578527472913265,-0.007085825316607952,-0.007137557491660118,0.2169829159975052,0.34071826934814453,0.0341574065387249,nan,nan,nan,147.32281494140625,218.0150909423828,147.32281494140625,218.0150909423828,0.0,0.13880158960819244,-0.156398743391037,0.05663183331489563
1782200957496552127,-9.775241096576792e-07,-1.0,0.4000000059604645,0.0,0.0,1,1,0.016217147931456566,-0.01062774658203125,-0.013872146606445312,0.2128218710422516,0.3585709035396576,0.05057799443602562,-0.2830919325351715,0.4340481162071228,-0.5602296590805054,-4.983215808868408,0.2584540396928787,0.2584540396928787,nan,nan,0,0.4947165548801422,-0.005353548098355532,-0.07210856676101685,9.119823455810547,0.29735827818512917,0.29735827818512917,nan,nan,0,0.20141425728797913,-0.3375883996486664,0.4409237504005432,0.5189976096153259,-0.20929287374019623,-0.20929287374019623,nan,nan,0,-0.3748064637184143,0.4792819321155548,-1.2317447662353516,-6.689719200134277,0.302596777677536,0.302596777677536,nan,nan,0,-0.03851575404405594,-0.17631621658802032,0.5908190608024597,-2.887932300567627,-0.22925787046551704,-0.22925787046551704,nan,nan,0,0.11692562699317932,-0.044873908162117004,0.1283012479543686,7.58999490737915,0.05846281349658966,0.05846281349658966,nan,nan,0,-0.15776509046554565,-0.3614492118358612,-0.16889522969722748,-5.372326374053955,-0.4788825511932373,-0.4788825511932373,nan,nan,0,0.4916898012161255,-0.033169928938150406,0.021222276613116264,-5.026305198669434,0.19584489986300468,0.19584489986300468,nan,nan,0,0.26000458002090454,0.3201613128185272,0.0872611403465271,-0.6220424175262451,0.44000229239463806,0.44000229239463806,nan,nan,0,-0.2424776554107666,0.5413123369216919,-0.2712858021259308,-18.234851837158203,0.36876118183135986,0.36876118183135986,nan,nan,0,0.1865675300359726,-0.26910197734832764,-0.034732937812805176,0.38053399324417114,-0.11671622842550278,-0.11671622842550278,nan,nan,0,-0.37565359473228455,0.0023714592680335045,-0.253115713596344,-2.9972753524780273,-0.18782679736614227,-0.18782679736614227,nan,nan,0,0,0.9999291896820068,0.00807131826877594,-0.005369849968701601,-0.006892687175422907,0.2128218710422516,0.3585709035396576,0.05057799443602562,nan,nan,nan,132.75526428222656,215.3869171142578,132.75526428222656,215.3869171142578,0.0,0.14319081604480743,-0.15186989307403564,0.05517605319619179
1782200957506552127,-0.08964031934738159,-0.9959741830825806,0.4000000059604645,0.0,0.0,1,1,0.01851346716284752,-0.006960868835449219,-0.013288021087646484,0.2314472794532776,0.3867163360118866,0.05555569753050804,-0.27670150995254517,0.42758122086524963,-0.6034055948257446,-4.731272220611572,0.2616492509841919,0.2616492509841919,nan,nan,0,0.38059791922569275,-0.005935958120971918,-0.04513339698314667,12.548402786254883,0.24029896035790443,0.24029896035790443,nan,nan,0,0.2029065191745758,-0.33296844363212585,0.4784230589866638,0.9088404774665833,-0.2085467427968979,-0.2085467427968979,nan,nan,0,-0.34124770760536194,0.46618393063545227,-1.3287559747695923,-6.592307090759277,0.3193761557340622,0.3193761557340622,nan,nan,0,0.0009679794311523438,-0.1717684268951416,0.6521135568618774,-3.4944043159484863,-0.2095160037279129,-0.2095160037279129,nan,nan,0,0.10478538274765015,-0.044679395854473114,0.08176562935113907,6.006343364715576,0.05239269137382507,0.05239269137382507,nan,nan,0,-0.06030505895614624,-0.3630317747592926,-0.26127299666404724,-5.118358135223389,-0.4301525354385376,-0.4301525354385376,nan,nan,0,0.5737729668617249,-0.03245236352086067,0.04092943295836449,-2.437077522277832,0.23688648268580437,0.23688648268580437,nan,nan,0,0.3065223693847656,0.3209012448787689,0.14809994399547577,0.552737295627594,0.4632611870765686,0.4632611870765686,nan,nan,0,-0.2172870635986328,0.5379940867424011,-0.22002121806144714,-19.08689308166504,0.38135647773742676,0.38135647773742676,nan,nan,0,0.27124008536338806,-0.2684238851070404,-0.05877074599266052,1.4282476902008057,-0.07437995076179504,-0.07437995076179504,nan,nan,0,-0.40429040789604187,0.0007688605110161006,-0.3175903558731079,-3.8101959228515625,-0.20214520394802094,-0.20214520394802094,nan,nan,0,0,0.9999293088912964,0.009233218617737293,-0.003541674232110381,-0.00661152508109808,0.2314472794532776,0.3867163360118866,0.05555569753050804,nan,nan,nan,117.98735809326172,238.22052001953125,117.98735809326172,238.22052001953125,0.0,0.1484207957983017,-0.14594325423240662,0.05450759828090668
1782200957516552127,-0.17855793237686157,-0.9839293956756592,0.4000000059604645,0.0,0.0,1,1,0.02087349072098732,-0.0031843185424804688,-0.01263570785522461,0.2250075340270996,0.38089004158973694,0.058464594185352325,-0.16627991199493408,0.4212634861469269,-0.5665291547775269,-4.950998783111572,0.31686004996299744,0.31686004996299744,nan,nan,0,0.3084297180175781,-0.0058219535276293755,-0.036291930824518204,11.728571891784668,0.20421485975384712,0.20421485975384712,nan,nan,0,0.18433156609535217,-0.3288964331150055,0.41454944014549255,1.4557349681854248,-0.2178342193365097,-0.2178342193365097,nan,nan,0,-0.3024088442325592,0.4524214565753937,-1.24089777469635,-4.59381628036499,0.33879558742046356,0.33879558742046356,nan,nan,0,0.0003554150462150574,-0.15888915956020355,0.5297866463661194,-3.2320773601531982,-0.20982228592038155,-0.20982228592038155,nan,nan,0,0.08875629305839539,-0.04147172346711159,-0.10773126780986786,5.880641460418701,0.04437814652919769,0.04437814652919769,nan,nan,0,-0.008944823406636715,-0.36523041129112244,-0.27370935678482056,-3.6505439281463623,-0.40447241766378284,-0.40447241766378284,nan,nan,0,0.633519172668457,-0.031617674976587296,0.040851250290870667,-0.5329442024230957,0.26675958558917046,0.26675958558917046,nan,nan,0,0.3499724566936493,0.32207271456718445,0.16134051978588104,0.7769749760627747,0.48498623073101044,0.48498623073101044,nan,nan,0,-0.17252790927886963,0.5352367758750916,-0.17348766326904297,-17.50507354736328,0.40373605489730835,0.40373605489730835,nan,nan,0,0.3414025902748108,-0.2680220603942871,-0.08409532904624939,2.775710105895996,-0.03929869830608368,-0.03929869830608368,nan,nan,0,-0.4402322471141815,-0.0006835812237113714,-0.2906493544578552,-4.509918212890625,-0.22011612355709076,-0.22011612355709076,nan,nan,0,0,0.9999244213104248,0.010426275432109833,-0.0016579729272052646,-0.006300903391093016,0.2250075340270996,0.38089004158973694,0.058464594185352325,nan,nan,nan,108.56916809082031,241.31463623046875,108.56916809082031,241.31463623046875,0.0,0.15182611346244812,-0.1384591907262802,0.04974539577960968
1782200957526552127,-0.2660379111766815,-0.9639625549316406,0.4000000059604645,0.0,0.0,1,1,0.02325151488184929,0.0007908577681519091,-0.011951446533203125,0.2320788949728012,0.4069109261035919,0.05293503403663635,-0.05702507495880127,0.417260080575943,-0.3216164708137512,-3.863325834274292,0.37148746848106384,0.37148746848106384,nan,nan,0,0.3033773601055145,-0.005222635343670845,0.05692516267299652,11.855753898620605,0.20168868079781532,0.20168868079781532,nan,nan,0,0.15274056792259216,-0.3259592056274414,0.26436981558799744,1.353407382965088,-0.2336297184228897,-0.2336297184228897,nan,nan,0,-0.2531648576259613,0.4420349895954132,-0.9745376110076904,-2.4682037830352783,0.3634175807237625,0.3634175807237625,nan,nan,0,-0.00971754640340805,-0.15501080453395844,0.4203869104385376,-3.176058530807495,-0.2148587666451931,-0.2148587666451931,nan,nan,0,0.07486279308795929,-0.03900253400206566,0.06421583145856857,3.359456777572632,0.037431396543979645,0.037431396543979645,nan,nan,0,0.0316513329744339,-0.36879265308380127,-0.4604572653770447,-1.9859462976455688,-0.38417433947324753,-0.38417433947324753,nan,nan,0,0.8301381468772888,-0.030913641676306725,0.030154038220643997,3.758408546447754,0.36506907269358635,0.36506907269358635,nan,nan,0,0.39322060346603394,0.32421353459358215,0.2795845866203308,2.996833562850952,0.5066103041172028,0.5066103041172028,nan,nan,0,-0.15813493728637695,0.5337256193161011,-0.010122515261173248,-16.603357315063477,0.4109325408935547,0.4109325408935547,nan,nan,0,0.38248127698898315,-0.2680876851081848,-0.14298199117183685,4.8991899490356445,-0.018759354948997498,-0.018759354948997498,nan,nan,0,-0.4748539626598358,-0.0019646002911031246,-0.34749627113342285,-5.571470737457275,-0.2374269813299179,-0.2374269813299179,nan,nan,0,0,0.9999144673347473,0.011627649888396263,0.00032592553179711103,-0.005979816894978285,0.2320788949728012,0.4069109261035919,0.05293503403663635,nan,nan,nan,68.63824462890625,269.14654541015625,68.63824462890625,269.14654541015625,0.0,0.15305359661579132,-0.12949475646018982,0.03968410938978195
1782200957536552127,-0.35137587785720825,-0.9362344741821289,0.4000000059604645,0.0,0.0,1,1,0.02566625364124775,0.0046392823569476604,-0.011288166046142578,0.23554068803787231,0.3813837766647339,0.05944398418068886,-0.018180355429649353,0.4130445122718811,-0.40549588203430176,-2.934319019317627,0.3909098282456398,0.3909098282456398,nan,nan,0,0.26972639560699463,-0.004449321888387203,0.06678284704685211,11.716229438781738,0.18486319854855537,0.18486319854855537,nan,nan,0,0.16407060623168945,-0.3227962553501129,0.3235311210155487,1.881791353225708,-0.22796469926834106,-0.22796469926834106,nan,nan,0,-0.20211732387542725,0.4319324195384979,-0.991441011428833,-2.602339744567871,0.38894134759902954,0.38894134759902954,nan,nan,0,0.01660706102848053,-0.15138784050941467,0.3986586630344391,-3.573786497116089,-0.2016964629292488,-0.2016964629292488,nan,nan,0,0.06501494348049164,-0.036729902029037476,0.04470527917146683,2.911165714263916,0.03250747174024582,0.03250747174024582,nan,nan,0,0.14041858911514282,-0.3725888133049011,-0.41952085494995117,-1.587996244430542,-0.32979071140289307,-0.32979071140289307,nan,nan,0,0.9236783385276794,-0.030035264790058136,0.05606909841299057,8.133304595947266,0.41183916851878166,0.41183916851878166,nan,nan,0,0.43631139397621155,0.32660841941833496,0.2684513032436371,2.657700777053833,0.5281556993722916,0.5281556993722916,nan,nan,0,-0.1272388994693756,0.5328465104103088,0.009158696047961712,-16.629444122314453,0.42638055980205536,0.42638055980205536,nan,nan,0,0.48180174827575684,-0.26856616139411926,-0.20002426207065582,5.992105484008789,0.030900880694389343,0.030900880694389343,nan,nan,0,-0.4999745488166809,-0.002975266659632325,-0.3202914595603943,-6.142871856689453,-0.24998727440834045,-0.24998727440834045,nan,nan,0,0,0.9998989105224609,0.012845627032220364,0.002246981719508767,-0.005673399660736322,0.23554068803787231,0.3813837766647339,0.05944398418068886,nan,nan,nan,61.219024658203125,291.0957946777344,61.219024658203125,291.0957946777344,0.0,0.15627087652683258,-0.1186680719256401,0.03866301849484444
1782200957546552127,-0.43388479948043823,-0.9009683728218079,0.4000000059604645,0.0,0.0,1,1,0.028009718284010887,0.008216368034482002,-0.010595321655273438,0.2216034084558487,0.34961751103401184,0.05476021766662598,0.03106224536895752,0.408834308385849,-0.3892495930194855,-2.7575151920318604,0.41553112864494324,0.41553112864494324,nan,nan,0,0.21984931826591492,-0.003526374464854598,0.07503042370080948,9.36124324798584,0.15992465987801552,0.15992465987801552,nan,nan,0,0.15733686089515686,-0.31964951753616333,0.30355915427207947,1.8606843948364258,-0.23133157193660736,-0.23133157193660736,nan,nan,0,-0.1848752200603485,0.4226933419704437,-0.8761253952980042,-1.1160805225372314,0.3975623995065689,0.3975623995065689,nan,nan,0,0.016407117247581482,-0.14831355214118958,0.3425946831703186,-2.9555511474609375,-0.20179643481969833,-0.20179643481969833,nan,nan,0,0.06319007277488708,-0.033946797251701355,0.10186098515987396,2.557142734527588,0.03159503638744354,0.03159503638744354,nan,nan,0,0.11774992942810059,-0.3759171962738037,-0.3563048541545868,-0.20729616284370422,-0.3411250412464142,-0.3411250412464142,nan,nan,0,0.9685027003288269,-0.02897271327674389,0.0703691840171814,9.681680679321289,0.4342513494193554,0.4342513494193554,nan,nan,0,0.4042692184448242,0.3286832869052887,0.21870380640029907,3.6036736965179443,0.5121346116065979,0.5121346116065979,nan,nan,0,-0.11655282974243164,0.5321343541145325,0.015637200325727463,-15.40135383605957,0.43172359466552734,0.43172359466552734,nan,nan,0,0.5140421986579895,-0.2693268358707428,-0.21710090339183807,7.508478164672852,0.047021105885505676,0.047021105885505676,nan,nan,0,-0.5183046460151672,-0.003909509163349867,-0.3284149765968323,-6.5968475341796875,-0.2591523230075836,-0.2591523230075836,nan,nan,0,0,0.9998792409896851,0.014025849290192127,0.004033523611724377,-0.005354494787752628,0.2216034084558487,0.34961751103401184,0.05476021766662598,nan,nan,nan,52.34674835205078,290.88720703125,52.34674835205078,290.88720703125,0.0,0.15796808898448944,-0.1072106584906578,0.035027965903282166
1782200957556552127,-0.5128994584083557,-0.8584486842155457,0.4000000059604645,0.0,0.0,1,1,0.0301767997443676,0.011646198108792305,-0.009978294372558594,0.20174123346805573,0.33885499835014343,0.04128585755825043,0.0780319795012474,0.4060894548892975,-0.22265607118606567,-1.5227253437042236,0.4390159957110882,0.4390159957110882,nan,nan,0,0.20680266618728638,-0.0024469175841659307,0.09011867642402649,7.823061943054199,0.15340133383870125,0.15340133383870125,nan,nan,0,0.1671251356601715,-0.3174445629119873,0.19571185111999512,1.8871264457702637,-0.22643743455410004,-0.22643743455410004,nan,nan,0,-0.15538236498832703,0.4158538579940796,-0.6221535801887512,-1.0214937925338745,0.41230882704257965,0.41230882704257965,nan,nan,0,0.018701761960983276,-0.14768435060977936,0.11235687136650085,-2.8510754108428955,-0.20064911246299744,-0.20064911246299744,nan,nan,0,0.0645415186882019,-0.03192422538995743,0.02931583672761917,2.271855354309082,0.03227075934410095,0.03227075934410095,nan,nan,0,0.0986248329281807,-0.3794024586677551,-0.39317598938941956,0.7608723640441895,-0.35068758949637413,-0.35068758949637413,nan,nan,0,1.0369619131088257,-0.028059037402272224,0.049310848116874695,10.898775100708008,0.4684809558093548,0.4684809558093548,nan,nan,0,0.3953070044517517,0.330928236246109,0.24588532745838165,4.191624164581299,0.5076535046100616,0.5076535046100616,nan,nan,0,-0.11809858679771423,0.5320691466331482,0.09631936252117157,-13.86711597442627,0.43095071613788605,0.43095071613788605,nan,nan,0,0.541191577911377,-0.27044638991355896,-0.24499191343784332,8.794880867004395,0.0605957955121994,0.0605957955121994,nan,nan,0,-0.5364125370979309,-0.004721248988062143,-0.31547418236732483,-7.207712650299072,-0.26820626854896545,-0.26820626854896545,nan,nan,0,0,0.9998564124107361,0.015116434544324875,0.005747055634856224,-0.005076391622424126,0.20174123346805573,0.33885499835014343,0.04128585755825043,nan,nan,nan,46.67582702636719,291.5538024902344,46.67582702636719,291.5538024902344,0.0,0.1584177315235138,-0.09652914106845856,0.026400431990623474
1782200957566552127,-0.5877862572669983,-0.8090162873268127,0.4000000059604645,0.0,0.0,1,1,0.0321737676858902,0.014977854676544666,-0.009356021881103516,0.18569886684417725,0.33005303144454956,0.05015605315566063,0.10974633693695068,0.4050087630748749,-0.15089720487594604,-0.12422630190849304,0.4548731744289398,0.4548731744289398,nan,nan,0,0.16556096076965332,-0.0011061023687943816,0.15815506875514984,7.474153518676758,0.13278048112988472,0.13278048112988472,nan,nan,0,0.13784591853618622,-0.3162258565425873,0.15013240277767181,1.4491322040557861,-0.24107704311609268,-0.24107704311609268,nan,nan,0,-0.10362175852060318,0.41220200061798096,-0.3590123951435089,-1.018153190612793,0.4381891302764416,0.4381891302764416,nan,nan,0,0.05805407464504242,-0.15616509318351746,-0.9038101434707642,-0.9441496729850769,-0.18097295612096786,-0.18097295612096786,nan,nan,0,0.05811823531985283,-0.030526386573910713,0.5944004058837891,1.673991084098816,0.029059117659926414,0.029059117659926414,nan,nan,0,0.1660400629043579,-0.3831145167350769,-0.4146673083305359,1.5727455615997314,-0.3169799745082855,-0.3169799745082855,nan,nan,0,1.0416274070739746,-0.027262989431619644,0.04015606641769409,14.833915710449219,0.47081370279192924,0.47081370279192924,nan,nan,0,0.4066893458366394,0.3333142101764679,0.250013530254364,4.808035373687744,0.5133446753025055,0.5133446753025055,nan,nan,0,-0.07863959670066833,0.532609224319458,0.15662826597690582,-13.883630752563477,0.450680211186409,0.450680211186409,nan,nan,0,0.5923596024513245,-0.2719055414199829,-0.29866912961006165,9.566814422607422,0.08617980778217316,0.08617980778217316,nan,nan,0,-0.5609726309776306,-0.0053800418972969055,-0.3720676004886627,-7.784153461456299,-0.2804863154888153,-0.2804863154888153,nan,nan,0,0,0.9998310208320618,0.016120588406920433,0.007412558887153864,-0.004797677043825388,0.18569886684417725,0.33005303144454956,0.05015605315566063,nan,nan,nan,22.87017250061035,303.81524658203125,22.87017250061035,303.81524658203125,0.0,0.1591099351644516,-0.08364281058311462,0.02031051553785801
1782200957576552127,-0.6579396724700928,-0.7530706524848938,0.4000000059604645,0.0,0.0,1,1,0.03395155444741249,0.01807297393679619,-0.008715629577636719,0.164106085896492,0.29220327734947205,0.04372468963265419,0.11905224621295929,0.4047187864780426,-0.0029943599365651608,-0.9075077772140503,0.4595261290669441,0.4595261290669441,nan,nan,0,0.14301177859306335,0.0005814520409330726,0.1598474681377411,6.707453727722168,0.12150589004158974,0.12150589004158974,nan,nan,0,0.12769083678722382,-0.31574058532714844,0.05234991014003754,2.096898317337036,-0.24615458399057388,-0.24615458399057388,nan,nan,0,-0.05190473049879074,0.40959280729293823,-0.2224823385477066,0.6071406006813049,0.4640476442873478,0.4640476442873478,nan,nan,0,0.0656491369009018,-0.15875305235385895,-0.0003459155559539795,-2.140709638595581,-0.17717542499303818,-0.17717542499303818,nan,nan,0,0.0535554401576519,-0.025862406939268112,0.47266271710395813,1.349285364151001,0.02677772007882595,0.02677772007882595,nan,nan,0,0.18272413313388824,-0.3865639567375183,-0.34004923701286316,3.1010019779205322,-0.30863793939352036,-0.30863793939352036,nan,nan,0,1.0876134634017944,-0.026525482535362244,0.04637153819203377,16.661537170410156,0.49380673095583916,0.49380673095583916,nan,nan,0,0.4033762514591217,0.3354765772819519,0.19386036694049835,5.7164177894592285,0.5116881281137466,0.5116881281137466,nan,nan,0,-0.06624475866556168,0.5335078239440918,0.15966255962848663,-12.46721076965332,0.4568776302039623,0.4568776302039623,nan,nan,0,0.6170498132705688,-0.2736624777317047,-0.2917175889015198,11.378698348999023,0.09852491319179535,0.09852491319179535,nan,nan,0,-0.5768792033195496,-0.005955955944955349,-0.3328617513179779,-8.204846382141113,-0.2884396016597748,-0.2884396016597748,nan,nan,0,0,0.9998048543930054,0.01701347902417183,0.008961008861660957,-0.004510285332798958,0.164106085896492,0.29220327734947205,0.04372468963265419,nan,nan,nan,33.216495513916016,308.7056884765625,33.216495513916016,308.7056884765625,0.0,0.15852147340774536,-0.07123247534036636,0.015567361377179623
1782200957586552127,-0.7227957844734192,-0.6910617351531982,0.4000000059604645,0.0,0.0,1,1,0.03549795225262642,0.020747339352965355,-0.008218765258789062,0.13790014386177063,0.25411155819892883,0.03181910887360573,0.15502329170703888,0.40470629930496216,-0.004084052052348852,-0.17234990000724792,0.4775116518139839,0.4775116518139839,nan,nan,0,0.1479494869709015,0.0021273032762110233,0.12896491587162018,5.7500505447387695,0.1239747442305088,0.1239747442305088,nan,nan,0,0.12974251806735992,-0.3154607117176056,0.04030931368470192,2.0319039821624756,-0.24512874335050583,-0.24512874335050583,nan,nan,0,-0.03890501707792282,0.40824154019355774,-0.1201297864317894,0.5303570628166199,0.47054750099778175,0.47054750099778175,nan,nan,0,0.06867441534996033,-0.1605163961648941,-0.107218898832798,-0.7793006300926208,-0.1756627857685089,-0.1756627857685089,nan,nan,0,0.05257907137274742,-0.02177414856851101,0.32348141074180603,1.3265410661697388,0.02628953568637371,0.02628953568637371,nan,nan,0,0.17152522504329681,-0.38927707076072693,-0.27575352787971497,2.6266188621520996,-0.31423739343881607,-0.31423739343881607,nan,nan,0,1.0710676908493042,-0.02580270916223526,0.03497011587023735,17.56535530090332,0.48553384467959404,0.48553384467959404,nan,nan,0,0.3906172513961792,0.3372306525707245,0.16318966448307037,5.2212233543396,0.5053086280822754,0.5053086280822754,nan,nan,0,-0.057628996670246124,0.5346163511276245,0.18608275055885315,-12.26881217956543,0.4611855112016201,0.4611855112016201,nan,nan,0,0.6341447234153748,-0.27573269605636597,-0.337847501039505,12.033501625061035,0.1070723682641983,0.1070723682641983,nan,nan,0,-0.5855302214622498,-0.006404111161828041,-0.3592402935028076,-8.501909255981445,-0.2927651107311249,-0.2927651107311249,nan,nan,0,0,0.999779462814331,0.017789559438824654,0.0102988351136446,-0.004292520694434643,0.13790014386177063,0.25411155819892883,0.03181910887360573,nan,nan,nan,25.845563888549805,311.0132751464844,25.845563888549805,311.0132751464844,0.0,0.15861667692661285,-0.0586700402200222,0.009854108095169067
1782200957596552127,-0.7818323373794556,-0.6234887838363647,0.4000000059604645,0.0,0.0,1,1,0.03680441901087761,0.02308608964085579,-0.007848262786865234,0.11584318429231644,0.22210754454135895,0.019756823778152466,0.21215806901454926,0.4049191474914551,0.021381646394729614,0.46824559569358826,0.5060790404677391,0.5060790404677391,nan,nan,0,0.1562109887599945,0.0035190258640795946,0.12362329661846161,5.460502624511719,0.1281054951250553,0.1281054951250553,nan,nan,0,0.13581421971321106,-0.315113365650177,0.0321202278137207,2.234306573867798,-0.24209289252758026,-0.24209289252758026,nan,nan,0,0.018173016607761383,0.4080578088760376,0.012325981631875038,0.8963255286216736,0.49908651784062386,0.49908651784062386,nan,nan,0,0.048146650195121765,-0.16285644471645355,-0.18498311936855316,-0.6217766404151917,-0.1859266683459282,-0.1859266683459282,nan,nan,0,0.04579315707087517,-0.018175121396780014,0.2797904312610626,1.2191051244735718,0.022896578535437584,0.022896578535437584,nan,nan,0,0.1864752322435379,-0.39141955971717834,-0.21888715028762817,2.2201390266418457,-0.3067623898386955,-0.3067623898386955,nan,nan,0,1.1358120441436768,-0.025130081921815872,0.03057008422911167,18.91605567932129,0.5179060213267803,0.5179060213267803,nan,nan,0,0.39178529381752014,0.3386717140674591,0.13866060972213745,5.135550498962402,0.5058926492929459,0.5058926492929459,nan,nan,0,-0.03886321932077408,0.5359336733818054,0.20162717998027802,-12.655980110168457,0.4705683998763561,0.4705683998763561,nan,nan,0,0.6595966219902039,-0.27806583046913147,-0.34887516498565674,12.60477066040039,0.11979831755161285,0.11979831755161285,nan,nan,0,-0.6073059439659119,-0.006735328584909439,-0.35000717639923096,-8.80917739868164,-0.30365297198295593,-0.30365297198295593,nan,nan,0,0,0.9997555613517761,0.0184450913220644,0.011468540877103806,-0.004135611932724714,0.11584318429231644,0.22210754454135895,0.019756823778152466,nan,nan,nan,22.340410232543945,317.60662841796875,22.340410232543945,317.60662841796875,0.0,0.1587870568037033,-0.04552548751235008,0.005332987755537033
1782200957606552127,-0.8345740437507629,-0.5508958697319031,0.4000000059604645,0.0,0.0,0,1,0.03787651285529137,0.025124171748757362,-0.007572174072265625,0.09049244225025177,0.19001711905002594,0.013101991266012192,0.25907960534095764,0.40675634145736694,0.13647419214248657,0.5006166696548462,0.5295398086309433,0.5295398086309433,nan,nan,0,0.14590725302696228,0.004333350341767073,0.10888132452964783,4.6785993576049805,0.1229536272585392,0.1229536272585392,nan,nan,0,0.11378270387649536,-0.3144703805446625,0.1949421763420105,0.9590994715690613,-0.2531086504459381,-0.2531086504459381,nan,nan,0,0.0744873508810997,0.4091379940509796,0.19710750877857208,0.5373677015304565,0.527243684977293,0.527243684977293,nan,nan,0,0.050569504499435425,-0.15734530985355377,-0.04732846841216087,-0.17185276746749878,-0.18471524119377136,-0.18471524119377136,nan,nan,0,0.04030200466513634,-0.01705174334347248,0.6132517457008362,0.8824070692062378,0.02015100233256817,0.02015100233256817,nan,nan,0,0.20082572102546692,-0.3931399881839752,-0.18292267620563507,3.169034719467163,-0.299587145447731,-0.299587145447731,nan,nan,0,1.182708501815796,-0.024555057287216187,0.020418785512447357,19.002809524536133,0.5413542501628399,0.5413542501628399,nan,nan,0,0.38427773118019104,0.33986493945121765,0.11331630498170853,5.385524272918701,0.5021388679742813,0.5021388679742813,nan,nan,0,-0.012570962309837341,0.5375547409057617,0.2447747439146042,-11.212811470031738,0.4837145283818245,0.4837145283818245,nan,nan,0,0.687319278717041,-0.28067848086357117,-0.4074854254722595,13.615382194519043,0.13365964591503143,0.13365964591503143,nan,nan,0,-0.6285428404808044,-0.007016499526798725,-0.31034135818481445,-9.266949653625488,-0.3142714202404022,-0.3142714202404022,nan,nan,0,0,0.9997337460517883,0.01898304931819439,0.012487719766795635,-0.0040230280719697475,0.09049244225025177,0.19001711905002594,0.013101991266012192,nan,nan,nan,4.26333475112915,314.4875183105469,4.26333475112915,314.4875183105469,0.0,0.1580430567264557,-0.033468738198280334,-0.002557900035753846
1782200957616552127,-0.8805962204933167,-0.47386741638183594,0.4000000059604645,0.0,0.0,0,1,0.03859150782227516,0.026833711192011833,-0.007297515869140625,0.04772544279694557,0.15803126990795135,0.022521108388900757,0.35702186822891235,0.40803802013397217,0.08116954565048218,0.7872759103775024,0.5785109400749207,0.5785109400749207,nan,nan,0,0.1631840169429779,0.006012884899973869,0.18524762988090515,3.913663625717163,0.131592009216547,0.131592009216547,nan,nan,0,0.15574929118156433,-0.3126412332057953,0.20453615486621857,0.7049848437309265,-0.23212535679340363,-0.23212535679340363,nan,nan,0,0.08725323528051376,0.41252925992012024,0.37270739674568176,1.0458904504776,0.533626627177,0.533626627177,nan,nan,0,0.010785877704620361,-0.1576666533946991,-0.1277567446231842,0.015579581260681152,-0.2046070545911789,-0.2046070545911789,nan,nan,0,0.03972264751791954,-0.00970670860260725,0.5572484731674194,0.5793907642364502,0.01986132375895977,0.01986132375895977,nan,nan,0,0.12974098324775696,-0.3945513367652893,-0.1433868110179901,3.3461458683013916,-0.335129514336586,-0.335129514336586,nan,nan,0,1.2052593231201172,-0.02420348860323429,-0.011565126478672028,21.488323211669922,0.5526296608150005,0.5526296608150005,nan,nan,0,0.3471359312534332,0.3407618999481201,0.0660577341914177,5.470412731170654,0.4835679680109024,0.4835679680109024,nan,nan,0,-0.00301545113325119,0.5398153066635132,0.30377867817878723,-11.445667266845703,0.48849228397011757,0.48849228397011757,nan,nan,0,0.6939898133277893,-0.28375405073165894,-0.4134652614593506,14.177962303161621,0.13699491322040558,0.13699491322040558,nan,nan,0,-0.6491494178771973,-0.007190281990915537,-0.35940781235694885,-9.501420021057129,-0.32457470893859863,-0.32457470893859863,nan,nan,0,0,0.9997163414955139,0.019341638311743736,0.013343468308448792,-0.003906703554093838,0.04772544279694557,0.15803126990795135,0.022521108388900757,nan,nan,nan,0.0,327.9927978515625,0.0,327.9927978515625,0.0,0.1581154316663742,-0.017857197672128677,-0.011952197179198265
1782200957626552127,-0.9195279479026794,-0.39302459359169006,0.4000000059604645,0.0,0.0,1,1,0.03892460837960243,0.028270388022065163,-0.006912708282470703,0.022559670731425285,0.13386839628219604,0.02666189707815647,0.302287220954895,0.40946364402770996,0.18635055422782898,1.0594267845153809,0.551143616437912,0.551143616437912,nan,nan,0,0.13174131512641907,0.007513259071856737,0.060895733535289764,4.342554092407227,0.1158706583082676,0.1158706583082676,nan,nan,0,0.13520210981369019,-0.31258270144462585,-0.08244224637746811,1.3468899726867676,-0.2423989474773407,-0.2423989474773407,nan,nan,0,0.1180361956357956,0.41701334714889526,0.3885335922241211,1.2814083099365234,0.549018107354641,0.549018107354641,nan,nan,0,0.04848773777484894,-0.16141776740550995,-0.3125533163547516,0.2784753143787384,-0.1857561245560646,-0.1857561245560646,nan,nan,0,0.03926008567214012,-0.013059645891189575,-0.08958488702774048,1.7843759059906006,0.01963004283607006,0.01963004283607006,nan,nan,0,0.2005351036787033,-0.39541494846343994,-0.08416428416967392,2.9236934185028076,-0.2997324541211128,-0.2997324541211128,nan,nan,0,1.1978137493133545,-0.024053920060396194,-0.011160822585225105,21.1463623046875,0.5489068739116192,0.5489068739116192,nan,nan,0,0.36080947518348694,0.34107235074043274,0.01167227327823639,5.518125057220459,0.49040473997592926,0.49040473997592926,nan,nan,0,0.0012903958559036255,0.5423192381858826,0.29996559023857117,-10.90340518951416,0.490645207464695,0.490645207464695,nan,nan,0,0.7227437496185303,-0.28713905811309814,-0.435060054063797,14.580141067504883,0.15137188136577606,0.15137188136577606,nan,nan,0,-0.6502371430397034,-0.007323472760617733,-0.307334303855896,-9.69240951538086,-0.3251185715198517,-0.3251185715198517,nan,nan,0,0,0.9997038841247559,0.019507860764861107,0.014064702205359936,-0.003730485215783119,0.022559670731425285,0.13386839628219604,0.02666189707815647,nan,nan,nan,33.523521423339844,337.0738830566406,33.523521423339844,337.0738830566406,0.0,0.15815035998821259,-0.0068518007174134254,-0.016169702634215355
1782200957636552127,-0.9510566592216492,-0.30901649594306946,0.4000000059604645,0.0,0.0,1,1,0.039115630090236664,0.02946021966636181,-0.006566524505615234,0.005914695095270872,0.11078749597072601,0.03097718581557274,0.32219627499580383,0.41210299730300903,0.2945731580257416,1.4560902118682861,0.5610981434583664,0.5610981434583664,nan,nan,0,0.1449885070323944,0.008496485650539398,0.09933120757341385,4.3192033767700195,0.12249425426125526,0.12249425426125526,nan,nan,0,0.12924757599830627,-0.3123621940612793,-0.010771389119327068,1.655686855316162,-0.24537621438503265,-0.24537621438503265,nan,nan,0,0.11846750229597092,0.4225936233997345,0.5849364995956421,1.4502010345458984,0.5492337606847286,0.5492337606847286,nan,nan,0,0.04497420787811279,-0.16599665582180023,-0.2583276927471161,0.06955116987228394,-0.18751288950443268,-0.18751288950443268,nan,nan,0,0.03615983948111534,-0.011726628988981247,0.01846836507320404,0.8017199039459229,0.01807991974055767,0.01807991974055767,nan,nan,0,0.2015209197998047,-0.39604172110557556,-0.07108091562986374,3.228961706161499,-0.29923954606056213,-0.29923954606056213,nan,nan,0,1.1277590990066528,-0.023872913792729378,-0.014505231752991676,22.45751190185547,0.5138795487582684,0.5138795487582684,nan,nan,0,0.3611748516559601,0.3412438631057739,0.0047196075320243835,5.517603397369385,0.49058742821216583,0.49058742821216583,nan,nan,0,0.02054990828037262,0.5451688766479492,0.3524875044822693,-11.126005172729492,0.5002749636769295,0.5002749636769295,nan,nan,0,0.7244283556938171,-0.29079702496528625,-0.48921412229537964,15.187408447265625,0.1522141844034195,0.1522141844034195,nan,nan,0,-0.6564668416976929,-0.007377673871815205,-0.33682575821876526,-10.036335945129395,-0.32823342084884644,-0.32823342084884644,nan,nan,0,0,0.9996940493583679,0.019602693617343903,0.014662477187812328,-0.003570316359400749,0.005914695095270872,0.11078749597072601,0.03097718581557274,nan,nan,nan,17.33831787109375,321.0782470703125,17.33831787109375,321.0782470703125,0.0,0.15737789869308472,0.006525897886604071,-0.023074829950928688
1782200957646552127,-0.9749282598495483,-0.22251944243907928,0.4000000059604645,0.0,0.0,1,1,0.03911597281694412,0.030427714809775352,-0.006108283996582031,-0.013768244534730911,0.08859304338693619,0.04469764977693558,0.3592643141746521,0.416025847196579,0.41718247532844543,1.681701421737671,0.5796321630477905,0.5796321630477905,nan,nan,0,0.1692722737789154,0.009859043173491955,0.13695034384727478,3.959482431411743,0.13463613763451576,0.13463613763451576,nan,nan,0,0.10018563270568848,-0.31210699677467346,0.004672609269618988,1.1156301498413086,-0.25990718603134155,-0.25990718603134155,nan,nan,0,0.10250432789325714,0.43020200729370117,0.778761625289917,1.594123363494873,0.5412521734833717,0.5412521734833717,nan,nan,0,0.018794283270835876,-0.16884028911590576,-0.1449383646249771,0.14866819977760315,-0.20060285180807114,-0.20060285180807114,nan,nan,0,0.03478747233748436,-0.010392761789262295,0.030403582379221916,0.6509829759597778,0.01739373616874218,0.01739373616874218,nan,nan,0,0.13191011548042297,-0.3966089189052582,-0.07027523219585419,3.421152114868164,-0.334044948220253,-0.334044948220253,nan,nan,0,1.1391241550445557,-0.02370320074260235,-0.013457924127578735,23.394392013549805,0.5195620767772198,0.5195620767772198,nan,nan,0,0.35738441348075867,0.3412461578845978,-0.01685231924057007,5.886425495147705,0.4886922091245651,0.4886922091245651,nan,nan,0,0.037599116563797,0.548585832118988,0.41432493925094604,-10.62786865234375,0.5087995678186417,0.5087995678186417,nan,nan,0,0.695891261100769,-0.2948523163795471,-0.5157234072685242,15.81096363067627,0.13794563710689545,0.13794563710689545,nan,nan,0,-0.6367309093475342,-0.007248929236084223,-0.29980406165122986,-10.42862606048584,-0.3183654546737671,-0.3183654546737671,nan,nan,0,0,0.9996874928474426,0.019600840285420418,0.015150569379329681,-0.003350620623677969,-0.013768244534730911,0.08859304338693619,0.04469764977693558,nan,nan,nan,14.002115249633789,326.61053466796875,14.002115249633789,326.61053466796875,0.0,0.15652833878993988,0.020097780972719193,-0.030846362933516502
1782200957656552127,-0.9909498691558838,-0.13423265516757965,0.4000000059604645,0.0,0.0,1,1,0.03893248736858368,0.031272195279598236,-0.005492687225341797,-0.032787177711725235,0.08449333906173706,0.06499093770980835,0.34246504306793213,0.4209151566028595,0.5079265236854553,2.716757297515869,0.5712325274944305,0.5712325274944305,nan,nan,0,0.21539804339408875,0.01138442661613226,0.13736899197101593,4.222054481506348,0.15769902244210243,0.15769902244210243,nan,nan,0,0.13835982978343964,-0.31131359934806824,0.09635560214519501,1.5745980739593506,-0.24082008749246597,-0.24082008749246597,nan,nan,0,0.10442943125963211,0.4390740692615509,0.8675223588943481,0.39210155606269836,0.5422147251665592,0.5422147251665592,nan,nan,0,0.040719181299209595,-0.1739160269498825,-0.33090391755104065,-0.2693687081336975,-0.18964040279388428,-0.18964040279388428,nan,nan,0,0.04163248464465141,-0.008925794623792171,0.0026528872549533844,0.6003236770629883,0.020816242322325706,0.020816242322325706,nan,nan,0,0.2395043969154358,-0.39733225107192993,-0.08921348303556442,2.472341775894165,-0.2802478075027466,-0.2802478075027466,nan,nan,0,0.9672837257385254,-0.023576203733682632,-0.02467675693333149,23.861713409423828,0.43364186212420464,0.43364186212420464,nan,nan,0,0.36174243688583374,0.3411840498447418,-0.0074224695563316345,5.233891010284424,0.49087122082710266,0.49087122082710266,nan,nan,0,0.0332656055688858,0.5526198148727417,0.46269264817237854,-11.263580322265625,0.5066328123211861,0.5066328123211861,nan,nan,0,0.6987153887748718,-0.299296498298645,-0.5004698038101196,16.13495445251465,0.13935770094394684,0.13935770094394684,nan,nan,0,-0.6212652325630188,-0.006981792394071817,-0.2921590805053711,-10.809964179992676,-0.3106326162815094,-0.3106326162815094,nan,nan,0,0,0.9996837973594666,0.019505495205521584,0.015578984282910824,-0.003049917984753847,-0.032787177711725235,0.08449333906173706,0.06499093770980835,nan,nan,nan,14.14200496673584,318.4445495605469,14.14200496673584,318.4445495605469,0.0,0.15712395310401917,0.03295217454433441,-0.03857260197401047
1782200957666552127,-0.9989930987358093,-0.04486418515443802,0.4000000059604645,0.0,0.0,1,1,0.038586582988500595,0.031855564564466476,-0.004820823669433594,-0.043622542172670364,0.045607976615428925,0.05597347766160965,0.33364760875701904,0.42586550116539,0.46527063846588135,1.893362045288086,0.566823810338974,0.566823810338974,nan,nan,0,0.15382525324821472,0.0125715471804142,0.0990365743637085,3.6979663372039795,0.12691262736916542,0.12691262736916542,nan,nan,0,0.1323651820421219,-0.31140729784965515,-0.04710996150970459,1.5518791675567627,-0.24381741136312485,-0.24381741136312485,nan,nan,0,0.08894757926464081,0.44789591431617737,0.8668988943099976,1.2537058591842651,0.5344737991690636,0.5344737991690636,nan,nan,0,0.019403189420700073,-0.17624036967754364,-0.13119220733642578,0.3759596347808838,-0.20029839873313904,-0.20029839873313904,nan,nan,0,0.0481831319630146,-0.008910294622182846,-0.09040947258472443,1.447371244430542,0.0240915659815073,0.0240915659815073,nan,nan,0,0.18409745395183563,-0.3974967896938324,0.003843739628791809,2.615487813949585,-0.30795127898454666,-0.30795127898454666,nan,nan,0,0.9355441927909851,-0.02332640253007412,0.0068102385848760605,22.141258239746094,0.4177720956504345,0.4177720956504345,nan,nan,0,0.3142547011375427,0.3406696021556854,-0.07091931253671646,5.76856803894043,0.46712735295295715,0.46712735295295715,nan,nan,0,0.03278958797454834,0.5566936135292053,0.4359740912914276,-11.205273628234863,0.5063948035240173,0.5063948035240173,nan,nan,0,0.6672030687332153,-0.3039472699165344,-0.5168715715408325,16.797182083129883,0.12360154092311859,0.12360154092311859,nan,nan,0,-0.6132119297981262,-0.006601319648325443,-0.25062790513038635,-10.840229988098145,-0.3066059648990631,-0.3066059648990631,nan,nan,0,0,0.9996834993362427,0.019327977672219276,0.015877602621912956,-0.0027169084642082453,-0.043622542172670364,0.045607976615428925,0.05597347766160965,nan,nan,nan,26.95942497253418,309.23309326171875,26.95942497253418,309.23309326171875,0.0,0.15765725076198578,0.045558393001556396,-0.04001479595899582
1782200957676552127,-0.9989929795265198,0.04486646503210068,0.4000000059604645,0.0,0.0,1,1,0.03813750669360161,0.03218846768140793,-0.004430294036865234,-0.05505317822098732,0.025683119893074036,0.020933393388986588,0.2927783727645874,0.4302482008934021,0.39955833554267883,2.1665310859680176,0.5463891923427582,0.5463891923427582,nan,nan,0,0.1701962649822235,0.013515925034880638,0.07217846065759659,3.94860577583313,0.13509813323616982,0.13509813323616982,nan,nan,0,0.13158275187015533,-0.3115560710430145,-0.006880267057567835,3.3940508365631104,-0.24420862644910812,-0.24420862644910812,nan,nan,0,0.1353868544101715,0.45665818452835083,0.8488717079162598,0.17296162247657776,0.5576934367418289,0.5576934367418289,nan,nan,0,0.03612440824508667,-0.17800407111644745,-0.12762315571308136,0.34849563241004944,-0.19193778932094574,-0.19193778932094574,nan,nan,0,0.0490804947912693,-0.010016266256570816,-0.21586765348911285,1.4975073337554932,0.02454024739563465,0.02454024739563465,nan,nan,0,0.21306584775447845,-0.39738520979881287,0.005759276915341616,3.269357681274414,-0.29346708208322525,-0.29346708208322525,nan,nan,0,0.9304981827735901,-0.023013640195131302,0.0036857817322015762,20.724987030029297,0.415249090641737,0.415249090641737,nan,nan,0,0.3333292603492737,0.3402461111545563,-0.04507845640182495,5.671678066253662,0.47666463255882263,0.47666463255882263,nan,nan,0,0.014866769313812256,0.5610202550888062,0.48239484429359436,-11.077587127685547,0.4974333941936493,0.4974333941936493,nan,nan,0,0.6959778666496277,-0.30880841612815857,-0.592785120010376,17.009361267089844,0.13798893988132477,0.13798893988132477,nan,nan,0,-0.6013981699943542,-0.005990706849843264,-0.2513420581817627,-10.99066162109375,-0.3006990849971771,-0.3006990849971771,nan,nan,0,0,0.9996856451034546,0.019100727513432503,0.016048338264226913,-0.002521366812288761,-0.05505317822098732,0.025683119893074036,0.020933393388986588,nan,nan,nan,30.337507247924805,314.5683898925781,30.337507247924805,314.5683898925781,0.0,0.15850752592086792,0.05721162632107735,-0.04546525329351425
1782200957686552127,-0.9909496903419495,0.1342339813709259,0.4000000059604645,0.0,0.0,1,1,0.03763869032263756,0.0324275866150856,-0.0043277740478515625,-0.05501424893736839,0.019920136779546738,0.0004619912651833147,0.3664500117301941,0.43382206559181213,0.3113498091697693,2.9303083419799805,0.5832250118255615,0.5832250118255615,nan,nan,0,0.22963663935661316,0.014340447261929512,0.06667925417423248,4.444399833679199,0.16481832042336464,0.16481832042336464,nan,nan,0,0.1294659525156021,-0.31175491213798523,-0.029121961444616318,2.7103257179260254,-0.24526702612638474,-0.24526702612638474,nan,nan,0,0.13371364772319794,0.4651796519756317,0.8057026267051697,-0.8785302639007568,0.5568568333983421,0.5568568333983421,nan,nan,0,0.017711207270622253,-0.1813472956418991,-0.2785336971282959,0.0989789366722107,-0.20114438980817795,-0.20114438980817795,nan,nan,0,0.04922580346465111,-0.012090792879462242,-0.3496130704879761,1.6026579141616821,0.024612901732325554,0.024612901732325554,nan,nan,0,0.21597222983837128,-0.3975621163845062,-0.029653968289494514,2.3264944553375244,-0.29201389104127884,-0.29201389104127884,nan,nan,0,0.9541687965393066,-0.02269328013062477,0.006972522474825382,20.925174713134766,0.42708439752459526,0.42708439752459526,nan,nan,0,0.30498677492141724,0.3403346538543701,0.019536901265382767,4.928042888641357,0.4624933898448944,0.4624933898448944,nan,nan,0,0.05594068765640259,0.5659013390541077,0.5327862501144409,-11.260418891906738,0.5179703533649445,0.5179703533649445,nan,nan,0,0.6938196420669556,-0.31394731998443604,-0.559204638004303,16.704370498657227,0.1369098275899887,0.1369098275899887,nan,nan,0,-0.6023668646812439,-0.005178837105631828,-0.21229015290737152,-10.700945854187012,-0.30118343234062195,-0.30118343234062195,nan,nan,0,0,0.9996885061264038,0.018850795924663544,0.016169454902410507,-0.002468421123921871,-0.05501424893736839,0.019920136779546738,0.0004619912651833147,nan,nan,nan,33.69711685180664,307.4812927246094,33.69711685180664,307.4812927246094,0.0,0.16033786535263062,0.06872149556875229,-0.05094898119568825
1782200957696552127,-0.9749277234077454,0.22252167761325836,0.4000000059604645,0.0,0.0,1,1,0.03700839728116989,0.03252945467829704,-0.004479885101318359,-0.07426922768354416,0.01005943026393652,-0.027931934222579002,0.3939414918422699,0.436335951089859,0.18139469623565674,3.0000932216644287,0.5969707518815994,0.5969707518815994,nan,nan,0,0.21621665358543396,0.014683786779642105,0.04189456254243851,5.487192153930664,0.15810832753777504,0.15810832753777504,nan,nan,0,0.12896910309791565,-0.3117298483848572,-0.034360747784376144,1.5096044540405273,-0.24551545083522797,-0.24551545083522797,nan,nan,0,0.1474178433418274,0.4735800623893738,0.7777703404426575,-1.2493270635604858,0.5637089312076569,0.5637089312076569,nan,nan,0,0.0010961145162582397,-0.1901681125164032,-0.8528624773025513,1.1140000820159912,-0.20945193618535995,-0.20945193618535995,nan,nan,0,0.05125073716044426,-0.015556074678897858,-0.05846281349658966,1.6780641078948975,0.02562536858022213,0.02562536858022213,nan,nan,0,0.22862784564495087,-0.3973952829837799,-0.002686326391994953,3.2004616260528564,-0.28568608313798904,-0.28568608313798904,nan,nan,0,0.925803542137146,-0.02234085649251938,0.004220251925289631,17.464853286743164,0.41290177032351494,0.41290177032351494,nan,nan,0,0.2868621349334717,0.3404329717159271,0.011415477842092514,5.020931720733643,0.45343106985092163,0.45343106985092163,nan,nan,0,0.06363660097122192,0.5707098841667175,0.5276432037353516,-11.763998985290527,0.5218183100223541,0.5218183100223541,nan,nan,0,0.7065005898475647,-0.31911852955818176,-0.6082956790924072,16.931495666503906,0.14325030148029327,0.14325030148029327,nan,nan,0,-0.5838744044303894,-0.004216799512505531,-0.1958634853363037,-10.50107192993164,-0.2919372022151947,-0.2919372022151947,nan,nan,0,0,0.9996934533119202,0.018537074327468872,0.016219742596149445,-0.002540148561820388,-0.07426922768354416,0.01005943026393652,-0.027931934222579002,nan,nan,nan,27.265825271606445,319.1021728515625,27.265825271606445,319.1021728515625,0.0,0.1624394953250885,0.08078139275312424,-0.05279679596424103
1782200957706552127,-0.9510560035705566,0.30901864171028137,0.4000000059604645,0.0,0.0,1,1,0.03609735146164894,0.03259800001978874,-0.004800319671630859,-0.10766194015741348,0.010494835674762726,-0.0336293950676918,0.44273659586906433,0.4370581805706024,0.04632572829723358,3.3136098384857178,0.6213683038949966,0.6213683038949966,nan,nan,0,0.224185973405838,0.014877871610224247,-0.002355288714170456,4.651994705200195,0.16209298744797707,0.16209298744797707,nan,nan,0,0.13460077345371246,-0.31132757663726807,0.005993339698761702,1.4345896244049072,-0.24269961565732956,-0.24269961565732956,nan,nan,0,0.12536050379276276,0.4805288314819336,0.6464468836784363,-1.3338476419448853,0.5526802614331245,0.5526802614331245,nan,nan,0,0.011836662888526917,-0.20115749537944794,-1.0689597129821777,1.2224962711334229,-0.20408166199922562,-0.20408166199922562,nan,nan,0,0.0586041621863842,-0.014241478405892849,0.017536304891109467,1.7410924434661865,0.0293020810931921,0.0293020810931921,nan,nan,0,0.2651958465576172,-0.39696478843688965,0.031100977212190628,2.265728235244751,-0.2674020826816559,-0.2674020826816559,nan,nan,0,0.897688090801239,-0.022167854011058807,-0.022936591878533363,18.386720657348633,0.39884404465556145,0.39884404465556145,nan,nan,0,0.24882417917251587,0.3404513895511627,-0.0034822113811969757,4.665330410003662,0.4344120919704437,0.4344120919704437,nan,nan,0,0.09743338823318481,0.5754171013832092,0.501816987991333,-12.154275894165039,0.5387167036533356,0.5387167036533356,nan,nan,0,0.7213857769966125,-0.3243004381656647,-0.5626217126846313,16.56977653503418,0.1506928950548172,0.1506928950548172,nan,nan,0,-0.5717697739601135,-0.003189599374309182,-0.1906852424144745,-10.387887001037598,-0.28588488698005676,-0.28588488698005676,nan,nan,0,0,0.9997007250785828,0.018084362149238586,0.016252262517809868,-0.002693676622584462,-0.10766194015741348,0.010494835674762726,-0.0336293950676918,nan,nan,nan,32.296199798583984,305.4304504394531,32.296199798583984,305.4304504394531,0.0,0.1653711199760437,0.09295192360877991,-0.05764259770512581
1782200957716552127,-0.9195270538330078,0.3930266499519348,0.4000000059604645,0.0,0.0,1,1,0.034892018884420395,0.03271900862455368,-0.005135059356689453,-0.12814566493034363,0.011075509712100029,-0.040400829166173935,0.4579044580459595,0.4380641579627991,0.1527581363916397,2.320660352706909,0.6289522349834442,0.6289522349834442,nan,nan,0,0.26358160376548767,0.014682143926620483,-0.047067344188690186,5.126735687255859,0.1817908026278019,0.1817908026278019,nan,nan,0,0.1290806531906128,-0.3115535378456116,-0.067612424492836,3.437100410461426,-0.2454596757888794,-0.2454596757888794,nan,nan,0,0.08452927321195602,0.48738276958465576,0.6947957277297974,-0.22841894626617432,0.5322646461427212,0.5322646461427212,nan,nan,0,0.008116140961647034,-0.210348978638649,-0.5888914465904236,1.5979053974151611,-0.20594192296266556,-0.20594192296266556,nan,nan,0,0.06729128956794739,-0.01702740043401718,-0.7184258103370667,2.2543509006500244,0.033645644783973694,0.033645644783973694,nan,nan,0,0.2916456162929535,-0.39626267552375793,0.0796448141336441,2.5158169269561768,-0.25417719781398773,-0.25417719781398773,nan,nan,0,0.8255719542503357,-0.02215675637125969,-0.01576344296336174,18.29810905456543,0.3627859763801098,0.3627859763801098,nan,nan,0,0.25353574752807617,0.3402308523654938,-0.04843123257160187,5.1709160804748535,0.4367678761482239,0.4367678761482239,nan,nan,0,0.11357221007347107,0.5797945261001587,0.44452083110809326,-12.749217987060547,0.5467861145734787,0.5467861145734787,nan,nan,0,0.70210862159729,-0.3293440043926239,-0.5911264419555664,17.212034225463867,0.14105431735515594,0.14105431735515594,nan,nan,0,-0.5428829789161682,-0.0020718807354569435,-0.1888527274131775,-10.211203575134277,-0.2714414894580841,-0.2714414894580841,nan,nan,0,0,0.9997100830078125,0.01748472824692726,0.016311446204781532,-0.002852169331163168,-0.12814566493034363,0.011075509712100029,-0.040400829166173935,nan,nan,nan,56.85661315917969,320.5215148925781,56.85661315917969,320.5215148925781,0.0,0.1667800396680832,0.10477589070796967,-0.056798264384269714
1782200957726552127,-0.8805951476097107,0.4738694131374359,0.4000000059604645,0.0,0.0,1,1,0.033711016178131104,0.032880350947380066,-0.00554656982421875,-0.1154603511095047,0.01568560115993023,-0.04865486919879913,0.43871018290519714,0.4399491846561432,0.18227627873420715,3.260596990585327,0.619355097413063,0.619355097413063,nan,nan,0,0.28104713559150696,0.014691767282783985,0.0069588725455105305,5.826192855834961,0.19052356854081154,0.19052356854081154,nan,nan,0,0.13990959525108337,-0.3124423027038574,-0.06961891055107117,3.4590792655944824,-0.2400452047586441,-0.2400452047586441,nan,nan,0,0.07665097713470459,0.4949693977832794,0.7582753300666809,-1.770727276802063,0.5283254981040955,0.5283254981040955,nan,nan,0,0.018311545252799988,-0.21682214736938477,-0.6314360499382019,1.5194964408874512,-0.20084422081708908,-0.20084422081708908,nan,nan,0,0.07202300429344177,-0.022916357964277267,-0.6202539205551147,2.378769874572754,0.036011502146720886,0.036011502146720886,nan,nan,0,0.35764816403388977,-0.39562907814979553,0.049408942461013794,2.65834641456604,-0.2211759239435196,-0.2211759239435196,nan,nan,0,0.7724013924598694,-0.021917128935456276,0.014763982966542244,17.176525115966797,0.33620069548487663,0.33620069548487663,nan,nan,0,0.26859062910079956,0.3401954770088196,0.003789616748690605,4.531935691833496,0.44429531693458557,0.44429531693458557,nan,nan,0,0.11532610654830933,0.5840485095977783,0.4496553838253021,-11.337762832641602,0.5476630628108978,0.5476630628108978,nan,nan,0,0.7125386595726013,-0.33433565497398376,-0.5312893986701965,17.366168975830078,0.14626933634281158,0.14626933634281158,nan,nan,0,-0.5044553279876709,-0.000771118386182934,-0.12430207431316376,-10.288729667663574,-0.25222766399383545,-0.25222766399383545,nan,nan,0,0,0.999718189239502,0.016897952184081078,0.016390299424529076,-0.0030496688559651375,-0.1154603511095047,0.01568560115993023,-0.04865486919879913,nan,nan,nan,56.27580642700195,294.9523010253906,56.27580642700195,294.9523010253906,0.0,0.1681542545557022,0.11562094837427139,-0.0581764318048954
