timestamp_ns,phase_sin,phase_cos,cmd_linear_x,cmd_linear_y,cmd_angular_z,left_contact,right_contact,base_euler_x,base_euler_y,base_euler_z,base_ang_vel_x,base_ang_vel_y,base_ang_vel_z,action_left_hip_pitch_joint,pos_left_hip_pitch_joint,vel_left_hip_pitch_joint,effort_left_hip_pitch_joint,pos_des_raw_left_hip_pitch_joint,pos_des_lpf_left_hip_pitch_joint,tau_des_raw_left_hip_pitch_joint,tau_des_lpf_left_hip_pitch_joint,is_parallel_left_hip_pitch_joint,action_left_hip_roll_joint,pos_left_hip_roll_joint,vel_left_hip_roll_joint,effort_left_hip_roll_joint,pos_des_raw_left_hip_roll_joint,pos_des_lpf_left_hip_roll_joint,tau_des_raw_left_hip_roll_joint,tau_des_lpf_left_hip_roll_joint,is_parallel_left_hip_roll_joint,action_left_hip_yaw_joint,pos_left_hip_yaw_joint,vel_left_hip_yaw_joint,effort_left_hip_yaw_joint,pos_des_raw_left_hip_yaw_joint,pos_des_lpf_left_hip_yaw_joint,tau_des_raw_left_hip_yaw_joint,tau_des_lpf_left_hip_yaw_joint,is_parallel_left_hip_yaw_joint,action_left_knee_pitch_joint,pos_left_knee_pitch_joint,vel_left_knee_pitch_joint,effort_left_knee_pitch_joint,pos_des_raw_left_knee_pitch_joint,pos_des_lpf_left_knee_pitch_joint,tau_des_raw_left_knee_pitch_joint,tau_des_lpf_left_knee_pitch_joint,is_parallel_left_knee_pitch_joint,action_left_ankle_pitch_joint,pos_left_ankle_pitch_joint,vel_left_ankle_pitch_joint,effort_left_ankle_pitch_joint,pos_des_raw_left_ankle_pitch_joint,pos_des_lpf_left_ankle_pitch_joint,tau_des_raw_left_ankle_pitch_joint,tau_des_lpf_left_ankle_pitch_joint,is_parallel_left_ankle_pitch_joint,action_left_ankle_roll_joint,pos_left_ankle_roll_joint,vel_left_ankle_roll_joint,effort_left_ankle_roll_joint,pos_des_raw_left_ankle_roll_joint,pos_des_lpf_left_ankle_roll_joint,tau_des_raw_left_ankle_roll_joint,tau_des_lpf_left_ankle_roll_joint,is_parallel_left_ankle_roll_joint,action_right_hip_pitch_joint,pos_right_hip_pitch_joint,vel_right_hip_pitch_joint,effort_right_hip_pitch_joint,pos_des_raw_right_hip_pitch_joint,pos_des_lpf_right_hip_pitch_joint,tau_des_raw_right_hip_pitch_joint,tau_des_lpf_right_hip_pitch_joint,is_parallel_right_hip_pitch_joint,action_right_hip_roll_joint,pos_right_hip_roll_joint,vel_right_hip_roll_joint,effort_right_hip_roll_joint,pos_des_raw_right_hip_roll_joint,pos_des_lpf_right_hip_roll_joint,tau_des_raw_right_hip_roll_joint,tau_des_lpf_right_hip_roll_joint,is_parallel_right_hip_roll_joint,action_right_hip_yaw_joint,pos_right_hip_yaw_joint,vel_right_hip_yaw_joint,effort_right_hip_yaw_joint,pos_des_raw_right_hip_yaw_joint,pos_des_lpf_right_hip_yaw_joint,tau_des_raw_right_hip_yaw_joint,tau_des_lpf_right_hip_yaw_joint,is_parallel_right_hip_yaw_joint,action_right_knee_pitch_joint,pos_right_knee_pitch_joint,vel_right_knee_pitch_joint,effort_right_knee_pitch_joint,pos_des_raw_right_knee_pitch_joint,pos_des_lpf_right_knee_pitch_joint,tau_des_raw_right_knee_pitch_joint,tau_des_lpf_right_knee_pitch_joint,is_parallel_right_knee_pitch_joint,action_right_ankle_pitch_joint,pos_right_ankle_pitch_joint,vel_right_ankle_pitch_joint,effort_right_ankle_pitch_joint,pos_des_raw_right_ankle_pitch_joint,pos_des_lpf_right_ankle_pitch_joint,tau_des_raw_right_ankle_pitch_joint,tau_des_lpf_right_ankle_pitch_joint,is_parallel_right_ankle_pitch_joint,action_right_ankle_roll_joint,pos_right_ankle_roll_joint,vel_right_ankle_roll_joint,effort_right_ankle_roll_joint,pos_des_raw_right_ankle_roll_joint,pos_des_lpf_right_ankle_roll_joint,tau_des_raw_right_ankle_roll_joint,tau_des_lpf_right_ankle_roll_joint,is_parallel_right_ankle_roll_joint,clip_count,imu_quat_w,imu_quat_x,imu_quat_y,imu_quat_z,imu_gyro_x,imu_gyro_y,imu_gyro_z,imu_accel_x,imu_accel_y,imu_accel_z,left_foot_contact_force_z,right_foot_contact_force_z,left_foot_contact_force_mag,right_foot_contact_force_mag,feet_contact_force_penalty,base_lin_vel_x,base_lin_vel_y,base_lin_vel_z
1782274859301636357,0.2660350799560547,-0.9639633297920227,0.4000000059604645,0.0,0.0,1,0,-0.10442352294921875,0.04101956635713577,0.15068064630031586,0.9020043015480042,0.5116333365440369,0.22988209128379822,-1.6727006435394287,0.1973063051700592,-1.7171425819396973,-8.152522087097168,-0.4363503158092499,-0.4363503158092499,nan,nan,0,0.7262276411056519,0.20002858340740204,0.03944067656993866,11.19477367401123,0.413113821297884,0.413113821297884,nan,nan,0,-1.232041597366333,-0.8401685953140259,1.1336939334869385,-10.167343139648438,-0.9260208010673523,-0.9260208010673523,nan,nan,0,-1.1987053155899048,0.731991171836853,-3.339750051498413,-14.401859283447266,-0.10935264825820923,-0.10935264825820923,nan,nan,0,0.041594743728637695,-0.41234609484672546,1.0768723487854004,15.586712837219238,-0.18920262157917023,-0.18920262157917023,nan,nan,0,-0.34911906719207764,0.14364725351333618,3.674708843231201,-7.286221504211426,-0.17455953359603882,-0.17455953359603882,nan,nan,0,-0.04195767641067505,-0.5923648476600647,-0.5661811232566833,-3.399489641189575,-0.420978844165802,-0.420978844165802,nan,nan,0,0.8116604685783386,0.12423088401556015,-1.29940927028656,-4.3169989585876465,0.35583023354411125,0.35583023354411125,nan,nan,0,-0.20273371040821075,-0.4756964147090912,1.6498022079467773,0.6776555776596069,0.2086331471800804,0.2086331471800804,nan,nan,0,-0.6425126791000366,0.6915481090545654,-2.4368808269500732,-0.5691415667533875,0.16874366998672485,0.16874366998672485,nan,nan,0,-0.9726078510284424,-0.40999820828437805,0.004847385920584202,-20.918867111206055,-0.6963039189577103,-0.6963039189577103,nan,nan,0,-0.49279141426086426,-0.054888829588890076,-0.7521134614944458,-1.19583261013031,-0.24639570713043213,-0.24639570713043213,nan,nan,0,0,0.995514452457428,-0.05357053503394127,0.016494985669851303,0.07621794193983078,0.9020043015480042,0.5116333365440369,0.22988209128379822,nan,nan,nan,450.78350830078125,0.0,450.78350830078125,0.0,0.0,0.3711426258087158,-0.0634087547659874,0.04982602968811989
1782274859311636357,0.17855599522590637,-0.9839297533035278,0.4000000059604645,0.0,0.0,1,0,-0.09445047378540039,0.04667273908853531,0.15354830026626587,1.050816297531128,0.5406386256217957,0.42879220843315125,-1.4309746026992798,0.18147516250610352,-1.5771420001983643,-7.073697090148926,-0.3154872953891754,-0.3154872953891754,nan,nan,0,0.19803522527217865,0.20001251995563507,0.019872937351465225,12.540637969970703,0.14901761338114738,0.14901761338114738,nan,nan,0,-1.4767789840698242,-0.834571361541748,0.7232926487922668,-10.36661148071289,-1.048389494419098,-1.048389494419098,nan,nan,0,-1.1077011823654175,0.6985369920730591,-3.501660108566284,-14.754284858703613,-0.06385058164596558,-0.06385058164596558,nan,nan,0,-0.26957178115844727,-0.41095462441444397,0.47498950362205505,14.814489364624023,-0.3447858840227127,-0.3447858840227127,nan,nan,0,-0.3287579417228699,0.1411309838294983,-0.07062852382659912,-6.579254150390625,-0.16437897086143494,-0.16437897086143494,nan,nan,0,0.4520166516304016,-0.5981521606445312,-0.5613064169883728,-0.0875907838344574,-0.17399168014526367,-0.17399168014526367,nan,nan,0,1.5179541110992432,0.11219117045402527,-1.0647302865982056,-3.542269706726074,0.7089770548045635,0.7089770548045635,nan,nan,0,0.1276717334985733,-0.4588715136051178,1.6821573972702026,1.6106687784194946,0.37383586913347244,0.37383586913347244,nan,nan,0,-0.8273882865905762,0.6669262647628784,-2.386805295944214,0.02608734369277954,0.07630586624145508,0.07630586624145508,nan,nan,0,-0.6101720333099365,-0.40999993681907654,0.003906380385160446,-20.29336929321289,-0.5150860100984573,-0.5150860100984573,nan,nan,0,-0.7630811333656311,-0.07229305803775787,-0.9112303256988525,-1.5425119400024414,-0.38154056668281555,-0.38154056668281555,nan,nan,0,0,0.9955870509147644,-0.0488436333835125,0.019619783386588097,0.07769069075584412,1.050816297531128,0.5406386256217957,0.42879220843315125,nan,nan,nan,257.07000732421875,0.0,257.07000732421875,0.0,0.0,0.3761157989501953,-0.07572995126247406,0.03914799913764
1782274859321636357,0.0896383747458458,-0.9959743618965149,0.4000000059604645,0.0,0.0,1,1,-0.08290624618530273,0.051958225667476654,0.15834864974021912,1.1059764623641968,0.42284515500068665,0.6318256258964539,-1.5185202360153198,0.1608179360628128,-2.4084246158599854,-7.059008598327637,-0.35926011204719543,-0.35926011204719543,nan,nan,0,-0.13962997496128082,0.19999569654464722,-0.018718687817454338,12.513785362243652,-0.01981498673558235,-0.01981498673558235,nan,nan,0,-1.2723183631896973,-0.8295839428901672,0.8268619775772095,-10.518553733825684,-0.9461591839790344,-0.9461591839790344,nan,nan,0,-1.0315988063812256,0.6585124731063843,-4.289027690887451,-15.322807312011719,-0.02579939365386963,-0.02579939365386963,nan,nan,0,-0.5783018469810486,-0.40779051184654236,1.0047130584716797,12.417866706848145,-0.49915091693401337,-0.49915091693401337,nan,nan,0,-0.25853174924850464,0.1379908174276352,3.057610511779785,-10.077438354492188,-0.12926587462425232,-0.12926587462425232,nan,nan,0,0.5181220173835754,-0.6038057208061218,-0.30646541714668274,-0.6511499881744385,-0.14093899726867676,-0.14093899726867676,nan,nan,0,2.1201038360595703,0.10899186879396439,0.4602566957473755,-4.643139362335205,1.010051917284727,1.010051917284727,nan,nan,0,0.4838253855705261,-0.43159419298171997,2.221940755844116,2.0363359451293945,0.5519126951694489,0.5519126951694489,nan,nan,0,-0.8478330969810486,0.6475785374641418,-1.166385293006897,-21.318496704101562,0.06608346104621887,0.06608346104621887,nan,nan,0,-0.34767916798591614,-0.37835457921028137,2.7883238792419434,-21.230064392089844,-0.38383957743644714,-0.38383957743644714,nan,nan,0,-0.8661530017852783,-0.08166289329528809,-0.09190487861633301,-2.1746249198913574,-0.43307650089263916,-0.43307650089263916,nan,nan,0,0,0.9955897927284241,-0.04335033893585205,0.02259601093828678,0.0800701379776001,1.1059764623641968,0.42284515500068665,0.6318256258964539,nan,nan,nan,240.93942260742188,284.9322204589844,240.93942260742188,284.9322204589844,0.0,0.3910587430000305,-0.07139559835195541,0.07548195868730545
1782274859331636357,-9.775241096576792e-07,-1.0,0.4000000059604645,0.0,0.0,1,1,-0.07163000106811523,0.05670047923922539,0.16457891464233398,1.0492223501205444,0.38948720693588257,0.6083239316940308,-1.2853238582611084,0.13781538605690002,-2.1287760734558105,-9.480232238769531,-0.24266192317008972,-0.24266192317008972,nan,nan,0,-0.7478011846542358,0.20004166662693024,-0.03925846889615059,10.684794425964355,-0.32390059158205986,-0.32390059158205986,nan,nan,0,-1.5518524646759033,-0.8230916261672974,0.6651138067245483,-9.45713996887207,-1.0859262347221375,-1.0859262347221375,nan,nan,0,-0.5710065960884094,0.6166993975639343,-3.9474360942840576,-25.21376609802246,0.20449671149253845,0.20449671149253845,nan,nan,0,-0.7603094577789307,-0.3936203718185425,1.869309425354004,9.696565628051758,-0.5901547223329544,-0.5901547223329544,nan,nan,0,-0.1534569263458252,0.15734146535396576,1.1210403442382812,-10.559416770935059,-0.0767284631729126,-0.0767284631729126,nan,nan,0,0.764351487159729,-0.6068640947341919,-0.07372794300317764,1.4500210285186768,-0.017824262380599976,-0.017824262380599976,nan,nan,0,2.9427714347839355,0.11813298612833023,1.109897255897522,-3.463864326477051,1.4213857166469097,1.4213857166469097,nan,nan,0,0.7267995476722717,-0.41868501901626587,0.5571711659431458,11.646319389343262,0.6733997762203217,0.6733997762203217,nan,nan,0,-0.9126087427139282,0.6358358263969421,-1.1705043315887451,-24.521684646606445,0.03369563817977905,0.03369563817977905,nan,nan,0,-0.227634459733963,-0.34872716665267944,2.241563558578491,-20.31861686706543,-0.3238172233104706,-0.3238172233104706,nan,nan,0,-0.9925820827484131,-0.08033803105354309,0.2813454568386078,-4.120614528656006,-0.49629104137420654,-0.49629104137420654,nan,nan,0,0,0.9954932928085327,-0.03800027444958687,0.0252903513610363,0.08312246948480606,1.0492223501205444,0.38948720693588257,0.6083239316940308,nan,nan,nan,538.216552734375,251.1436767578125,538.216552734375,251.1436767578125,0.0,0.40591564774513245,-0.08768480271100998,0.1653861254453659
1782274859341636357,-0.08964031934738159,-0.9959741830825806,0.4000000059604645,0.0,0.0,1,1,-0.060391902923583984,0.06079868599772453,0.16938383877277374,1.1342929601669312,0.3883540630340576,0.4670020341873169,-1.0240074396133423,0.11360214650630951,-2.4770243167877197,-8.559894561767578,-0.11200371384620667,-0.11200371384620667,nan,nan,0,-0.8377643823623657,0.1972719132900238,-0.379293292760849,9.944438934326172,-0.3688821904361248,-0.3688821904361248,nan,nan,0,-1.366755485534668,-0.8138589262962341,1.1654913425445557,-8.85227108001709,-0.9933777451515198,-0.9933777451515198,nan,nan,0,-0.2838296890258789,0.5714953541755676,-4.708093643188477,-21.14616584777832,0.3480851650238037,0.3480851650238037,nan,nan,0,-0.9042153358459473,-0.3737332820892334,1.8776516914367676,4.88964319229126,-0.6621076613664627,-0.6621076613664627,nan,nan,0,-0.1935422420501709,0.16322481632232666,0.5221878290176392,-12.262545585632324,-0.09677112102508545,-0.09677112102508545,nan,nan,0,0.6344385743141174,-0.6060085892677307,0.09085974097251892,4.911689758300781,-0.08278071880340576,-0.08278071880340576,nan,nan,0,3.0250582695007324,0.126407191157341,0.8137604594230652,5.964254379272461,1.4625291340053082,1.4625291340053082,nan,nan,0,0.9088104367256165,-0.40693920850753784,1.1985498666763306,16.44662094116211,0.764405220746994,0.764405220746994,nan,nan,0,-0.9214748740196228,0.6199659109115601,-1.606635332107544,-28.912288665771484,0.029262572526931763,0.029262572526931763,nan,nan,0,-0.18863314390182495,-0.31990495324134827,2.732178211212158,-15.204692840576172,-0.30431656539440155,-0.30431656539440155,nan,nan,0,-1.0918822288513184,-0.08963643014431,-0.3827959895133972,-5.152355670928955,-0.5459411144256592,-0.5459411144256592,nan,nan,0,0,0.9954237937927246,-0.03263923525810242,0.027719179168343544,0.08542744815349579,1.1342929601669312,0.3883540630340576,0.4670020341873169,nan,nan,nan,177.0255584716797,188.2650604248047,177.0255584716797,188.2650604248047,0.0,0.4186682403087616,-0.10797222703695297,0.18235120177268982
1782274859351636357,-0.17855793237686157,-0.9839293956756592,0.4000000059604645,0.0,0.0,1,1,-0.04836606979370117,0.06494607031345367,0.174327552318573,1.208404302597046,0.3908321261405945,0.568727433681488,-0.6276598572731018,0.08987543731927872,-2.238678216934204,-4.802654266357422,0.08617007732391357,0.08617007732391357,nan,nan,0,-1.250066876411438,0.19467858970165253,-0.18258069455623627,-1.0881054401397705,-0.5750334374606609,-0.5750334374606609,nan,nan,0,-1.6799330711364746,-0.8046630620956421,0.8362348079681396,-12.867447853088379,-1.149966537952423,-1.149966537952423,nan,nan,0,0.2523224353790283,0.5260158181190491,-4.368334770202637,-14.828070640563965,0.6161612272262573,0.6161612272262573,nan,nan,0,-0.9863041639328003,-0.3541196882724762,2.105332612991333,-1.3612263202667236,-0.7031520754098892,-0.7031520754098892,nan,nan,0,-0.24481511116027832,0.1608467549085617,-1.4057481288909912,-10.578059196472168,-0.12240755558013916,-0.12240755558013916,nan,nan,0,0.7523919343948364,-0.600562334060669,0.7215806841850281,10.276507377624512,-0.023804038763046265,-0.023804038763046265,nan,nan,0,3.251413345336914,0.13318325579166412,0.9174774885177612,19.634618759155273,1.575706671923399,1.575706671923399,nan,nan,0,0.8129209876060486,-0.39093858003616333,1.432300329208374,20.286760330200195,0.7164604961872101,0.7164604961872101,nan,nan,0,-0.8639535903930664,0.5969841480255127,-2.1789822578430176,-29.824079513549805,0.05802321434020996,0.05802321434020996,nan,nan,0,-0.27352023124694824,-0.27524617314338684,4.058680057525635,-11.150351524353027,-0.3467601090669632,-0.3467601090669632,nan,nan,0,-1.2491776943206787,-0.11387559026479721,1.2875299453735352,-10.254925727844238,-0.6245888471603394,-0.6245888471603394,nan,nan,0,0,0.9953189492225647,-0.026901831850409508,0.030230704694986343,0.087764210999012,1.208404302597046,0.3908321261405945,0.568727433681488,nan,nan,nan,141.0576629638672,211.9857940673828,141.0576629638672,211.9857940673828,0.0,0.42803406715393066,-0.11633060872554779,0.17656143009662628
1782274859361636357,-0.2660379111766815,-0.9639625549316406,0.4000000059604645,0.0,0.0,1,1,-0.035213470458984375,0.068739153444767,0.17956870794296265,1.3320131301879883,0.32182568311691284,0.5497006177902222,-0.6966766715049744,0.06648768484592438,-2.375507354736328,-5.1159749031066895,0.051661670207977295,0.051661670207977295,nan,nan,0,-0.9591169953346252,0.194739431142807,0.1390085220336914,-9.096369743347168,-0.42955849692225456,-0.42955849692225456,nan,nan,0,-1.5297706127166748,-0.7968358397483826,0.7762554883956909,-9.266813278198242,-1.0748853087425232,-1.0748853087425232,nan,nan,0,0.26886656880378723,0.48390668630599976,-4.0254011154174805,-10.19123649597168,0.6244332939386368,0.6244332939386368,nan,nan,0,-1.0702168941497803,-0.34220871329307556,0.7597529292106628,-6.535950660705566,-0.7451084405183792,-0.7451084405183792,nan,nan,0,-0.28018346428871155,0.15496155619621277,-0.5512356162071228,-9.330443382263184,-0.14009173214435577,-0.14009173214435577,nan,nan,0,0.594813883304596,-0.5942493081092834,0.7379556894302368,11.116071701049805,-0.1025930643081665,-0.1025930643081665,nan,nan,0,3.0318374633789062,0.14241203665733337,1.067837119102478,30.778125762939453,1.465918730944395,1.465918730944395,nan,nan,0,0.871037483215332,-0.36822691559791565,2.3657455444335938,22.42730140686035,0.7455187439918518,0.7455187439918518,nan,nan,0,-0.7756704688072205,0.5748413801193237,-2.030355215072632,-30.277956008911133,0.10216477513313293,0.10216477513313293,nan,nan,0,-0.2655603885650635,-0.22118951380252838,4.647625923156738,-8.73783016204834,-0.3427801877260208,-0.3427801877260208,nan,nan,0,-1.2140557765960693,-0.12195611000061035,0.10208606719970703,-11.100374221801758,-0.6070278882980347,-0.6070278882980347,nan,nan,0,0,0.9951754808425903,-0.02060508355498314,0.03264142572879791,0.09019948542118073,1.3320131301879883,0.32182568311691284,0.5497006177902222,nan,nan,nan,137.8795928955078,169.62692260742188,137.8795928955078,169.62692260742188,0.0,0.4346001446247101,-0.12190548330545425,0.1610061228275299
1782274859371636357,-0.35137587785720825,-0.9362344741821289,0.4000000059604645,0.0,0.0,1,1,-0.021246910095214844,0.07214659452438354,0.18540291488170624,1.227901577949524,0.31021589040756226,0.57035893201828,-0.5118939876556396,0.04664958640933037,-1.957535982131958,-2.1117770671844482,0.14405301213264465,0.14405301213264465,nan,nan,0,-1.0345016717910767,0.20000268518924713,-0.05286112427711487,-20.599319458007812,-0.46725083515048027,-0.46725083515048027,nan,nan,0,-1.5746347904205322,-0.7942131757736206,0.4858633279800415,-13.5850830078125,-1.097317397594452,-1.097317397594452,nan,nan,0,0.5923370122909546,0.45379719138145447,-3.346482753753662,10.544490814208984,0.7861685156822205,0.7861685156822205,nan,nan,0,-1.1819725036621094,-0.35111284255981445,0.25419193506240845,-9.345149993896484,-0.8009862452745438,-0.8009862452745438,nan,nan,0,-0.34867948293685913,0.14394259452819824,-2.1423778533935547,-6.256852626800537,-0.17433974146842957,-0.17433974146842957,nan,nan,0,0.6024635434150696,-0.5889039635658264,0.7235310673713684,14.427336692810059,-0.09876823425292969,-0.09876823425292969,nan,nan,0,2.676994800567627,0.1589369922876358,1.4586435556411743,45.14839553833008,1.2884973995387554,1.2884973995387554,nan,nan,0,0.8032007813453674,-0.35035449266433716,1.6740659475326538,29.519323348999023,0.7116003930568695,0.7116003930568695,nan,nan,0,-0.6662735342979431,0.5568341612815857,-1.8060587644577026,-33.62086486816406,0.1568632423877716,0.1568632423877716,nan,nan,0,-0.30946779251098633,-0.19366773962974548,1.8787496089935303,-6.208159446716309,-0.36473388969898224,-0.36473388969898224,nan,nan,0,-1.255757451057434,-0.07140018790960312,3.459230899810791,-17.040040969848633,-0.627878725528717,-0.627878725528717,nan,nan,0,0,0.9949668645858765,-0.013909048400819302,0.034925855696201324,0.09288477897644043,1.227901577949524,0.31021589040756226,0.57035893201828,nan,nan,nan,147.36068725585938,256.0374450683594,147.36068725585938,256.0374450683594,0.0,0.4356940686702728,-0.11919457465410233,0.18012262880802155
1782274859381636357,-0.43388479948043823,-0.9009683728218079,0.4000000059604645,0.0,0.0,1,1,-0.00924539566040039,0.07579023391008377,0.19099530577659607,1.122145414352417,0.35882243514060974,0.5581769943237305,-0.44603145122528076,0.03247321769595146,-1.2569893598556519,0.1084783673286438,0.1769842803478241,0.1769842803478241,nan,nan,0,-0.847257137298584,0.1999950110912323,-0.0332767590880394,-22.446882247924805,-0.37362856790423393,-0.37362856790423393,nan,nan,0,-1.5496771335601807,-0.7921733260154724,-0.02300209552049637,-7.989005088806152,-1.0848385691642761,-1.0848385691642761,nan,nan,0,0.5532577633857727,0.4341004490852356,-1.5347046852111816,7.5853142738342285,0.7666288912296295,0.7666288912296295,nan,nan,0,-1.260359764099121,-0.3723934292793274,-2.3489108085632324,-7.938530921936035,-0.8401798754930496,-0.8401798754930496,nan,nan,0,-0.4483985900878906,0.1198895052075386,-2.705538034439087,-6.086952209472656,-0.2241992950439453,-0.2241992950439453,nan,nan,0,0.5714038610458374,-0.5840258598327637,0.5512040853500366,12.893028259277344,-0.11429807543754578,-0.11429807543754578,nan,nan,0,2.2435312271118164,0.1705992966890335,1.1557170152664185,47.5296516418457,1.0717656128108501,1.0717656128108501,nan,nan,0,0.5550351142883301,-0.32553744316101074,1.6610487699508667,30.368467330932617,0.5875175595283508,0.5875175595283508,nan,nan,0,-0.5568313002586365,0.5406351089477539,-1.2454246282577515,-37.55573272705078,0.21158435940742493,0.21158435940742493,nan,nan,0,-0.29916805028915405,-0.18704994022846222,0.2533014714717865,-4.826356410980225,-0.3595840185880661,-0.3595840185880661,nan,nan,0,-1.255308747291565,-0.0425899364054203,3.2595608234405518,-19.629779815673828,-0.6276543736457825,-0.6276543736457825,nan,nan,0,0,0.994701623916626,-0.008210836909711361,0.03727254644036293,0.09545742720365524,1.122145414352417,0.35882243514060974,0.5581769943237305,nan,nan,nan,106.3475112915039,306.7525329589844,106.3475112915039,306.7525329589844,0.0,0.43307632207870483,-0.11881529539823532,0.18128466606140137
1782274859391636357,-0.5128994584083557,-0.8584486842155457,0.4000000059604645,0.0,0.0,0,1,0.0018903284799307585,0.08005262911319733,0.19712898135185242,1.049452543258667,0.4220626950263977,0.6274401545524597,-0.3956890106201172,0.028454318642616272,-0.17962263524532318,2.932948589324951,0.20215550065040588,0.20215550065040588,nan,nan,0,-0.6998117566108704,0.1992887556552887,-0.24619252979755402,-30.18913459777832,-0.2999058775603771,-0.2999058775603771,nan,nan,0,-1.5730129480361938,-0.8019397258758545,-1.4064922332763672,-6.099170207977295,-1.0965064764022827,-1.0965064764022827,nan,nan,0,0.45380258560180664,0.4377623498439789,0.6422758102416992,12.454371452331543,0.7169013023376465,0.7169013023376465,nan,nan,0,-1.3621453046798706,-0.4099837839603424,0.010316789150238037,-10.888450622558594,-0.8910726457834244,-0.8910726457834244,nan,nan,0,-0.4967576265335083,0.071490578353405,-3.164870262145996,-4.704319477081299,-0.24837881326675415,-0.24837881326675415,nan,nan,0,0.588245689868927,-0.5810063481330872,0.3679727017879486,15.216829299926758,-0.10587716102600098,-0.10587716102600098,nan,nan,0,2.1596174240112305,0.18257388472557068,1.2094268798828125,51.405391693115234,1.0298087112605572,1.0298087112605572,nan,nan,0,0.41731101274490356,-0.3077554702758789,1.2713137865066528,29.54547882080078,0.5186555087566376,0.5186555087566376,nan,nan,0,-0.48617053031921387,0.5285106301307678,-0.9754616618156433,-36.062652587890625,0.24691474437713623,0.24691474437713623,nan,nan,0,-0.19079160690307617,-0.18264731764793396,-0.036120738834142685,-6.3288092613220215,-0.30539579689502716,-0.30539579689502716,nan,nan,0,-1.2866454124450684,-0.011932737194001675,2.449863910675049,-22.9663143157959,-0.6433227062225342,-0.6433227062225342,nan,nan,0,0,0.9943526387214661,-0.0029979117680341005,0.0399143286049366,0.09828846901655197,1.049452543258667,0.4220626950263977,0.6274401545524597,nan,nan,nan,0.0,293.91082763671875,0.0,293.91082763671875,0.0,0.4260830283164978,-0.11229908466339111,0.16623051464557648
1782274859401636357,-0.5877862572669983,-0.8090162873268127,0.4000000059604645,0.0,0.0,0,1,0.012912970967590809,0.08431936055421829,0.20255056023597717,1.0539467334747314,0.3960578143596649,0.4813840389251709,-0.4657326340675354,0.028809966519474983,-0.0184119064360857,1.1978797912597656,0.16713368892669678,0.16713368892669678,nan,nan,0,-0.3964014947414398,0.19393153488636017,-0.7973088026046753,-22.549041748046875,-0.14820074662566185,-0.14820074662566185,nan,nan,0,-1.506542682647705,-0.8157868981361389,-1.1113746166229248,-3.724170446395874,-1.0632713437080383,-1.0632713437080383,nan,nan,0,0.3323250412940979,0.44763192534446716,1.021317481994629,7.172875881195068,0.6561625301837921,0.6561625301837921,nan,nan,0,-1.4183717966079712,-0.4099976420402527,0.001979735679924488,-12.351093292236328,-0.9191858917474747,-0.9191858917474747,nan,nan,0,-0.49618852138519287,0.021942930296063423,-2.5243659019470215,-3.9564943313598633,-0.24809426069259644,-0.24809426069259644,nan,nan,0,0.7359298467636108,-0.5817227959632874,-0.055078860372304916,15.020099639892578,-0.03203508257865906,-0.03203508257865906,nan,nan,0,1.9705610275268555,0.195021852850914,1.2571285963058472,46.21277618408203,0.9352805130183697,0.9352805130183697,nan,nan,0,0.394420325756073,-0.2887878119945526,2.2924892902374268,26.890316009521484,0.5072101652622223,0.5072101652622223,nan,nan,0,-0.3977057933807373,0.5203642845153809,-0.8948773145675659,-33.108829498291016,0.2911471128463745,0.2911471128463745,nan,nan,0,0.04283177852630615,-0.17749091982841492,-0.0739743709564209,-5.203973293304443,-0.188584104180336,-0.188584104180336,nan,nan,0,-1.269303321838379,0.016127409413456917,2.5205464363098145,-23.304048538208008,-0.6346516609191895,-0.6346516609191895,nan,nan,0,0,0.9939988255500793,0.002156564500182867,0.04258253425359726,0.10073957592248917,1.0539467334747314,0.3960578143596649,0.4813840389251709,nan,nan,nan,0.0,247.3924102783203,0.0,247.3924102783203,0.0,0.42149659991264343,-0.10761824250221252,0.14140069484710693
1782274859411636357,-0.6579396724700928,-0.7530706524848938,0.4000000059604645,0.0,0.0,0,1,0.02350533939898014,0.08836809545755386,0.20703761279582977,0.9948036074638367,0.3974591791629791,0.36670002341270447,-0.3655860126018524,0.03331923484802246,0.49540355801582336,1.3603835105895996,0.21720699965953827,0.21720699965953827,nan,nan,0,-0.4153068959712982,0.18431302905082703,-1.21733558177948,-22.39484977722168,-0.15765344724059105,-0.15765344724059105,nan,nan,0,-1.6603482961654663,-0.8300503492355347,-1.171698808670044,-3.7438580989837646,-1.140174150466919,-1.140174150466919,nan,nan,0,0.3986160159111023,0.46867266297340393,2.2948787212371826,8.540634155273438,0.6893080174922943,0.6893080174922943,nan,nan,0,-1.5218110084533691,-0.4100014865398407,0.0023599404376000166,-14.306390762329102,-0.9709054976701736,-0.9709054976701736,nan,nan,0,-0.48796355724334717,-0.024190353229641914,-2.3072457313537598,-3.6496057510375977,-0.24398177862167358,-0.24398177862167358,nan,nan,0,0.9161009192466736,-0.583655059337616,-0.19697467982769012,15.44622802734375,0.058050453662872314,0.058050453662872314,nan,nan,0,2.0426344871520996,0.20711968839168549,1.2659149169921875,38.62157440185547,0.9713172428309917,0.9713172428309917,nan,nan,0,0.283782958984375,-0.2716209888458252,1.3051179647445679,28.88477897644043,0.4518914818763733,0.4518914818763733,nan,nan,0,-0.37338465452194214,0.5157224535942078,-0.28170207142829895,-32.871978759765625,0.3033076822757721,0.3033076822757721,nan,nan,0,0.1883542537689209,-0.1812288463115692,-0.5573917031288147,-5.552493572235107,-0.11582286655902863,-0.11582286655902863,nan,nan,0,-1.2784295082092285,0.036904897540807724,1.8467228412628174,-24.431882858276367,-0.6392147541046143,-0.6392147541046143,nan,nan,0,0,0.9936609864234924,0.007114163599908352,0.04514342173933983,0.10270971059799194,0.9948036074638367,0.3974591791629791,0.36670002341270447,nan,nan,nan,0.0,290.1855163574219,0.0,290.1855163574219,0.0,0.41627031564712524,-0.09803988039493561,0.11925995349884033
1782274859421636357,-0.7227957844734192,-0.6910617351531982,0.4000000059604645,0.0,0.0,0,1,0.03289063647389412,0.09227083623409271,0.20968136191368103,0.8424866199493408,0.3633158504962921,0.1733468621969223,-0.3123716711997986,0.039167650043964386,0.49873432517051697,2.0936279296875,0.24381417036056519,0.24381417036056519,nan,nan,0,-0.2545853853225708,0.16783922910690308,-1.9668251276016235,-15.66917610168457,-0.07729269191622734,-0.07729269191622734,nan,nan,0,-1.6600481271743774,-0.8427221775054932,-1.059046745300293,-3.4112398624420166,-1.1400240659713745,-1.1400240659713745,nan,nan,0,0.31621408462524414,0.49067702889442444,2.086125135421753,6.3508710861206055,0.6481070518493652,0.6481070518493652,nan,nan,0,-1.570753812789917,-0.41000378131866455,0.005591446068137884,-15.680046081542969,-0.9953768998384476,-0.9953768998384476,nan,nan,0,-0.4821702241897583,-0.07050935178995132,-2.313129425048828,-3.7658252716064453,-0.24108511209487915,-0.24108511209487915,nan,nan,0,1.0994963645935059,-0.5900525450706482,-0.4563042223453522,16.39887809753418,0.14974817633628845,0.14974817633628845,nan,nan,0,1.9858529567718506,0.2192230522632599,1.1072648763656616,29.917388916015625,0.9429264776408672,0.9429264776408672,nan,nan,0,0.11537130177021027,-0.2587587833404541,1.4806489944458008,23.714258193969727,0.3676856532692909,0.3676856532692909,nan,nan,0,-0.3506757616996765,0.514773428440094,-0.23145711421966553,-29.050647735595703,0.3146621286869049,0.3146621286869049,nan,nan,0,0.37058576941490173,-0.18275710940361023,0.34130269289016724,-6.824354648590088,-0.024707108736038208,-0.024707108736038208,nan,nan,0,-1.248772382736206,0.04902687296271324,2.31193470954895,-24.686172485351562,-0.624386191368103,-0.624386191368103,nan,nan,0,0,0.9933961033821106,0.011511235497891903,0.04757869616150856,0.10376900434494019,0.8424866199493408,0.3633158504962921,0.1733468621969223,nan,nan,nan,0.0,235.3647003173828,0.0,235.3647003173828,0.0,0.41380438208580017,-0.0849253311753273,0.12313500046730042
1782274859431636357,-0.7818323373794556,-0.6234887838363647,0.4000000059604645,0.0,0.0,0,1,0.040941204875707626,0.09566017985343933,0.21062812209129333,0.7713395357131958,0.32043400406837463,0.0013196305371820927,-0.06288894265890121,0.04383645951747894,0.4063234329223633,3.0541720390319824,0.36855553463101387,0.36855553463101387,nan,nan,0,-0.17629872262477875,0.14529573917388916,-2.401465654373169,-10.412335395812988,-0.038149360567331314,-0.038149360567331314,nan,nan,0,-1.6949234008789062,-0.8556990027427673,-1.1730984449386597,-2.875124454498291,-1.157461702823639,-1.157461702823639,nan,nan,0,0.352054238319397,0.5086755752563477,1.6654305458068848,3.6737167835235596,0.6660271286964417,0.6660271286964417,nan,nan,0,-1.598394513130188,-0.41000500321388245,0.0074644810520112514,-17.46242904663086,-1.009197250008583,-1.009197250008583,nan,nan,0,-0.4739704132080078,-0.11114685982465744,-2.0080857276916504,-3.3559377193450928,-0.2369852066040039,-0.2369852066040039,nan,nan,0,1.222140908241272,-0.5952215790748596,-0.5408502817153931,16.559526443481445,0.2110704481601715,0.2110704481601715,nan,nan,0,1.9662820100784302,0.22991804778575897,1.096442699432373,27.860782623291016,0.933141004294157,0.933141004294157,nan,nan,0,-0.14683009684085846,-0.25017860531806946,0.5486811995506287,24.653295516967773,0.23658495396375656,0.23658495396375656,nan,nan,0,-0.3363295793533325,0.5147860646247864,0.052596624940633774,-27.278947830200195,0.3218352198600769,0.3218352198600769,nan,nan,0,0.5017180442810059,-0.18544742465019226,-0.29070791602134705,-3.5151028633117676,0.040859028697013855,0.040859028697013855,nan,nan,0,-1.2450470924377441,0.05567067116498947,0.03930544853210449,-24.67095375061035,-0.6225235462188721,-0.6225235462188721,nan,nan,0,0,0.9932170510292053,0.01530758198350668,0.0496862456202507,0.10400403290987015,0.7713395357131958,0.32043400406837463,0.0013196305371820927,nan,nan,nan,0.0,325.3453674316406,0.0,325.3453674316406,0.0,0.4141940772533417,-0.0716688260436058,0.11089542508125305
1782274859441636357,-0.8345740437507629,-0.5508958697319031,0.4000000059604645,0.0,0.0,0,1,0.04829271510243416,0.09846817702054977,0.20954158902168274,0.731663703918457,0.23737840354442596,-0.20953534543514252,0.02179635502398014,0.046188563108444214,0.10922492295503616,2.780627965927124,0.41089818347245455,0.41089818347245455,nan,nan,0,-0.1284516155719757,0.1198534443974495,-2.5668513774871826,-2.732110023498535,-0.014225807040929794,-0.014225807040929794,nan,nan,0,-1.7716330289840698,-0.8674407005310059,-1.0445375442504883,-1.8109538555145264,-1.1958165168762207,-1.1958165168762207,nan,nan,0,0.2219020575284958,0.5214527249336243,1.144060730934143,1.5454386472702026,0.6009510383009911,0.6009510383009911,nan,nan,0,-1.6562209129333496,-0.4100046157836914,0.007043806836009026,-18.446205139160156,-1.0381104499101639,-1.0381104499101639,nan,nan,0,-0.4821680188179016,-0.14102652668952942,-1.475759744644165,-2.5803463459014893,-0.2410840094089508,-0.2410840094089508,nan,nan,0,1.3375341892242432,-0.600311279296875,-0.4749387502670288,18.814924240112305,0.2687670886516571,0.2687670886516571,nan,nan,0,2.1234021186828613,0.23989172279834747,1.0069680213928223,23.974876403808594,1.0117010585963726,1.0117010585963726,nan,nan,0,-0.2928898334503174,-0.24131402373313904,0.7148099541664124,23.168310165405273,0.1635550856590271,0.1635550856590271,nan,nan,0,-0.3427425026893616,0.5155556797981262,0.05873201787471771,-23.127056121826172,0.3186287581920624,0.3186287581920624,nan,nan,0,0.6133400201797485,-0.18826128542423248,-0.2676207423210144,0.7040369510650635,0.09667001664638519,0.09667001664638519,nan,nan,0,-1.2284822463989258,0.062023408710956573,0.005173802375793457,-24.500621795654297,-0.6142411231994629,-0.6142411231994629,nan,nan,0,0,0.9931461215019226,0.01883723773062229,0.051451973617076874,0.10324032604694366,0.731663703918457,0.23737840354442596,-0.20953534543514252,nan,nan,nan,0.0,333.3070983886719,0.0,333.3070983886719,0.0,0.41364267468452454,-0.055100373923778534,0.09836374223232269
1782274859451636357,-0.8805962204933167,-0.47386741638183594,0.4000000059604645,0.0,0.0,0,1,0.054910808801651,0.10050550848245621,0.20715484023094177,0.6611272692680359,0.14738178253173828,-0.29424968361854553,0.20501352846622467,0.0476001538336277,0.09370021522045135,4.315345287322998,0.5025067701935768,0.5025067701935768,nan,nan,0,-0.13320010900497437,0.09443549066781998,-2.5363874435424805,-2.17684006690979,-0.016600053757429123,-0.016600053757429123,nan,nan,0,-1.8436506986618042,-0.8824756741523743,-1.473789930343628,-2.237588405609131,-1.231825351715088,-1.231825351715088,nan,nan,0,0.19579988718032837,0.5348914265632629,1.3557041883468628,1.4964957237243652,0.5878999531269073,0.5878999531269073,nan,nan,0,-1.7496320009231567,-0.4100039005279541,0.006229909602552652,-20.25595474243164,-1.0848159939050674,-1.0848159939050674,nan,nan,0,-0.4893488883972168,-0.16341301798820496,-1.0602667331695557,-1.8709129095077515,-0.2446744441986084,-0.2446744441986084,nan,nan,0,1.4399336576461792,-0.6029373407363892,-0.12447996437549591,20.57121467590332,0.3199668228626251,0.3199668228626251,nan,nan,0,2.108513355255127,0.24919572472572327,0.9312368035316467,25.293827056884766,1.0042566768825054,1.0042566768825054,nan,nan,0,-0.5573234558105469,-0.23331528902053833,0.5143064260482788,21.673765182495117,0.031338274478912354,0.031338274478912354,nan,nan,0,-0.34062039852142334,0.5155054330825806,-0.07031076401472092,-20.396713256835938,0.3196898102760315,0.3196898102760315,nan,nan,0,0.7186360359191895,-0.19079558551311493,-0.27794885635375977,3.3330883979797363,0.14931802451610565,0.14931802451610565,nan,nan,0,-1.2087907791137695,0.06856437772512436,-0.13302713632583618,-24.549673080444336,-0.6043953895568848,-0.6043953895568848,nan,nan,0,0,0.9931532740592957,0.022078759968280792,0.052778296172618866,0.10185130685567856,0.6611272692680359,0.14738178253173828,-0.29424968361854553,nan,nan,nan,0.0,340.068115234375,0.0,340.068115234375,0.0,0.4097699820995331,-0.03153498098254204,0.0955890640616417
1782274859461636357,-0.9195279479026794,-0.39302459359169006,0.4000000059604645,0.0,0.0,0,1,0.06076235696673393,0.10153733938932419,0.20394286513328552,0.6025297045707703,0.0447852723300457,-0.3598387837409973,0.34959283471107483,0.047799210995435715,-0.0003652358427643776,5.404870986938477,0.5747964233160019,0.5747964233160019,nan,nan,0,-0.01393713429570198,0.06867719441652298,-2.5296764373779297,2.090486526489258,0.04303143359720707,0.04303143359720707,nan,nan,0,-1.9323484897613525,-0.8978922963142395,-1.4621821641921997,-1.7280139923095703,-1.276174247264862,-1.276174247264862,nan,nan,0,0.1203685998916626,0.5461146831512451,1.0384600162506104,-0.6736383438110352,0.5501843094825745,0.5501843094825745,nan,nan,0,-1.7540602684020996,-0.41000300645828247,0.005103462841361761,-21.11181640625,-1.0870301276445389,-1.0870301276445389,nan,nan,0,-0.47333693504333496,-0.17934748530387878,-0.7468612790107727,-1.3769783973693848,-0.23666846752166748,-0.23666846752166748,nan,nan,0,1.5100390911102295,-0.6010250449180603,0.29495126008987427,21.356430053710938,0.35501953959465027,0.35501953959465027,nan,nan,0,2.098050355911255,0.2580485939979553,0.8886339664459229,23.945064544677734,0.9990251772105694,0.9990251772105694,nan,nan,0,-0.7592677474021912,-0.2283608615398407,0.24763186275959015,19.64687728881836,-0.06963387131690979,-0.06963387131690979,nan,nan,0,-0.32392796874046326,0.5138033628463745,-0.2179429829120636,-17.61455535888672,0.32803602516651154,0.32803602516651154,nan,nan,0,0.7817891836166382,-0.1928998827934265,-0.2595246434211731,6.596645355224609,0.18089459836483002,0.18089459836483002,nan,nan,0,-1.1661114692687988,0.0753653421998024,-0.20856577157974243,-24.1920223236084,-0.5830557346343994,-0.5830557346343994,nan,nan,0,0,0.9932221174240112,0.02501639351248741,0.053548142313957214,0.10008323192596436,0.6025297045707703,0.0447852723300457,-0.3598387837409973,nan,nan,nan,0.0,345.8555603027344,0.0,345.8555603027344,0.0,0.40591299533843994,-0.00708299595862627,0.09558022022247314
1782274859471636357,-0.9510566592216492,-0.30901649594306946,0.4000000059604645,0.0,0.0,0,1,0.06601642817258835,0.10181934386491776,0.20069783926010132,0.5427687168121338,-0.018977634608745575,-0.32410281896591187,0.4199012517929077,0.05019637569785118,0.3753267526626587,8.033127784729004,0.6099506318569183,0.6099506318569183,nan,nan,0,0.05772889778017998,0.04423104599118233,-2.365785837173462,4.146831512451172,0.07886444963514805,0.07886444963514805,nan,nan,0,-1.9600005149841309,-0.9139994382858276,-1.5388835668563843,-1.4473471641540527,-1.2900002598762512,-1.2900002598762512,nan,nan,0,0.056128501892089844,0.5580518245697021,1.1962710618972778,-1.5917918682098389,0.5180642604827881,0.5180642604827881,nan,nan,0,-1.7664687633514404,-0.4100022315979004,0.004078663885593414,-21.594947814941406,-1.0932343751192093,-1.0932343751192093,nan,nan,0,-0.4780852198600769,-0.190639927983284,-0.5082941651344299,-0.9647274017333984,-0.23904260993003845,-0.23904260993003845,nan,nan,0,1.4471789598464966,-0.5946800112724304,0.7327831387519836,21.610366821289062,0.3235894739627838,0.3235894739627838,nan,nan,0,2.003037452697754,0.2668013274669647,0.8672329783439636,23.256603240966797,0.9515187256038189,0.9515187256038189,nan,nan,0,-0.9437112212181091,-0.22714975476264954,-0.14287090301513672,17.06005859375,-0.16185560822486877,-0.16185560822486877,nan,nan,0,-0.30533307790756226,0.51027512550354,-0.40511009097099304,-14.572554588317871,0.33733347058296204,0.33733347058296204,nan,nan,0,0.7733473777770996,-0.19441622495651245,-0.19915223121643066,8.924241065979004,0.17667369544506073,0.17667369544506073,nan,nan,0,-1.1050381660461426,0.08250098675489426,-0.3694056272506714,-24.363407135009766,-0.5525190830230713,-0.5525190830230713,nan,nan,0,0,0.9933071732521057,0.027698470279574394,0.053905997425317764,0.09832534939050674,0.5427687168121338,-0.018977634608745575,-0.32410281896591187,nan,nan,nan,0.0,348.8853454589844,0.0,348.8853454589844,0.0,0.39972981810569763,0.020310688763856888,0.0962003618478775
1782274859481636357,-0.9749282598495483,-0.22251944243907928,0.4000000059604645,0.0,0.0,0,1,0.07095953077077866,0.10128696262836456,0.1978139579296112,0.5270963907241821,-0.10258957743644714,-0.2682220935821533,0.4150855839252472,0.054408758878707886,0.532852292060852,8.698217391967773,0.6075427979230881,0.6075427979230881,nan,nan,0,0.18269594013690948,0.020818958058953285,-2.2348618507385254,5.678131103515625,0.1413479708135128,0.1413479708135128,nan,nan,0,-1.8752532005310059,-0.9311214685440063,-1.6992859840393066,-1.5781114101409912,-1.2476266026496887,-1.2476266026496887,nan,nan,0,0.017188660800457,0.5657869577407837,0.6290526390075684,-3.3180408477783203,0.49859433993697166,0.49859433993697166,nan,nan,0,-1.7317222356796265,-0.4100019335746765,0.0037987257819622755,-22.606754302978516,-1.0758611112833023,-1.0758611112833023,nan,nan,0,-0.49408209323883057,-0.20040981471538544,-0.41579025983810425,-0.8120988607406616,-0.24704104661941528,-0.24704104661941528,nan,nan,0,1.3620973825454712,-0.5841323733329773,1.1165417432785034,21.87455177307129,0.2810486853122711,0.2810486853122711,nan,nan,0,1.8646515607833862,0.27604103088378906,0.9419757127761841,25.858287811279297,0.8823257796466351,0.8823257796466351,nan,nan,0,-1.0024783611297607,-0.22975629568099976,-0.493219256401062,15.968688011169434,-0.19123917818069458,-0.19123917818069458,nan,nan,0,-0.2880329191684723,0.5053552389144897,-0.5164324045181274,-13.29201602935791,0.345983549952507,0.345983549952507,nan,nan,0,0.7765493392944336,-0.19556455314159393,-0.20288991928100586,10.89168930053711,0.17827467620372772,0.17827467620372772,nan,nan,0,-1.054684042930603,0.09011920541524887,-0.42844539880752563,-24.231739044189453,-0.5273420214653015,-0.5273420214653015,nan,nan,0,0,0.9933886528015137,0.03025815263390541,0.05384098365902901,0.09677021950483322,0.5270963907241821,-0.10258957743644714,-0.2682220935821533,nan,nan,nan,0.0,339.284423828125,0.0,339.284423828125,0.0,0.3951471149921417,0.045760538429021835,0.09456759691238403
1782274859491636357,-0.9909498691558838,-0.13423265516757965,0.4000000059604645,0.0,0.0,0,1,0.07575143873691559,0.09998055547475815,0.19590680301189423,0.49723485112190247,-0.1670994907617569,-0.14301304519176483,0.4359096884727478,0.0625278577208519,1.0382684469223022,9.72436809539795,0.6179548501968384,0.6179548501968384,nan,nan,0,0.33973535895347595,-0.0007090199505910277,-2.04203200340271,5.851337432861328,0.21986768022179604,0.21986768022179604,nan,nan,0,-1.8231663703918457,-0.9501016736030579,-1.8638607263565063,-1.48335862159729,-1.2215831875801086,-1.2215831875801086,nan,nan,0,0.0034890323877334595,0.571010410785675,0.4643014371395111,-3.4493322372436523,0.4917445257306099,0.4917445257306099,nan,nan,0,-1.6983473300933838,-0.4100016951560974,0.003564189886674285,-24.241317749023438,-1.059173658490181,-1.059173658490181,nan,nan,0,-0.496876060962677,-0.20874568819999695,-0.33728763461112976,-0.6883515119552612,-0.2484380304813385,-0.2484380304813385,nan,nan,0,1.3409658670425415,-0.5690439343452454,1.5880756378173828,21.51290512084961,0.2704829275608063,0.2704829275608063,nan,nan,0,1.673601746559143,0.28611552715301514,1.0065217018127441,24.946758270263672,0.7868008725345135,0.7868008725345135,nan,nan,0,-1.0938005447387695,-0.23704978823661804,-0.9943299889564514,13.606667518615723,-0.23690026998519897,-0.23690026998519897,nan,nan,0,-0.2605551481246948,0.4990033805370331,-0.6642206311225891,-11.045097351074219,0.35972243547439575,0.35972243547439575,nan,nan,0,0.7791216373443604,-0.19632433354854584,-0.17453265190124512,12.751463890075684,0.1795608252286911,0.1795608252286911,nan,nan,0,-1.0283933877944946,0.09837743639945984,-0.4955752491950989,-24.158308029174805,-0.5141966938972473,-0.5141966938972473,nan,nan,0,0,0.9934353828430176,0.032754722982645035,0.05339286848902702,0.09572151303291321,0.49723485112190247,-0.1670994907617569,-0.14301304519176483,nan,nan,nan,0.0,332.510009765625,0.0,332.510009765625,0.0,0.3890223205089569,0.07248333096504211,0.09313694387674332
1782274859501636357,-0.9989930987358093,-0.04486418515443802,0.4000000059604645,0.0,0.0,0,1,0.0806092619895935,0.0979602113366127,0.19524313509464264,0.503707766532898,-0.23028123378753662,-0.00833579245954752,0.43549901247024536,0.07555605471134186,1.5282020568847656,10.009641647338867,0.6177495121955872,0.6177495121955872,nan,nan,0,0.48681244254112244,-0.019621361047029495,-1.7334883213043213,8.08747673034668,0.2934062220156193,0.2934062220156193,nan,nan,0,-1.7168452739715576,-0.9710403680801392,-2.085136890411377,-1.4076228141784668,-1.1684226393699646,-1.1684226393699646,nan,nan,0,-0.025475576519966125,0.5735406875610352,0.1570710688829422,-4.439461708068848,0.4772622212767601,0.4772622212767601,nan,nan,0,-1.622148036956787,-0.410000741481781,0.0024645712692290545,-24.318172454833984,-1.0210740119218826,-1.0210740119218826,nan,nan,0,-0.4763306975364685,-0.2131756842136383,-0.12127175182104111,-0.3659228980541229,-0.23816534876823425,-0.23816534876823425,nan,nan,0,1.2552855014801025,-0.5503056645393372,1.9129915237426758,21.028589248657227,0.2276427447795868,0.2276427447795868,nan,nan,0,1.5161386728286743,0.2973858416080475,1.1491353511810303,23.891571044921875,0.7080693356692791,0.7080693356692791,nan,nan,0,-1.1110512018203735,-0.2485053688287735,-1.361202597618103,11.928193092346191,-0.24552559852600098,-0.24552559852600098,nan,nan,0,-0.24411866068840027,0.49196746945381165,-0.7004484534263611,-9.097634315490723,0.36794067919254303,0.36794067919254303,nan,nan,0,0.7729078531265259,-0.19692522287368774,-0.11507225036621094,13.834592819213867,0.17645393311977386,0.17645393311977386,nan,nan,0,-0.9768428802490234,0.10731896758079529,-0.3572840690612793,-23.75124168395996,-0.4884214401245117,-0.4884214401245117,nan,nan,0,0,0.9934302568435669,0.03528563678264618,0.05261041596531868,0.09530723839998245,0.503707766532898,-0.23028123378753662,-0.00833579245954752,nan,nan,nan,0.0,316.96234130859375,0.0,316.96234130859375,0.0,0.3837604522705078,0.09819679707288742,0.08542220294475555
1782274859511636357,-0.9989929795265198,0.04486646503210068,0.4000000059604645,0.0,0.0,0,1,0.08577152341604233,0.09527235478162766,0.19565449655056,0.5262513756752014,-0.2880308926105499,0.09442684799432755,0.40394535660743713,0.09336916357278824,1.979443073272705,9.133326530456543,0.601972684264183,0.601972684264183,nan,nan,0,0.5677381157875061,-0.03507591784000397,-1.3622400760650635,9.018388748168945,0.3338690586388111,0.3338690586388111,nan,nan,0,-1.5917553901672363,-0.9926643371582031,-2.0897037982940674,-1.0811843872070312,-1.105877697467804,-1.105877697467804,nan,nan,0,-0.05755917727947235,0.573238730430603,-0.09321872144937515,-4.268125057220459,0.461220420897007,0.461220420897007,nan,nan,0,-1.5647847652435303,-0.41000059247016907,0.0023047360591590405,-24.535228729248047,-0.9923923760652542,-0.9923923760652542,nan,nan,0,-0.46855443716049194,-0.21665874123573303,-0.08242837339639664,-0.3488611876964569,-0.23427721858024597,-0.23427721858024597,nan,nan,0,1.1616617441177368,-0.5296350717544556,2.057880163192749,19.036985397338867,0.18083086609840393,0.18083086609840393,nan,nan,0,1.3765491247177124,0.310199499130249,1.3042558431625366,21.005842208862305,0.6382745616137981,0.6382745616137981,nan,nan,0,-1.1191593408584595,-0.26244303584098816,-1.5440571308135986,9.907600402832031,-0.24957966804504395,-0.24957966804504395,nan,nan,0,-0.2560468018054962,0.48541539907455444,-0.6197146773338318,-8.301039695739746,0.36197660863399506,0.36197660863399506,nan,nan,0,0.7488611936569214,-0.19770003855228424,-0.07685184478759766,13.693639755249023,0.16443060338497162,0.16443060338497162,nan,nan,0,-0.9343174695968628,0.11707191914319992,-0.2577999234199524,-23.105754852294922,-0.4671587347984314,-0.4671587347984314,nan,nan,0,0,0.9933750629425049,0.037972573190927505,0.051529593765735626,0.09543902426958084,0.5262513756752014,-0.2880308926105499,0.09442684799432755,nan,nan,nan,0.0,303.71630859375,0.0,303.71630859375,0.0,0.3793985843658447,0.1224128007888794,0.07058056443929672
1782274859521636357,-0.9909496903419495,0.1342339813709259,0.4000000059604645,0.0,0.0,0,1,0.09137209504842758,0.09195812046527863,0.19649405777454376,0.5726731419563293,-0.3468388319015503,0.11106276512145996,0.4239819049835205,0.11469212174415588,2.2342617511749268,7.59145975112915,0.6119909584522247,0.6119909584522247,nan,nan,0,0.693774938583374,-0.046227145940065384,-0.8985797166824341,10.55850887298584,0.39688747003674507,0.39688747003674507,nan,nan,0,-1.5265026092529297,-1.011581540107727,-1.7165145874023438,-0.4072708487510681,-1.0732513070106506,-1.0732513070106506,nan,nan,0,-0.05084589123725891,0.5710127353668213,-0.2755030393600464,-4.1635422706604,0.4645770639181137,0.4645770639181137,nan,nan,0,-1.479733943939209,-0.4100008010864258,0.0024661258794367313,-23.92725372314453,-0.9498669654130936,-0.9498669654130936,nan,nan,0,-0.4393131732940674,-0.22041469812393188,-0.1334114372730255,-0.47396257519721985,-0.2196565866470337,-0.2196565866470337,nan,nan,0,1.1267634630203247,-0.5088000893592834,2.008366823196411,17.243654251098633,0.16338172554969788,0.16338172554969788,nan,nan,0,1.1932799816131592,0.32466939091682434,1.4681663513183594,17.118818283081055,0.5466399900615215,0.5466399900615215,nan,nan,0,-1.1833869218826294,-0.2766980826854706,-1.480726957321167,9.267459869384766,-0.2816934585571289,-0.2816934585571289,nan,nan,0,-0.2415468692779541,0.48030537366867065,-0.4595322012901306,-8.682326316833496,0.3692265748977661,0.3692265748977661,nan,nan,0,0.7066977024078369,-0.1988663524389267,-0.06274360418319702,13.836773872375488,0.14334885776042938,0.14334885776042938,nan,nan,0,-0.9102408289909363,0.1276792287826538,-0.15637093782424927,-22.65774154663086,-0.45512041449546814,-0.45512041449546814,nan,nan,0,0,0.9932944774627686,0.04089813306927681,0.050168491899967194,0.09579413384199142,0.5726731419563293,-0.3468388319015503,0.11106276512145996,nan,nan,nan,0.0,304.2201232910156,0.0,304.2201232910156,0.0,0.3762878179550171,0.14570793509483337,0.04892437532544136
1782274859531636357,-0.9749277234077454,0.22252167761325836,0.4000000059604645,0.0,0.0,0,1,0.09733615070581436,0.08801966905593872,0.1973584145307541,0.6030405163764954,-0.4070615768432617,0.11147332191467285,0.43877217173576355,0.13791625201702118,2.3679258823394775,6.758350372314453,0.6193860918283463,0.6193860918283463,nan,nan,0,0.7728255987167358,-0.052194494754076004,-0.3568214774131775,12.297358512878418,0.436412800103426,0.436412800103426,nan,nan,0,-1.4143314361572266,-1.0273853540420532,-1.4311490058898926,-0.10776221752166748,-1.017165720462799,-1.017165720462799,nan,nan,0,-0.03727138042449951,0.5680997371673584,-0.30934426188468933,-4.1862664222717285,0.4713643193244934,0.4713643193244934,nan,nan,0,-1.409209132194519,-0.41000068187713623,0.002167855855077505,-23.3430118560791,-0.9146045595407486,-0.9146045595407486,nan,nan,0,-0.43045294284820557,-0.2234610617160797,-0.10474365949630737,-0.4284449517726898,-0.21522647142410278,-0.21522647142410278,nan,nan,0,1.0245479345321655,-0.4875776767730713,2.0706377029418945,16.112625122070312,0.11227396130561829,0.11227396130561829,nan,nan,0,1.0140526294708252,0.34058472514152527,1.6049294471740723,12.270167350769043,0.45702631399035454,0.45702631399035454,nan,nan,0,-1.28647780418396,-0.2911302149295807,-1.5296623706817627,8.267441749572754,-0.3332388997077942,-0.3332388997077942,nan,nan,0,-0.26099905371665955,0.47644588351249695,-0.3420909345149994,-7.851175785064697,0.3595004826784134,0.3595004826784134,nan,nan,0,0.7301418781280518,-0.20033138990402222,-0.14715969562530518,13.899924278259277,0.1550709456205368,0.1550709456205368,nan,nan,0,-0.8622574806213379,0.13904225826263428,-0.07252860069274902,-22.616403579711914,-0.43112874031066895,-0.43112874031066895,nan,nan,0,0,0.9932053685188293,0.04403604567050934,0.04851795732975006,0.09617729485034943,0.6030405163764954,-0.4070615768432617,0.11147332191467285,nan,nan,nan,0.0,310.4407653808594,0.0,310.4407653808594,0.0,0.37439194321632385,0.17048224806785583,0.028392750769853592
1782274859541636357,-0.9510560035705566,0.30901864171028137,0.4000000059604645,0.0,0.0,0,1,0.10360387712717056,0.08365055173635483,0.19778238236904144,0.6383968591690063,-0.44403597712516785,0.05509307608008385,0.4434370994567871,0.16179901361465454,2.3913488388061523,5.961447715759277,0.621718555688858,0.621718555688858,nan,nan,0,0.8207184672355652,-0.05275151878595352,0.18653032183647156,13.275986671447754,0.46035923436284065,0.46035923436284065,nan,nan,0,-1.297135353088379,-1.0389423370361328,-0.9928607940673828,0.2755746841430664,-0.9585676789283752,-0.9585676789283752,nan,nan,0,-0.050022974610328674,0.5643491744995117,-0.4052790105342865,-4.325379371643066,0.4649885222315788,0.4649885222315788,nan,nan,0,-1.3562408685684204,-0.41000133752822876,0.0027710851281881332,-22.00882339477539,-0.8881204277276993,-0.8881204277276993,nan,nan,0,-0.4339295029640198,-0.2257528156042099,-0.2545192241668701,-0.8830416202545166,-0.2169647514820099,-0.2169647514820099,nan,nan,0,0.8413586616516113,-0.466935396194458,1.998860239982605,14.36577320098877,0.020679324865341187,0.020679324865341187,nan,nan,0,0.8500390648841858,0.3576914072036743,1.7248401641845703,8.070525169372559,0.37501953169703484,0.37501953169703484,nan,nan,0,-1.4425855875015259,-0.3045230507850647,-1.4177944660186768,7.973758220672607,-0.41129279136657715,-0.41129279136657715,nan,nan,0,-0.28866374492645264,0.4739794135093689,-0.2184588462114334,-7.690191268920898,0.34566813707351685,0.34566813707351685,nan,nan,0,0.6610641479492188,-0.2019687294960022,-0.20401537418365479,12.638360023498535,0.1205320805311203,0.1205320805311203,nan,nan,0,-0.8038706183433533,0.15108002722263336,0.11746162176132202,-22.53898048400879,-0.40193530917167664,-0.40193530917167664,nan,nan,0,0,0.9931240677833557,0.047358062118291855,0.04666062816977501,0.09635696560144424,0.6383968591690063,-0.44403597712516785,0.05509307608008385,nan,nan,nan,0.0,299.3127746582031,0.0,299.3127746582031,0.0,0.37411248683929443,0.19359323382377625,0.0024292145390063524
1782274859551636357,-0.9195270538330078,0.3930266499519348,0.4000000059604645,0.0,0.0,0,1,0.10998477786779404,0.07907579839229584,0.19733597338199615,0.6449720859527588,-0.46539175510406494,-0.03973031044006348,0.4498288035392761,0.18519362807273865,2.308497667312622,5.029417037963867,0.6249144077301025,0.6249144077301025,nan,nan,0,0.8562167286872864,-0.04844512417912483,0.6439387202262878,13.303169250488281,0.47810836508870125,0.47810836508870125,nan,nan,0,-1.2565529346466064,-1.0452367067337036,-0.4856439530849457,0.6138178706169128,-0.938276469707489,-0.938276469707489,nan,nan,0,-0.038184091448783875,0.5592004656791687,-0.5415734648704529,-4.0340471267700195,0.4709079638123512,0.4709079638123512,nan,nan,0,-1.2865941524505615,-0.4100010395050049,0.002154411282390356,-19.76296615600586,-0.8532970696687698,-0.8532970696687698,nan,nan,0,-0.459369957447052,-0.22652307152748108,-0.1977998912334442,-0.7499414682388306,-0.229684978723526,-0.229684978723526,nan,nan,0,0.6898293495178223,-0.4472457468509674,1.935315728187561,12.622156143188477,-0.055085331201553345,-0.055085331201553345,nan,nan,0,0.6764086484909058,0.3754607141017914,1.7583949565887451,4.3845319747924805,0.2882043235003948,0.2882043235003948,nan,nan,0,-1.6591956615447998,-0.3162746727466583,-1.2499626874923706,7.798123359680176,-0.5195978283882141,-0.5195978283882141,nan,nan,0,-0.27174368500709534,0.47257664799690247,-0.19258496165275574,-9.389711380004883,0.3541281670331955,0.3541281670331955,nan,nan,0,0.634514331817627,-0.20360948145389557,0.07864117622375488,13.559856414794922,0.1072571724653244,0.1072571724653244,nan,nan,0,-0.7780664563179016,0.1633952558040619,0.20701777935028076,-22.22886848449707,-0.3890332281589508,-0.3890332281589508,nan,nan,0,0,0.9930693507194519,0.05076669529080391,0.04468610882759094,0.09612011909484863,0.6449720859527588,-0.46539175510406494,-0.03973031044006348,nan,nan,nan,0.0,273.26531982421875,0.0,273.26531982421875,0.0,0.37531203031539917,0.21754240989685059,-0.020182151347398758
1782274859561636357,-0.8805951476097107,0.4738694131374359,0.4000000059604645,0.0,0.0,0,1,0.11622277647256851,0.07448782026767731,0.19605092704296112,0.6204162240028381,-0.47037026286125183,-0.1154521033167839,0.43794316053390503,0.20819756388664246,2.2740092277526855,4.716256618499756,0.618971586227417,0.618971586227417,nan,nan,0,0.9059470295906067,-0.03920014575123787,1.1234474182128906,13.982120513916016,0.5029735155403614,0.5029735155403614,nan,nan,0,-1.1623469591140747,-1.0482431650161743,-0.20956957340240479,0.8237724304199219,-0.8911734819412231,-0.8911734819412231,nan,nan,0,-0.062454089522361755,0.5543461441993713,-0.4789215624332428,-3.8028781414031982,0.4587729647755623,0.4587729647755623,nan,nan,0,-1.2269282341003418,-0.4100000858306885,0.0007253838120959699,-19.51643180847168,-0.82346411049366,-0.82346411049366,nan,nan,0,-0.46784090995788574,-0.22595882415771484,6.734579801559448e-05,-0.1745913326740265,-0.23392045497894287,-0.23392045497894287,nan,nan,0,0.5479023456573486,-0.4276992976665497,1.9002665281295776,11.62652587890625,-0.12604883313179016,-0.12604883313179016,nan,nan,0,0.5105941295623779,0.3933698832988739,1.751973032951355,0.0354999303817749,0.2052970640361309,0.2052970640361309,nan,nan,0,-1.812386155128479,-0.3272477388381958,-1.202688455581665,6.688111305236816,-0.5961930751800537,-0.5961930751800537,nan,nan,0,-0.2587904632091522,0.47148334980010986,-0.1126936823129654,-8.953657150268555,0.36060477793216705,0.36060477793216705,nan,nan,0,0.5993283987045288,-0.20498253405094147,-0.17515289783477783,12.854143142700195,0.08966420590877533,0.08966420590877533,nan,nan,0,-0.7258064150810242,0.17639513313770294,0.051921725273132324,-22.242080688476562,-0.3629032075405121,-0.3629032075405121,nan,nan,0,0,0.9930421113967896,0.054121773689985275,0.04267412796616554,0.09548339247703552,0.6204162240028381,-0.47037026286125183,-0.1154521033167839,nan,nan,nan,0.0,298.1162109375,0.0,298.1162109375,0.0,0.3770611882209778,0.24349820613861084,-0.041132912039756775
