timestamp_ns,phase_sin,phase_cos,cmd_linear_x,cmd_linear_y,cmd_angular_z,left_contact,right_contact,base_euler_x,base_euler_y,base_euler_z,base_ang_vel_x,base_ang_vel_y,base_ang_vel_z,action_left_hip_pitch_joint,pos_left_hip_pitch_joint,vel_left_hip_pitch_joint,effort_left_hip_pitch_joint,pos_des_raw_left_hip_pitch_joint,pos_des_lpf_left_hip_pitch_joint,tau_des_raw_left_hip_pitch_joint,tau_des_lpf_left_hip_pitch_joint,is_parallel_left_hip_pitch_joint,action_left_hip_roll_joint,pos_left_hip_roll_joint,vel_left_hip_roll_joint,effort_left_hip_roll_joint,pos_des_raw_left_hip_roll_joint,pos_des_lpf_left_hip_roll_joint,tau_des_raw_left_hip_roll_joint,tau_des_lpf_left_hip_roll_joint,is_parallel_left_hip_roll_joint,action_left_hip_yaw_joint,pos_left_hip_yaw_joint,vel_left_hip_yaw_joint,effort_left_hip_yaw_joint,pos_des_raw_left_hip_yaw_joint,pos_des_lpf_left_hip_yaw_joint,tau_des_raw_left_hip_yaw_joint,tau_des_lpf_left_hip_yaw_joint,is_parallel_left_hip_yaw_joint,action_left_knee_pitch_joint,pos_left_knee_pitch_joint,vel_left_knee_pitch_joint,effort_left_knee_pitch_joint,pos_des_raw_left_knee_pitch_joint,pos_des_lpf_left_knee_pitch_joint,tau_des_raw_left_knee_pitch_joint,tau_des_lpf_left_knee_pitch_joint,is_parallel_left_knee_pitch_joint,action_left_ankle_pitch_joint,pos_left_ankle_pitch_joint,vel_left_ankle_pitch_joint,effort_left_ankle_pitch_joint,pos_des_raw_left_ankle_pitch_joint,pos_des_lpf_left_ankle_pitch_joint,tau_des_raw_left_ankle_pitch_joint,tau_des_lpf_left_ankle_pitch_joint,is_parallel_left_ankle_pitch_joint,action_left_ankle_roll_joint,pos_left_ankle_roll_joint,vel_left_ankle_roll_joint,effort_left_ankle_roll_joint,pos_des_raw_left_ankle_roll_joint,pos_des_lpf_left_ankle_roll_joint,tau_des_raw_left_ankle_roll_joint,tau_des_lpf_left_ankle_roll_joint,is_parallel_left_ankle_roll_joint,action_right_hip_pitch_joint,pos_right_hip_pitch_joint,vel_right_hip_pitch_joint,effort_right_hip_pitch_joint,pos_des_raw_right_hip_pitch_joint,pos_des_lpf_right_hip_pitch_joint,tau_des_raw_right_hip_pitch_joint,tau_des_lpf_right_hip_pitch_joint,is_parallel_right_hip_pitch_joint,action_right_hip_roll_joint,pos_right_hip_roll_joint,vel_right_hip_roll_joint,effort_right_hip_roll_joint,pos_des_raw_right_hip_roll_joint,pos_des_lpf_right_hip_roll_joint,tau_des_raw_right_hip_roll_joint,tau_des_lpf_right_hip_roll_joint,is_parallel_right_hip_roll_joint,action_right_hip_yaw_joint,pos_right_hip_yaw_joint,vel_right_hip_yaw_joint,effort_right_hip_yaw_joint,pos_des_raw_right_hip_yaw_joint,pos_des_lpf_right_hip_yaw_joint,tau_des_raw_right_hip_yaw_joint,tau_des_lpf_right_hip_yaw_joint,is_parallel_right_hip_yaw_joint,action_right_knee_pitch_joint,pos_right_knee_pitch_joint,vel_right_knee_pitch_joint,effort_right_knee_pitch_joint,pos_des_raw_right_knee_pitch_joint,pos_des_lpf_right_knee_pitch_joint,tau_des_raw_right_knee_pitch_joint,tau_des_lpf_right_knee_pitch_joint,is_parallel_right_knee_pitch_joint,action_right_ankle_pitch_joint,pos_right_ankle_pitch_joint,vel_right_ankle_pitch_joint,effort_right_ankle_pitch_joint,pos_des_raw_right_ankle_pitch_joint,pos_des_lpf_right_ankle_pitch_joint,tau_des_raw_right_ankle_pitch_joint,tau_des_lpf_right_ankle_pitch_joint,is_parallel_right_ankle_pitch_joint,action_right_ankle_roll_joint,pos_right_ankle_roll_joint,vel_right_ankle_roll_joint,effort_right_ankle_roll_joint,pos_des_raw_right_ankle_roll_joint,pos_des_lpf_right_ankle_roll_joint,tau_des_raw_right_ankle_roll_joint,tau_des_lpf_right_ankle_roll_joint,is_parallel_right_ankle_roll_joint,clip_count,imu_quat_w,imu_quat_x,imu_quat_y,imu_quat_z,imu_gyro_x,imu_gyro_y,imu_gyro_z,imu_accel_x,imu_accel_y,imu_accel_z,left_foot_contact_force_z,right_foot_contact_force_z,left_foot_contact_force_mag,right_foot_contact_force_mag,feet_contact_force_penalty,base_lin_vel_x,base_lin_vel_y,base_lin_vel_z
1782207312262636322,0.2660350799560547,-0.9639633297920227,0.4000000059604645,0.0,0.0,1,1,-0.008418560028076172,-0.11920499801635742,-0.13153600692749023,1.0673227310180664,-0.6154828071594238,-0.25872814655303955,1.0111578702926636,0.3482106924057007,2.000187397003174,14.473482131958008,0.9055789411067963,0.9055789411067963,nan,nan,0,-0.9856796860694885,0.2000003457069397,-0.005320357158780098,-26.6241455078125,-0.4428398422896862,-0.4428398422896862,nan,nan,0,-0.3358164429664612,0.03347311168909073,-3.420053243637085,-14.356396675109863,-0.4779082238674164,-0.4779082238674164,nan,nan,0,0.8169518709182739,0.8996920585632324,3.000088691711426,-7.221250534057617,0.8984759449958801,0.8984759449958801,nan,nan,0,-0.6713830232620239,-0.41008713841438293,0.1558406949043274,-14.300468444824219,-0.545691505074501,-0.545691505074501,nan,nan,0,-0.022796861827373505,-0.1992730051279068,-0.573033332824707,-0.6887229681015015,-0.011398430913686752,-0.011398430913686752,nan,nan,0,-0.11299695074558258,-0.41069233417510986,-0.0834667757153511,8.359013557434082,-0.45649848133325577,-0.45649848133325577,nan,nan,0,0.8242944478988647,0.23570218682289124,3.71043062210083,69.24566650390625,0.3621472232043743,0.3621472232043743,nan,nan,0,-0.8371703624725342,0.17528527975082397,-0.7086284756660461,22.476659774780273,-0.1085851788520813,-0.1085851788520813,nan,nan,0,0.20155635476112366,0.7770943641662598,0.2713850140571594,-33.52975845336914,0.590778186917305,0.590778186917305,nan,nan,0,-0.15637794137001038,-0.3971670866012573,-3.7079360485076904,6.20396614074707,-0.28818896412849426,-0.28818896412849426,nan,nan,0,-0.9771409034729004,0.1131100133061409,-1.482729434967041,-29.122642517089844,-0.4885704517364502,-0.4885704517364502,nan,nan,0,0,0.9960408210754395,-0.008107379078865051,-0.05916185677051544,-0.06585352122783661,1.0673227310180664,-0.6154828071594238,-0.25872814655303955,nan,nan,nan,41.09092330932617,157.44720458984375,41.09092330932617,157.44720458984375,0.0,0.1032169908285141,0.2778131365776062,-0.19758492708206177
1782207312272636322,0.17855599522590637,-0.9839297533035278,0.4000000059604645,0.0,0.0,1,1,0.002437241142615676,-0.1252756118774414,-0.1325383186340332,1.098310112953186,-0.6087135672569275,0.07586441934108734,0.8462881445884705,0.36544105410575867,1.7420008182525635,16.69476890563965,0.8231440782546997,0.8231440782546997,nan,nan,0,-0.9834516048431396,0.1991645097732544,-0.05537853017449379,-28.666542053222656,-0.44172580167651176,-0.44172580167651176,nan,nan,0,-0.3625488877296448,0.004044993780553341,-2.967707872390747,-15.391843795776367,-0.4912744462490082,-0.4912744462490082,nan,nan,0,0.5514503121376038,0.92244553565979,2.230513095855713,-10.6547269821167,0.765725165605545,0.765725165605545,nan,nan,0,-0.492636501789093,-0.4101514220237732,-0.01330813579261303,-12.131035804748535,-0.4563182443380356,-0.4563182443380356,nan,nan,0,0.0653219148516655,-0.19208212196826935,0.5746504068374634,1.434847116470337,0.03266095742583275,0.03266095742583275,nan,nan,0,0.0036613792181015015,-0.4097062945365906,0.3876905143260956,3.882070541381836,-0.3981693163514137,-0.3981693163514137,nan,nan,0,-0.005776621401309967,0.26660817861557007,3.2874486446380615,56.897613525390625,-0.05288831144571304,-0.05288831144571304,nan,nan,0,-1.1089118719100952,0.17980007827281952,-0.7296079397201538,10.38646125793457,-0.24445593357086182,-0.24445593357086182,nan,nan,0,0.17554736137390137,0.7780930995941162,0.6683814525604248,-26.85064697265625,0.5777736902236938,0.5777736902236938,nan,nan,0,-0.20004266500473022,-0.3962545692920685,-4.363164901733398,5.041936874389648,-0.3100213259458542,-0.3100213259458542,nan,nan,0,-0.7506793737411499,0.1576634645462036,0.4296121597290039,-32.58284378051758,-0.37533968687057495,-0.37533968687057495,nan,nan,0,0,0.995852530002594,-0.002931634895503521,-0.06253988295793533,-0.0660146027803421,1.098310112953186,-0.6087135672569275,0.07586441934108734,nan,nan,nan,49.82882308959961,335.42462158203125,49.82882308959961,335.42462158203125,0.0,0.10538123548030853,0.29739052057266235,-0.21919378638267517
1782207312282636322,0.0896383747458458,-0.9959743618965149,0.4000000059604645,0.0,0.0,1,1,0.012560880742967129,-0.13100767135620117,-0.13079500198364258,0.9778355360031128,-0.5509258508682251,0.3271569609642029,0.45019495487213135,0.38202548027038574,1.7354117631912231,15.044624328613281,0.6250974833965302,0.6250974833965302,nan,nan,0,-0.7947015762329102,0.19620747864246368,-0.3960080146789551,-26.95595359802246,-0.347350787371397,-0.347350787371397,nan,nan,0,-0.32734373211860657,-0.018608422949910164,-1.9676616191864014,-14.531394004821777,-0.4736718684434891,-0.4736718684434891,nan,nan,0,0.040370479226112366,0.9394221901893616,1.7113685607910156,-12.367841720581055,0.5101852491497993,0.5101852491497993,nan,nan,0,-0.4028320014476776,-0.4102131128311157,-0.04842853173613548,-9.37664794921875,-0.4114159941673279,-0.4114159941673279,nan,nan,0,0.13159632682800293,-0.17191338539123535,1.4965332746505737,1.9665619134902954,0.06579816341400146,0.06579816341400146,nan,nan,0,-0.19862204790115356,-0.4061211943626404,0.5127213597297668,-0.5259707570075989,-0.49931102991104126,-0.49931102991104126,nan,nan,0,-0.8854382634162903,0.29514598846435547,2.640148878097534,34.946895599365234,-0.4927191324532032,-0.4927191324532032,nan,nan,0,-1.053354024887085,0.18175657093524933,0.12624236941337585,4.1383514404296875,-0.2166770100593567,-0.2166770100593567,nan,nan,0,-0.005269590765237808,0.780004620552063,0.31916671991348267,-25.302642822265625,0.48736521415412426,0.48736521415412426,nan,nan,0,-0.22113320231437683,-0.3962545096874237,-0.9502943754196167,5.632146835327148,-0.3205665946006775,-0.3205665946006775,nan,nan,0,-0.45883607864379883,0.19022394716739655,3.3197124004364014,-29.73794937133789,-0.22941803932189941,-0.22941803932189941,nan,nan,0,0,0.9957295656204224,0.001975945197045803,-0.06572525203227997,-0.06479931622743607,0.9778355360031128,-0.5509258508682251,0.3271569609642029,nan,nan,nan,59.07205581665039,261.7337341308594,59.07205581665039,261.7337341308594,0.0,0.10801684856414795,0.3104528784751892,-0.23562996089458466
1782207312292636322,-9.775241096576792e-07,-1.0,0.4000000059604645,0.0,0.0,1,1,0.020305538550019264,-0.1363530158996582,-0.12664318084716797,0.744915246963501,-0.4860187768936157,0.48894473910331726,0.23464909195899963,0.40025562047958374,1.9402737617492676,11.716660499572754,0.5173245519399643,0.5173245519399643,nan,nan,0,-0.7811834812164307,0.18797935545444489,-0.9692198634147644,-23.621042251586914,-0.3405917398631573,-0.3405917398631573,nan,nan,0,-0.3140123188495636,-0.03248383104801178,-0.9059147238731384,-13.500640869140625,-0.4670061618089676,-0.4670061618089676,nan,nan,0,-0.2505326271057129,0.9536610245704651,1.489581823348999,-16.054670333862305,0.3647336959838867,0.3647336959838867,nan,nan,0,-0.4002154469490051,-0.4102901220321655,0.009725604206323624,-7.948764324188232,-0.41010771691799164,-0.41010771691799164,nan,nan,0,0.2136748731136322,-0.1456119865179062,2.1529271602630615,1.6927686929702759,0.1068374365568161,0.1068374365568161,nan,nan,0,-0.2512483596801758,-0.39813271164894104,0.775716245174408,-2.655486822128296,-0.5256241858005524,-0.5256241858005524,nan,nan,0,-1.0590847730636597,0.3200964033603668,2.5898330211639404,12.896842956542969,-0.5795423872768879,-0.5795423872768879,nan,nan,0,-0.8628679513931274,0.178172305226326,-1.2934184074401855,-0.9015159010887146,-0.12143397331237793,-0.12143397331237793,nan,nan,0,-0.15524011850357056,0.7834665179252625,0.653724193572998,-23.642047882080078,0.4123799502849579,0.4123799502849579,nan,nan,0,-0.34430795907974243,-0.40944230556488037,-3.773437976837158,5.691000938415527,-0.3821539729833603,-0.3821539729833603,nan,nan,0,-0.26741349697113037,0.21758247911930084,-0.7321186065673828,-27.92112922668457,-0.13370674848556519,-0.13370674848556519,nan,nan,0,0,0.995669960975647,0.005798108410090208,-0.06862463057041168,-0.06243886053562164,0.744915246963501,-0.4860187768936157,0.48894473910331726,nan,nan,nan,85.97584533691406,313.074462890625,85.97584533691406,313.074462890625,0.0,0.1135026216506958,0.3232120871543884,-0.24306339025497437
1782207312302636322,-0.08964031934738159,-0.9959741830825806,0.4000000059604645,0.0,0.0,1,1,0.02473854087293148,-0.14088964462280273,-0.1211390495300293,0.36550259590148926,-0.3853316605091095,0.6188934445381165,-0.04558778181672096,0.4192831814289093,1.944437026977539,8.274457931518555,0.377206115052104,0.377206115052104,nan,nan,0,-1.103381872177124,0.17383156716823578,-1.5911775827407837,-19.742931365966797,-0.501690935343504,-0.501690935343504,nan,nan,0,-0.3153335750102997,-0.03806666284799576,-0.205916628241539,-13.531691551208496,-0.46766678988933563,-0.46766678988933563,nan,nan,0,-0.38027423620224,0.9648204445838928,1.2311815023422241,-19.213369369506836,0.29986289143562317,0.29986289143562317,nan,nan,0,-0.3009505569934845,-0.4103533625602722,0.05083910748362541,-5.371546268463135,-0.3604752719402313,-0.3604752719402313,nan,nan,0,0.09704688936471939,-0.11117738485336304,3.147935628890991,1.4392002820968628,0.048523444682359695,0.048523444682359695,nan,nan,0,-0.061191678047180176,-0.38559049367904663,1.2119849920272827,-6.0831990242004395,-0.43059584498405457,-0.43059584498405457,nan,nan,0,-0.774819552898407,0.34006550908088684,1.7086290121078491,-5.3617730140686035,-0.43740977719426155,-0.43740977719426155,nan,nan,0,-0.7600855827331543,0.16984233260154724,-0.4526582956314087,-7.76454496383667,-0.07004278898239136,-0.07004278898239136,nan,nan,0,-0.0843738242983818,0.78460693359375,0.05739741772413254,-20.037878036499023,0.44781309738755226,0.44781309738755226,nan,nan,0,-0.6371597647666931,-0.41061702370643616,1.2004271745681763,3.0614452362060547,-0.5285798758268356,-0.5285798758268356,nan,nan,0,-0.14385871589183807,0.2447253316640854,4.579893589019775,-28.60158348083496,-0.07192935794591904,-0.07192935794591904,nan,nan,0,0,0.9956670999526978,0.008055307902395725,-0.07099899649620056,-0.059508658945560455,0.36550259590148926,-0.3853316605091095,0.6188934445381165,nan,nan,nan,104.07612609863281,291.6025390625,104.07612609863281,291.6025390625,0.0,0.1181953176856041,0.3370935022830963,-0.22763197124004364
1782207312312636322,-0.17855793237686157,-0.9839293956756592,0.4000000059604645,0.0,0.0,1,1,0.02523413859307766,-0.14454221725463867,-0.11424589157104492,-0.010391906835138798,-0.26797011494636536,0.7357072830200195,-0.08266960084438324,0.4346592128276825,1.425140619277954,6.7575201988220215,0.35866520553827286,0.35866520553827286,nan,nan,0,-1.0425057411193848,0.1561165302991867,-1.744423270225525,-18.422691345214844,-0.4712528698146343,-0.4712528698146343,nan,nan,0,-0.01256602257490158,-0.03896087780594826,-0.001568034291267395,-14.895942687988281,-0.3162830136716366,-0.3162830136716366,nan,nan,0,-0.542350709438324,0.9706268906593323,0.6620473861694336,-27.741506576538086,0.21882465481758118,0.21882465481758118,nan,nan,0,-0.2817976474761963,-0.4104239344596863,0.20528236031532288,-2.337916374206543,-0.3508988171815872,-0.3508988171815872,nan,nan,0,-0.20898675918579102,-0.06406614184379578,4.91746187210083,0.3972608745098114,-0.10449337959289551,-0.10449337959289551,nan,nan,0,0.11256657540798187,-0.3676740229129791,1.645124912261963,-6.26117467880249,-0.34371671825647354,-0.34371671825647354,nan,nan,0,-0.4394972622394562,0.35407739877700806,1.1522414684295654,-20.718130111694336,-0.26974863186478615,-0.26974863186478615,nan,nan,0,-0.659756064414978,0.15412317216396332,-1.2566218376159668,-8.786437034606934,-0.019878029823303223,-0.019878029823303223,nan,nan,0,-0.014829747378826141,0.7849199771881104,0.02083766646683216,-20.934120178222656,0.4825851358473301,0.4825851358473301,nan,nan,0,-0.9829683899879456,-0.4104836881160736,0.9692416191101074,2.3858165740966797,-0.7014841884374619,-0.7014841884374619,nan,nan,0,-0.0294328685849905,0.26310649514198303,3.4335594177246094,-24.520212173461914,-0.01471643429249525,-0.01471643429249525,nan,nan,0,0,0.9957355856895447,0.008441092446446419,-0.07280324399471283,-0.05602880194783211,-0.010391906835138798,-0.26797011494636536,0.7357072830200195,nan,nan,nan,134.93553161621094,276.1661682128906,134.93553161621094,276.1661682128906,0.0,0.12994979321956635,0.35912489891052246,-0.20408634841442108
1782207312322636322,-0.2660379111766815,-0.9639625549316406,0.4000000059604645,0.0,0.0,1,1,0.022520873695611954,-0.1462264060974121,-0.10755634307861328,-0.30685514211654663,-0.009274194948375225,0.6546009182929993,0.11110016703605652,0.43977469205856323,0.2049713283777237,4.312973976135254,0.45555008947849274,0.45555008947849274,nan,nan,0,-0.8752069473266602,0.14151018857955933,-1.0509387254714966,-15.957071304321289,-0.387603472918272,-0.387603472918272,nan,nan,0,0.38977763056755066,-0.032412998378276825,1.0998706817626953,-20.42413330078125,-0.11511118710041046,-0.11511118710041046,nan,nan,0,-0.5571147799491882,0.9649116396903992,-0.46393054723739624,-40.435977935791016,0.21144261956214905,0.21144261956214905,nan,nan,0,-0.35471951961517334,-0.41062524914741516,0.542961835861206,-0.965552031993866,-0.38735975325107574,-0.38735975325107574,nan,nan,0,-0.524541974067688,0.0003512554685585201,6.857234477996826,-1.8573468923568726,-0.262270987033844,-0.262270987033844,nan,nan,0,0.10766325891017914,-0.35113152861595154,1.3175135850906372,-8.8906888961792,-0.3461683765053749,-0.3461683765053749,nan,nan,0,-0.5035639405250549,0.3620559573173523,0.6117189526557922,-36.998069763183594,-0.3017819710075855,-0.3017819710075855,nan,nan,0,-0.45941320061683655,0.13764260709285736,-1.2974016666412354,-6.941363334655762,0.08029340207576752,0.08029340207576752,nan,nan,0,-0.01268383115530014,0.7849481701850891,-0.07581763714551926,-29.01521110534668,0.4836580939590931,0.4836580939590931,nan,nan,0,-1.071278691291809,-0.4102765917778015,0.632702648639679,2.2166075706481934,-0.7456393390893936,-0.7456393390893936,nan,nan,0,0.007016846910119057,0.271099716424942,2.0667154788970947,-18.915185928344727,0.0035084234550595284,0.0035084234550595284,nan,nan,0,0,0.9958677291870117,0.007287629880011082,-0.07354145497083664,-0.05278395861387253,-0.30685514211654663,-0.009274194948375225,0.6546009182929993,nan,nan,nan,209.4286346435547,249.1090087890625,209.4286346435547,249.1090087890625,0.0,0.15167485177516937,0.38842523097991943,-0.16359786689281464
1782207312332636322,-0.35137587785720825,-0.9362344741821289,0.4000000059604645,0.0,0.0,1,1,0.016782015562057495,-0.1445779800415039,-0.10158634185791016,-0.6167499423027039,0.3570314943790436,0.5817207098007202,0.03312681242823601,0.43507957458496094,-0.6123126149177551,4.810580253601074,0.4165634121745825,0.4165634121745825,nan,nan,0,-0.7036484479904175,0.13479480147361755,-0.1417216807603836,-18.042604446411133,-0.3018242232501507,-0.3018242232501507,nan,nan,0,0.5304681062698364,-0.01967267133295536,1.0492024421691895,-21.815902709960938,-0.04476594924926758,-0.04476594924926758,nan,nan,0,-0.4439806342124939,0.9516096115112305,-1.3163546323776245,-46.21165084838867,0.2680096924304962,0.2680096924304962,nan,nan,0,-0.28460007905960083,-0.410748153924942,0.7742582559585571,-0.9873846173286438,-0.3523000329732895,-0.3523000329732895,nan,nan,0,-0.8665804862976074,0.07090584933757782,8.61361026763916,-3.629319667816162,-0.4332902431488037,-0.4332902431488037,nan,nan,0,-0.01204286515712738,-0.3377325236797333,1.0440483093261719,-9.26667308807373,-0.40602143853902817,-0.40602143853902817,nan,nan,0,-0.5211923718452454,0.3619588315486908,-0.3167133629322052,-36.15622329711914,-0.31059618666768074,-0.31059618666768074,nan,nan,0,-0.36080461740493774,0.12488718330860138,-0.7752048969268799,-5.171489238739014,0.12959769368171692,0.12959769368171692,nan,nan,0,-0.0025013312697410583,0.7814949750900269,-0.5845475792884827,-31.335079193115234,0.48874934390187263,0.48874934390187263,nan,nan,0,-1.1021902561187744,-0.4102932810783386,0.7625827193260193,-0.00417482852935791,-0.7610951215028763,-0.7610951215028763,nan,nan,0,-0.027419624850153923,0.27541396021842957,1.9222822189331055,-15.602675437927246,-0.013709812425076962,-0.013709812425076962,nan,nan,0,0,0.9960976243019104,0.004691319074481726,-0.07255525887012482,-0.05003167688846588,-0.6167499423027039,0.3570314943790436,0.5817207098007202,nan,nan,nan,256.34735107421875,229.23699951171875,256.34735107421875,229.23699951171875,0.0,0.17494794726371765,0.4132900536060333,-0.11741072684526443
1782207312342636322,-0.43388479948043823,-0.9009683728218079,0.4000000059604645,0.0,0.0,1,1,0.008985345251858234,-0.1400284767150879,-0.09608697891235352,-0.7995771169662476,0.5594165921211243,0.4948296546936035,-0.4151291847229004,0.42693305015563965,-0.7190514206886292,1.2380422353744507,0.19243541359901428,0.19243541359901428,nan,nan,0,-0.5190108418464661,0.13925901055335999,0.43832942843437195,-27.273330688476562,-0.20950542017817497,-0.20950542017817497,nan,nan,0,0.5214030146598816,-0.017321929335594177,0.3297941982746124,-18.00177001953125,-0.049298495054244995,-0.049298495054244995,nan,nan,0,-0.29570478200912476,0.9342119097709656,-2.078967809677124,-42.756103515625,0.3421476185321808,0.3421476185321808,nan,nan,0,0.10991489887237549,-0.4115484356880188,1.2895174026489258,0.42378073930740356,-0.15504254400730133,-0.15504254400730133,nan,nan,0,-1.2887767553329468,0.14900657534599304,9.977312088012695,-9.356046676635742,-0.6443883776664734,-0.6443883776664734,nan,nan,0,-0.05990926921367645,-0.32675284147262573,0.9172726273536682,-6.274596214294434,-0.4299546405673027,-0.4299546405673027,nan,nan,0,-0.46207037568092346,0.3562680184841156,-0.8190904259681702,-28.731483459472656,-0.2810351885855198,-0.2810351885855198,nan,nan,0,-0.4725743234157562,0.11392802745103836,-0.7124586701393127,-3.276049852371216,0.07371284067630768,0.07371284067630768,nan,nan,0,0.04782498627901077,0.7739306688308716,-0.9313755035400391,-23.430973052978516,0.5139125026762486,0.5139125026762486,nan,nan,0,-1.2750009298324585,-0.4102187752723694,0.7182402610778809,-5.112874507904053,-0.8475004583597183,-0.8475004583597183,nan,nan,0,-0.018311409279704094,0.27372318506240845,0.7954026460647583,-12.777902603149414,-0.009155704639852047,-0.009155704639852047,nan,nan,0,0,0.9964039325714111,0.001116815721616149,-0.07009094208478928,-0.04759300872683525,-0.7995771169662476,0.5594165921211243,0.4948296546936035,nan,nan,nan,378.491943359375,190.70140075683594,378.491943359375,190.70140075683594,0.0,0.18730565905570984,0.4245777726173401,-0.03763877600431442
1782207312352636322,-0.5128994584083557,-0.8584486842155457,0.4000000059604645,0.0,0.0,1,1,0.0010744776809588075,-0.13387537002563477,-0.09163188934326172,-0.5762593150138855,0.6845386028289795,0.4256521761417389,-0.7235959768295288,0.42304983735084534,0.335837721824646,-3.4082889556884766,0.03820201754570007,0.03820201754570007,nan,nan,0,-0.25977253913879395,0.14285710453987122,0.5025520324707031,-26.352144241333008,-0.07988626882433891,-0.07988626882433891,nan,nan,0,0.6029929518699646,-0.020340677350759506,0.10816876590251923,-11.428484916687012,-0.008503526449203491,-0.008503526449203491,nan,nan,0,-0.20045940577983856,0.918593168258667,-1.0943409204483032,-58.95774459838867,0.3897703066468239,0.3897703066468239,nan,nan,0,0.3804044723510742,-0.41667288541793823,2.030545711517334,0.6404700875282288,-0.019797757267951965,-0.019797757267951965,nan,nan,0,-1.8219069242477417,0.19716760516166687,8.136749267578125,-15.734503746032715,-0.9109534621238708,-0.9109534621238708,nan,nan,0,-0.18662063777446747,-0.3173411190509796,0.764092206954956,-3.3931710720062256,-0.4933103248476982,-0.4933103248476982,nan,nan,0,-0.41816577315330505,0.34728121757507324,-0.8236077427864075,-21.4471435546875,-0.2590828873217106,-0.2590828873217106,nan,nan,0,-0.4324682652950287,0.10498134046792984,-0.5720307230949402,-1.7498070001602173,0.09376586973667145,0.09376586973667145,nan,nan,0,0.16641318798065186,0.762538731098175,-1.3889578580856323,-14.535638809204102,0.5732066035270691,0.5732066035270691,nan,nan,0,-1.5064860582351685,-0.4100249707698822,0.5453572273254395,-11.074178695678711,-0.9632430225610733,-0.9632430225610733,nan,nan,0,0.020978571847081184,0.2593397796154022,-1.4971855878829956,-8.767369270324707,0.010489285923540592,0.010489285923540592,nan,nan,0,0,0.9967149496078491,-0.002527982695028186,-0.06684215366840363,-0.04566144943237305,-0.5762593150138855,0.6845386028289795,0.4256521761417389,nan,nan,nan,873.74755859375,101.62913513183594,873.74755859375,101.62913513183594,173.74755859375,0.18459506332874298,0.40218445658683777,0.13224375247955322
1782207312362636322,-0.5877862572669983,-0.8090162873268127,0.4000000059604645,0.0,0.0,1,1,-0.0039844512939453125,-0.1270771026611328,-0.08919239044189453,-0.4039713740348816,0.6917698383331299,0.14585931599140167,-0.9818718433380127,0.4202677607536316,-0.6490089297294617,3.2654099464416504,-0.09093591570854187,-0.09093591570854187,nan,nan,0,-0.3096354901790619,0.14438332617282867,0.1577850580215454,-21.924968719482422,-0.10481774434447289,-0.10481774434447289,nan,nan,0,0.6170064210891724,-0.02204270102083683,0.40967148542404175,-5.543520927429199,-0.0014967918395996094,-0.0014967918395996094,nan,nan,0,-0.09137757122516632,0.9020084738731384,-2.210129499435425,-47.73633575439453,0.44431122392416,0.44431122392416,nan,nan,0,0.4326152801513672,-0.412680983543396,0.7781750559806824,-0.22276726365089417,0.006307646632194519,0.006307646632194519,nan,nan,0,-2.0811898708343506,0.18796026706695557,0.029953360557556152,-15.464951515197754,-1.0405949354171753,-1.0405949354171753,nan,nan,0,-0.3692050576210022,-0.31020471453666687,0.6886531114578247,-3.4887213706970215,-0.5846025347709656,-0.5846025347709656,nan,nan,0,-0.4236171543598175,0.3360985815525055,-1.2729253768920898,-21.00510025024414,-0.2618085779249668,-0.2618085779249668,nan,nan,0,-0.21778452396392822,0.10496491193771362,0.5409430265426636,-2.9660415649414062,0.20110774040222168,0.20110774040222168,nan,nan,0,0.19555583596229553,0.7467181086540222,-1.8056049346923828,-8.515693664550781,0.5877779275178909,0.5877779275178909,nan,nan,0,-1.4753934144973755,-0.409984290599823,0.46687066555023193,-12.572872161865234,-0.9476967006921768,-0.9476967006921768,nan,nan,0,0.012482957914471626,0.22987841069698334,-2.4859108924865723,-6.435673713684082,0.006241478957235813,0.006241478957235813,nan,nan,0,0,0.996982216835022,-0.004816875793039799,-0.06334391236305237,-0.04461778327822685,-0.4039713740348816,0.6917698383331299,0.14585931599140167,nan,nan,nan,497.3399658203125,62.36407470703125,497.3399658203125,62.36407470703125,0.0,0.1864575296640396,0.3787716329097748,0.24960140883922577
1782207312372636322,-0.6579396724700928,-0.7530706524848938,0.4000000059604645,0.0,0.0,1,1,-0.00795745849609375,-0.11982536315917969,-0.0886077880859375,-0.39573031663894653,0.7424342036247253,0.033866073936223984,-0.9916176795959473,0.4118625819683075,-0.9694265127182007,3.501316547393799,-0.09580883383750916,-0.09580883383750916,nan,nan,0,-0.14580082893371582,0.14547289907932281,0.2728339731693268,-18.78159523010254,-0.02290041372179985,-0.02290041372179985,nan,nan,0,0.5584935545921326,-0.019345680251717567,0.6031519770622253,-4.669844627380371,-0.030753225088119507,-0.030753225088119507,nan,nan,0,-0.023680850863456726,0.8772480487823486,-2.8603198528289795,-32.14217758178711,0.4781595841050148,0.4781595841050148,nan,nan,0,0.3423750400543213,-0.41092249751091003,1.3960381746292114,0.46830981969833374,-0.03881247341632843,-0.03881247341632843,nan,nan,0,-2.2238552570343018,0.16857370734214783,1.7025306224822998,-22.489891052246094,-1.1119276285171509,-1.1119276285171509,nan,nan,0,-0.3205743432044983,-0.3054411709308624,0.507134735584259,-4.676260948181152,-0.5602871775627136,-0.5602871775627136,nan,nan,0,-0.2953280508518219,0.32119107246398926,-1.593932032585144,-19.761417388916016,-0.197664026170969,-0.197664026170969,nan,nan,0,-0.21362259984016418,0.11501996964216232,1.2861676216125488,-5.130437850952148,0.2031887024641037,0.2031887024641037,nan,nan,0,0.23266848921775818,0.729387104511261,-1.597784399986267,-7.7601518630981445,0.6063342541456223,0.6063342541456223,nan,nan,0,-1.481728196144104,-0.4097110629081726,-0.5582098960876465,-11.336592674255371,-0.9508640915155411,-0.9508640915155411,nan,nan,0,-0.012032313272356987,0.19687047600746155,-2.8803648948669434,-5.784916400909424,-0.0060161566361784935,-0.0060161566361784935,nan,nan,0,0,0.9972079396247864,-0.006619644816964865,-0.05964159220457077,-0.04444767162203789,-0.39573031663894653,0.7424342036247253,0.033866073936223984,nan,nan,nan,309.807861328125,53.15692901611328,309.807861328125,53.15692901611328,0.0,0.18214274942874908,0.3691873550415039,0.28468605875968933
1782207312382636322,-0.7227957844734192,-0.6910617351531982,0.4000000059604645,0.0,0.0,1,1,-0.012154579162597656,-0.11251068115234375,-0.08834028244018555,-0.41662177443504333,0.7428444027900696,0.03551050275564194,-1.1270561218261719,0.4020780622959137,-0.8677363991737366,-3.166930913925171,-0.16352805495262146,-0.16352805495262146,nan,nan,0,-0.21533221006393433,0.14667032659053802,0.15410493314266205,-14.96010971069336,-0.0576661042869091,-0.0576661042869091,nan,nan,0,0.5419201850891113,-0.016316385939717293,0.6102486252784729,-4.269160270690918,-0.03903990983963013,-0.03903990983963013,nan,nan,0,0.16586856544017792,0.8504254817962646,-2.7958436012268066,-22.701976776123047,0.5729342922568321,0.5729342922568321,nan,nan,0,0.33636558055877686,-0.4107857644557953,1.650659441947937,7.4299821853637695,-0.04181720316410065,-0.04181720316410065,nan,nan,0,-2.322420120239258,0.155012309551239,1.2587720155715942,-29.14239501953125,-1.161210060119629,-1.161210060119629,nan,nan,0,-0.4042450189590454,-0.29837051033973694,0.7189812064170837,-6.456969738006592,-0.6021225154399872,-0.6021225154399872,nan,nan,0,-0.14441096782684326,0.3042040169239044,-1.7702662944793701,-17.335735321044922,-0.12220548465847969,-0.12220548465847969,nan,nan,0,-0.03758178651332855,0.12553346157073975,0.935141384601593,-5.863419532775879,0.2912091091275215,0.2912091091275215,nan,nan,0,0.21111872792243958,0.7142242193222046,-1.5035361051559448,-4.871278762817383,0.595559373497963,0.595559373497963,nan,nan,0,-1.4531203508377075,-0.40988776087760925,-0.4268757104873657,-14.504555702209473,-0.9365601688623428,-0.9365601688623428,nan,nan,0,-0.09921643137931824,0.16258488595485687,-2.984528064727783,-4.203104496002197,-0.04960821568965912,-0.04960821568965912,nan,nan,0,0,0.9974107146263123,-0.00854435469955206,-0.055901963263750076,-0.044426415115594864,-0.41662177443504333,0.7428444027900696,0.03551050275564194,nan,nan,nan,313.829833984375,28.756643295288086,313.829833984375,28.756643295288086,0.0,0.17442524433135986,0.3557300269603729,0.28841814398765564
1782207312392636322,-0.7818323373794556,-0.6234887838363647,0.4000000059604645,0.0,0.0,1,1,-0.015828609466552734,-0.10506772994995117,-0.08857154846191406,-0.33488190174102783,0.728887140750885,-0.0491008535027504,-1.1364562511444092,0.3940163254737854,-0.8379999399185181,-7.708048343658447,-0.1682281196117401,-0.1682281196117401,nan,nan,0,-0.15682899951934814,0.14856556057929993,0.27026304602622986,-10.057433128356934,-0.028414499014616013,-0.028414499014616013,nan,nan,0,0.6094242334365845,-0.014122486114501953,0.42628732323646545,-2.3626785278320312,-0.005287885665893555,-0.005287885665893555,nan,nan,0,0.37239277362823486,0.8254042863845825,-2.61594295501709,-17.225852966308594,0.6761963963508606,0.6761963963508606,nan,nan,0,0.19042357802391052,-0.4102078080177307,0.8959937691688538,12.506080627441406,-0.11478820443153381,-0.11478820443153381,nan,nan,0,-2.493555784225464,0.1417279690504074,0.20939722657203674,-37.349422454833984,-1.246777892112732,-1.246777892112732,nan,nan,0,-0.5535485744476318,-0.2959508001804352,0.08506715297698975,-6.592353820800781,-0.6767742931842804,-0.6767742931842804,nan,nan,0,0.2661520540714264,0.2858542501926422,-1.8655232191085815,-15.392581939697266,0.08307602629065514,0.08307602629065514,nan,nan,0,0.3324238955974579,0.13527560234069824,0.7637990117073059,-4.825263023376465,0.47621195018291473,0.47621195018291473,nan,nan,0,0.18158289790153503,0.7022373676300049,-1.094670295715332,-1.6120308637619019,0.5807914584875107,0.5807914584875107,nan,nan,0,-1.411934733390808,-0.4099685549736023,-0.2736630439758301,-18.64011001586914,-0.9159673601388931,-0.9159673601388931,nan,nan,0,-0.2303173840045929,0.13151979446411133,-2.384683847427368,-2.729468584060669,-0.11515869200229645,-0.11515869200229645,nan,nan,0,0,0.9975915551185608,-0.01022015418857336,-0.05210677534341812,-0.04462401196360588,-0.33488190174102783,0.728887140750885,-0.0491008535027504,nan,nan,nan,283.9029541015625,11.594084739685059,283.9029541015625,11.594084739685059,0.0,0.1613815426826477,0.3428240716457367,0.2805570960044861
1782207312402636322,-0.8345740437507629,-0.5508958697319031,0.4000000059604645,0.0,0.0,1,1,-0.01870870590209961,-0.09793806076049805,-0.0901479721069336,-0.27423831820487976,0.6824880242347717,-0.1866149604320526,-0.870333194732666,0.38641664385795593,-0.737488865852356,-11.626389503479004,-0.03516659140586853,-0.03516659140586853,nan,nan,0,-0.07356423884630203,0.15083594620227814,0.24205553531646729,-11.120394706726074,0.013217881321907043,0.013217881321907043,nan,nan,0,0.5654692053794861,-0.011150221340358257,0.5593571662902832,-2.6951992511749268,-0.02726539969444275,-0.02726539969444275,nan,nan,0,0.6707403659820557,0.8018239736557007,-2.3761444091796875,-11.510401725769043,0.825370192527771,0.825370192527771,nan,nan,0,-0.09150755405426025,-0.41021057963371277,1.0255098342895508,13.343360900878906,-0.2557537704706192,-0.2557537704706192,nan,nan,0,-2.3934543132781982,0.12597818672657013,-0.10004284977912903,-40.43513488769531,-1.1967271566390991,-1.1967271566390991,nan,nan,0,-0.4335455894470215,-0.29999294877052307,-0.4647462069988251,-6.830650806427002,-0.6167728006839752,-0.6167728006839752,nan,nan,0,1.1468305587768555,0.265475869178772,-2.0778579711914062,-14.02591323852539,0.5234152786433697,0.5234152786433697,nan,nan,0,0.6385716199874878,0.14831732213497162,1.2329050302505493,-3.39981746673584,0.6292858123779297,0.6292858123779297,nan,nan,0,0.15633642673492432,0.6937910318374634,-0.8100943565368652,-2.274568557739258,0.5681682229042053,0.5681682229042053,nan,nan,0,-1.2982921600341797,-0.4099602997303009,-0.21494370698928833,-18.133329391479492,-0.8591460734605789,-0.8591460734605789,nan,nan,0,-0.4787347614765167,0.1068534404039383,-1.8298581838607788,-2.347909450531006,-0.23936738073825836,-0.23936738073825836,nan,nan,0,0,0.9977226257324219,-0.011539027094841003,-0.04847662150859833,-0.04546019062399864,-0.27423831820487976,0.6824880242347717,-0.1866149604320526,nan,nan,nan,290.20098876953125,14.17065715789795,290.20098876953125,14.17065715789795,0.0,0.14676983654499054,0.328927218914032,0.2648610472679138
1782207312412636322,-0.8805962204933167,-0.47386741638183594,0.4000000059604645,0.0,0.0,1,1,-0.020732879638671875,-0.09158802032470703,-0.0922384262084961,-0.17469550669193268,0.6004399657249451,-0.20010243356227875,-0.14044031500816345,0.3800344467163086,-0.6018823385238647,-11.986088752746582,0.32977984845638275,0.32977984845638275,nan,nan,0,-0.15957552194595337,0.1533958911895752,0.2982475459575653,-8.10379695892334,-0.029787760227918625,-0.029787760227918625,nan,nan,0,0.2307543158531189,-0.008058619685471058,0.6134180426597595,-4.0552825927734375,-0.19462284445762634,-0.19462284445762634,nan,nan,0,1.003721833229065,0.7817867398262024,-2.004992723464966,-9.788715362548828,0.9918609261512756,0.9918609261512756,nan,nan,0,-0.5682660341262817,-0.4102243483066559,1.2608428001403809,11.625588417053223,-0.49413301050662994,-0.49413301050662994,nan,nan,0,-1.904941201210022,0.10400627553462982,-0.4781826436519623,-42.01333236694336,-0.952470600605011,-0.952470600605011,nan,nan,0,0.13122139871120453,-0.3053256869316101,-0.5126715302467346,-5.770407199859619,-0.3343893066048622,-0.3343893066048622,nan,nan,0,2.663249969482422,0.24542394280433655,-1.926303744316101,-11.060444831848145,1.2816249839961529,1.2816249839961529,nan,nan,0,1.0168215036392212,0.16021767258644104,1.0157502889633179,-2.897984266281128,0.8184107542037964,0.8184107542037964,nan,nan,0,0.15016064047813416,0.6871787309646606,-0.6157769560813904,-1.6858104467391968,0.5650803297758102,0.5650803297758102,nan,nan,0,-1.038340449333191,-0.4099579155445099,-0.18552425503730774,-18.261945724487305,-0.7291702181100845,-0.7291702181100845,nan,nan,0,-0.854026198387146,0.08685948699712753,-1.5832574367523193,-2.225273847579956,-0.427013099193573,-0.427013099193573,nan,nan,0,0,0.9978139996528625,-0.012454831041395664,-0.04524941369891167,-0.046526212245225906,-0.17469550669193268,0.6004399657249451,-0.20010243356227875,nan,nan,nan,283.5216064453125,15.65914535522461,283.5216064453125,15.65914535522461,0.0,0.13315175473690033,0.31833431124687195,0.24734261631965637
1782207312422636322,-0.9195279479026794,-0.39302459359169006,0.4000000059604645,0.0,0.0,1,1,-0.021760940551757812,-0.0860595703125,-0.09458160400390625,-0.10455290973186493,0.49621835350990295,-0.228023499250412,0.795616865158081,0.37684470415115356,-0.13113166391849518,-15.15208911895752,0.797808438539505,0.797808438539505,nan,nan,0,-0.6502726674079895,0.15561595559120178,-0.1657828390598297,-8.285082817077637,-0.2751363329589367,-0.2751363329589367,nan,nan,0,-0.46705737709999084,-0.003251106245443225,1.2207483053207397,-6.298762798309326,-0.5435286909341812,-0.5435286909341812,nan,nan,0,1.2271924018859863,0.7663367986679077,-1.4683377742767334,-3.52048397064209,1.1035962104797363,1.1035962104797363,nan,nan,0,-1.2977238893508911,-0.3943566083908081,4.689262866973877,9.37855339050293,-0.8588619381189346,-0.8588619381189346,nan,nan,0,-1.0157825946807861,0.07910677790641785,-2.545018434524536,-41.82059860229492,-0.5078912973403931,-0.5078912973403931,nan,nan,0,1.022629976272583,-0.3119693100452423,-0.5066917538642883,-6.75688362121582,0.11131498217582703,0.11131498217582703,nan,nan,0,4.438794136047363,0.227300226688385,-1.7229737043380737,-7.966645240783691,2.1693970672786236,2.1693970672786236,nan,nan,0,1.6773089170455933,0.17552807927131653,1.4729989767074585,-2.157848358154297,1.1486544609069824,1.1486544609069824,nan,nan,0,0.15424585342407227,0.6824519634246826,-0.5020104050636292,-3.506920337677002,0.5671229362487793,0.5671229362487793,nan,nan,0,-0.5386626124382019,-0.409925639629364,-0.2147446721792221,-17.74296760559082,-0.47933129966259,-0.47933129966259,nan,nan,0,-1.3317619562149048,0.06578125804662704,-1.7450568675994873,-2.9248788356781006,-0.6658809781074524,-0.6658809781074524,nan,nan,0,0,0.9978762865066528,-0.012891319580376148,-0.042451951652765274,-0.04769410192966461,-0.10455290973186493,0.49621835350990295,-0.228023499250412,nan,nan,nan,214.1038818359375,25.47272300720215,214.1038818359375,25.47272300720215,0.0,0.12004342675209045,0.3045816719532013,0.22527959942817688
1782207312432636322,-0.9510566592216492,-0.30901649594306946,0.4000000059604645,0.0,0.0,1,1,-0.021246910095214844,-0.08167648315429688,-0.09760808944702148,0.1242835521697998,0.36632758378982544,-0.31777170300483704,1.4041980504989624,0.37691137194633484,-0.11351759731769562,-17.226333618164062,1.1020990312099457,1.1020990312099457,nan,nan,0,-1.0253812074661255,0.15811443328857422,0.5121665596961975,-9.191511154174805,-0.4626906029880047,-0.4626906029880047,nan,nan,0,-1.1472333669662476,0.0016479110345244408,-0.2144375741481781,-3.1532862186431885,-0.8836166858673096,-0.8836166858673096,nan,nan,0,1.3283939361572266,0.7617224454879761,-0.2949499785900116,-14.295180320739746,1.1541969776153564,1.1541969776153564,nan,nan,0,-1.7870678901672363,-0.4015519320964813,-1.4924097061157227,14.838810920715332,-1.1035339385271072,-1.1035339385271072,nan,nan,0,-0.25733909010887146,0.042968057096004486,-6.879144191741943,-47.23749923706055,-0.12866954505443573,-0.12866954505443573,nan,nan,0,1.375322699546814,-0.32092517614364624,-0.8096849918365479,-7.663835048675537,0.2876613438129425,0.2876613438129425,nan,nan,0,5.414979457855225,0.21467342972755432,-0.8158586621284485,-1.7125276327133179,2.6574897281825542,2.6574897281825542,nan,nan,0,2.1267478466033936,0.1992659717798233,2.331887722015381,-0.14002004265785217,1.3733739256858826,1.3733739256858826,nan,nan,0,0.11659523099660873,0.6798664331436157,-0.32155051827430725,-6.842364311218262,0.5482976250350475,0.5482976250350475,nan,nan,0,-0.09866393357515335,-0.40988120436668396,-0.3120904862880707,-16.966205596923828,-0.25933196023106575,-0.25933196023106575,nan,nan,0,-1.7216938734054565,0.03944563865661621,-2.1520116329193115,-4.051113128662109,-0.8608469367027283,-0.8608469367027283,nan,nan,0,0,0.9978991746902466,-0.012593445368111134,-0.04025822877883911,-0.049174562096595764,0.1242835521697998,0.36632758378982544,-0.31777170300483704,nan,nan,nan,148.22769165039062,36.02611541748047,148.22769165039062,36.02611541748047,0.0,0.11013198643922806,0.3119013011455536,0.1936585009098053
1782207312442636322,-0.9749282598495483,-0.22251944243907928,0.4000000059604645,0.0,0.0,1,1,-0.01837921142578125,-0.07874488830566406,-0.10103797912597656,0.3557334244251251,0.23058728873729706,-0.3682304918766022,1.6527221202850342,0.379419207572937,0.2968486249446869,-13.865846633911133,1.2263610661029816,1.2263610661029816,nan,nan,0,-1.214731216430664,0.1638750582933426,0.5639055967330933,-8.181452751159668,-0.557365607470274,-0.557365607470274,nan,nan,0,-1.2586710453033447,0.004949872847646475,0.530241847038269,-3.7183101177215576,-0.9393355250358582,-0.9393355250358582,nan,nan,0,1.1784110069274902,0.7640347480773926,0.40125444531440735,2.198300361633301,1.0792055130004883,1.0792055130004883,nan,nan,0,-1.8536970615386963,-0.39975449442863464,1.2695499658584595,3.682732582092285,-1.1368485242128372,-1.1368485242128372,nan,nan,0,-0.01212579756975174,-0.01651526242494583,-6.84659481048584,-37.60676193237305,-0.00606289878487587,-0.00606289878487587,nan,nan,0,1.0001837015151978,-0.330919474363327,-1.014778971672058,-5.201308250427246,0.1000918447971344,0.1000918447971344,nan,nan,0,5.1195292472839355,0.21500380337238312,0.61073899269104,9.99656867980957,2.5097646228969097,2.5097646228969097,nan,nan,0,1.8552523851394653,0.22300219535827637,2.010331392288208,5.72076940536499,1.2376261949539185,1.2376261949539185,nan,nan,0,0.13913720846176147,0.679655134677887,-0.07345093786716461,-10.33413314819336,0.5595686137676239,0.5595686137676239,nan,nan,0,0.13761818408966064,-0.40966638922691345,-0.08668162673711777,-14.971599578857422,-0.14119090139865875,-0.14119090139865875,nan,nan,0,-1.7816816568374634,0.005575343035161495,-2.7263259887695312,-6.888850688934326,-0.8908408284187317,-0.8908408284187317,nan,nan,0,0,0.9978898763656616,-0.01115831546485424,-0.0388466902077198,-0.05081741139292717,0.3557334244251251,0.23058728873729706,-0.3682304918766022,nan,nan,nan,133.72503662109375,60.655941009521484,133.72503662109375,60.655941009521484,0.0,0.10183023661375046,0.3214605450630188,0.14556393027305603
1782207312452636322,-0.9909498691558838,-0.13423265516757965,0.4000000059604645,0.0,0.0,1,1,-0.013326168060302734,-0.07686710357666016,-0.1042633056640625,0.5780735015869141,0.12971419095993042,-0.3154202103614807,1.677504062652588,0.38758566975593567,0.7804012298583984,-4.605519771575928,1.2387520372867584,1.2387520372867584,nan,nan,0,-1.1921511888504028,0.17116175591945648,0.7661848664283752,-10.496182441711426,-0.5460755936801434,-0.5460755936801434,nan,nan,0,-1.0919864177703857,0.0035599463153630495,-0.10339787602424622,-5.64079475402832,-0.8559932112693787,-0.8559932112693787,nan,nan,0,1.0189199447631836,0.7798298597335815,1.5823489427566528,4.928390979766846,0.999459981918335,0.999459981918335,nan,nan,0,-1.676297903060913,-0.4099189341068268,0.49290674924850464,-3.765817880630493,-1.0481489449739456,-1.0481489449739456,nan,nan,0,0.01802312582731247,-0.10291772335767746,-8.799787521362305,-24.585824966430664,0.009011562913656235,0.009011562913656235,nan,nan,0,0.4688645005226135,-0.34176668524742126,-1.0406321287155151,3.69419264793396,-0.16556775569915771,-0.16556775569915771,nan,nan,0,4.280282974243164,0.22623257339000702,1.4896211624145508,37.14899444580078,2.090141486376524,2.090141486376524,nan,nan,0,1.2988823652267456,0.24093687534332275,1.629891037940979,13.354483604431152,0.9594411849975586,0.9594411849975586,nan,nan,0,0.20466956496238708,0.6785988807678223,-0.13264182209968567,-9.83425235748291,0.5923347920179367,0.5923347920179367,nan,nan,0,0.13309845328330994,-0.40987181663513184,-0.0503995344042778,-10.583335876464844,-0.1434507668018341,-0.1434507668018341,nan,nan,0,-1.6392152309417725,-0.016636542975902557,-2.1766130924224854,-12.949616432189941,-0.8196076154708862,-0.8196076154708862,nan,nan,0,0,0.9978684782981873,-0.008651322685182095,-0.03802408650517464,-0.052324000746011734,0.5780735015869141,0.12971419095993042,-0.3154202103614807,nan,nan,nan,50.311405181884766,100.51876068115234,50.311405181884766,100.51876068115234,0.0,0.09314839541912079,0.33269745111465454,0.07731008529663086
1782207312462636322,-0.9989930987358093,-0.04486418515443802,0.4000000059604645,0.0,0.0,0,1,-0.005868434906005859,-0.0761265754699707,-0.10604143142700195,0.8701463341712952,-0.022459277883172035,-0.12479989230632782,1.7316584587097168,0.40066155791282654,1.214770793914795,7.6331400871276855,1.2658292353153229,1.2658292353153229,nan,nan,0,-1.1164551973342896,0.181996688246727,1.1762630939483643,-22.05630111694336,-0.5082275979220867,-0.5082275979220867,nan,nan,0,-0.7276861071586609,-0.015893317759037018,-2.1308748722076416,-9.1689453125,-0.6738430559635162,-0.6738430559635162,nan,nan,0,1.0648987293243408,0.8064138293266296,2.776355028152466,1.5658893585205078,1.0224493741989136,1.0224493741989136,nan,nan,0,-1.417375922203064,-0.41002050042152405,0.029882414266467094,-16.347557067871094,-0.9186879545450211,-0.9186879545450211,nan,nan,0,0.024417810142040253,-0.19421707093715668,-4.851840972900391,-8.082547187805176,0.012208905071020126,0.012208905071020126,nan,nan,0,0.25703513622283936,-0.3496672809123993,-0.4297962486743927,15.650606155395508,-0.2714824378490448,-0.2714824378490448,nan,nan,0,3.145800828933716,0.24924366176128387,3.0030136108398438,67.36376953125,1.5229004137217999,1.5229004137217999,nan,nan,0,0.6466377973556519,0.26085230708122253,2.1257646083831787,22.468801498413086,0.6333189010620117,0.6333189010620117,nan,nan,0,0.3218333125114441,0.6756847500801086,-0.4750361144542694,-6.256954669952393,0.6509166657924652,0.6509166657924652,nan,nan,0,0.21248704195022583,-0.4099331796169281,-0.10601381957530975,-1.8112660646438599,-0.10375647246837616,-0.10375647246837616,nan,nan,0,-1.4475226402282715,-0.03804963454604149,-3.351639747619629,-20.05261993408203,-0.7237613201141357,-0.7237613201141357,nan,nan,0,0,0.9978612661361694,-0.004944654647260904,-0.03784507140517235,-0.053068798035383224,0.8701463341712952,-0.022459277883172035,-0.12479989230632782,nan,nan,nan,0.0,108.41122436523438,0.0,108.41122436523438,0.0,0.08667004853487015,0.3512321710586548,-0.005437021143734455
1782207312472636322,-0.9989929795265198,0.04486646503210068,0.4000000059604645,0.0,0.0,0,1,0.004781131166964769,-0.07677984237670898,-0.10603618621826172,1.2398091554641724,-0.15091532468795776,0.05075261369347572,1.4829716682434082,0.41754114627838135,1.660748839378357,14.985391616821289,1.1414858400821686,1.1414858400821686,nan,nan,0,-1.0450527667999268,0.19645686447620392,1.428651213645935,-30.937963485717773,-0.4725263826549053,-0.4725263826549053,nan,nan,0,-0.43952977657318115,-0.051345933228731155,-3.971865177154541,-12.336030960083008,-0.5297648906707764,-0.5297648906707764,nan,nan,0,0.9915595054626465,0.8400017619132996,3.272386074066162,-1.8809698820114136,0.9857797622680664,0.9857797622680664,nan,nan,0,-1.086265206336975,-0.40999531745910645,0.004818212706595659,-24.897369384765625,-0.7531325966119766,-0.7531325966119766,nan,nan,0,0.029344744980335236,-0.18808192014694214,0.47227418422698975,1.4411427974700928,0.014672372490167618,0.014672372490167618,nan,nan,0,-0.21705582737922668,-0.35185936093330383,0.22147013247013092,18.33043670654297,-0.5085279196500778,-0.5085279196500778,nan,nan,0,1.4163004159927368,0.2907552719116211,5.266732692718506,78.64696502685547,0.6581502072513103,0.6581502072513103,nan,nan,0,-0.015233933925628662,0.29050424695014954,3.267143487930298,24.76022720336914,0.30238303542137146,0.30238303542137146,nan,nan,0,0.3763311505317688,0.6658084988594055,-1.393375039100647,1.5483914613723755,0.6781655848026276,0.6781655848026276,nan,nan,0,0.12727808952331543,-0.3786899447441101,1.736011266708374,2.772459030151367,-0.14636094868183136,-0.14636094868183136,nan,nan,0,-1.2470405101776123,-0.10043423622846603,-8.07498836517334,-21.636837005615234,-0.6235202550888062,-0.6235202550888062,nan,nan,0,0,0.9978610873222351,0.00035154318902641535,-0.038453079760074615,-0.05286240577697754,1.2398091554641724,-0.15091532468795776,0.05075261369347572,nan,nan,nan,0.0,13.071277618408203,0.0,13.071277618408203,0.0,0.08162803947925568,0.3638167679309845,-0.11218828707933426
1782207312482636322,-0.9909496903419495,0.1342339813709259,0.4000000059604645,0.0,0.0,0,0,0.017364995554089546,-0.07881498336791992,-0.1058497428894043,1.3423147201538086,-0.242198646068573,0.058392465114593506,1.1131868362426758,0.4363062083721161,2.017019510269165,17.18083953857422,0.9565934240818024,0.9565934240818024,nan,nan,0,-0.9352679252624512,0.19995689392089844,-0.04795253276824951,-30.053348541259766,-0.4176339618861675,-0.4176339618861675,nan,nan,0,-0.2068239450454712,-0.0870051383972168,-3.9847569465637207,-13.270535469055176,-0.4134119749069214,-0.4134119749069214,nan,nan,0,0.8709465861320496,0.8686893582344055,2.5565712451934814,-5.380650520324707,0.9254733026027679,0.9254733026027679,nan,nan,0,-0.8205479979515076,-0.40997859835624695,0.016107354313135147,-26.07082748413086,-0.6202739924192429,-0.6202739924192429,nan,nan,0,0.09288222342729568,-0.15594227612018585,1.8314554691314697,3.9021549224853516,0.04644111171364784,0.04644111171364784,nan,nan,0,-0.5146183967590332,-0.34977585077285767,0.21090617775917053,12.623133659362793,-0.6573092043399811,-0.6573092043399811,nan,nan,0,-0.05715037137269974,0.35159385204315186,7.005580425262451,64.87849426269531,-0.07857518643140793,-0.07857518643140793,nan,nan,0,-0.50461745262146,0.3241541087627411,3.945155143737793,15.982468605041504,0.05769127607345581,0.05769127607345581,nan,nan,0,0.36028003692626953,0.6500546932220459,-1.4785194396972656,5.703227519989014,0.6701400279998779,0.6701400279998779,nan,nan,0,0.04044681042432785,-0.33326882123947144,3.000232219696045,4.538629531860352,-0.18977658823132515,-0.18977658823132515,nan,nan,0,-1.0557938814163208,-0.2091502845287323,-6.547104835510254,-20.206174850463867,-0.5278969407081604,-0.5278969407081604,nan,nan,0,0,0.9978049993515015,0.00657946290448308,-0.03979948163032532,-0.05251550301909447,1.3423147201538086,-0.242198646068573,0.058392465114593506,nan,nan,nan,0.0,0.0,0.0,0.0,0.0,0.07508093863725662,0.34766945242881775,-0.23188970983028412
1782207312492636322,-0.9749277234077454,0.22252167761325836,0.4000000059604645,0.0,0.0,0,0,0.030995916575193405,-0.08137130737304688,-0.10496187210083008,1.3862998485565186,-0.2673998177051544,0.11715985834598541,0.6588253974914551,0.4576537013053894,2.307788848876953,16.100608825683594,0.729412704706192,0.729412704706192,nan,nan,0,-0.8388838768005371,0.19477248191833496,-0.9480996131896973,-26.854928970336914,-0.3694419376552105,-0.3694419376552105,nan,nan,0,-0.20776432752609253,-0.12555961310863495,-3.8669209480285645,-9.048491477966309,-0.41388216614723206,-0.41388216614723206,nan,nan,0,0.7099085450172424,0.8874150514602661,1.533359169960022,-4.909216403961182,0.8449542820453644,0.8449542820453644,nan,nan,0,-0.588407039642334,-0.4099849462509155,0.012328253127634525,-22.963956832885742,-0.5042035132646561,-0.5042035132646561,nan,nan,0,0.19959771633148193,-0.1242704913020134,1.6977355480194092,3.3806021213531494,0.09979885816574097,0.09979885816574097,nan,nan,0,-0.8803672194480896,-0.3520439565181732,-0.37322524189949036,7.122273921966553,-0.8401836156845093,-0.8401836156845093,nan,nan,0,-1.076959490776062,0.4274083077907562,8.011094093322754,41.61091995239258,-0.5884797461330891,-0.5884797461330891,nan,nan,0,-0.9867581129074097,0.3535269498825073,3.0628604888916016,8.629521369934082,-0.18337905406951904,-0.18337905406951904,nan,nan,0,0.3007439374923706,0.6397436261177063,-1.0651156902313232,6.080840587615967,0.6403719782829285,0.6403719782829285,nan,nan,0,-0.17657333612442017,-0.3224891722202301,2.7457759380340576,4.234127998352051,-0.29828666150569916,-0.29828666150569916,nan,nan,0,-0.8823881149291992,-0.2833426892757416,-5.995468616485596,-15.41050910949707,-0.4411940574645996,-0.4411940574645996,nan,nan,0,0,0.997710108757019,0.013329802080988884,-0.04142574965953827,-0.0517776720225811,1.3862998485565186,-0.2673998177051544,0.11715985834598541,nan,nan,nan,0.0,0.0,0.0,0.0,0.0,0.06911412626504898,0.33446216583251953,-0.3432735204696655
1782207312502636322,-0.9510560035705566,0.30901864171028137,0.4000000059604645,0.0,0.0,0,0,0.04343680664896965,-0.08428430557250977,-0.10326957702636719,1.1682581901550293,-0.28467488288879395,0.20011866092681885,0.12255837023258209,0.48546871542930603,3.130326271057129,13.688861846923828,0.4612791910767555,0.4612791910767555,nan,nan,0,-0.7099087238311768,0.17684462666511536,-2.4002552032470703,-20.26864242553711,-0.3049543611705303,-0.3049543611705303,nan,nan,0,-0.3067830204963684,-0.15807104110717773,-3.0135560035705566,-4.87306547164917,-0.46339151263237,-0.46339151263237,nan,nan,0,0.439369797706604,0.9028598070144653,1.4268383979797363,-2.9020438194274902,0.7096849083900452,0.7096849083900452,nan,nan,0,-0.48410266637802124,-0.4099903702735901,0.008437303826212883,-18.430341720581055,-0.4520513266324997,-0.4520513266324997,nan,nan,0,0.2330019176006317,-0.09687870740890503,1.4305140972137451,2.671471357345581,0.11650095880031586,0.11650095880031586,nan,nan,0,-1.0927983522415161,-0.35106807947158813,0.18350288271903992,1.5915004014968872,-0.9463991820812225,-0.9463991820812225,nan,nan,0,-1.8099652528762817,0.5065181255340576,7.837344169616699,15.916997909545898,-0.9549826271831989,-0.9549826271831989,nan,nan,0,-1.2194939851760864,0.3722120523452759,1.9002604484558105,1.0625532865524292,-0.2997469902038574,-0.2997469902038574,nan,nan,0,0.19759535789489746,0.632226288318634,-0.32663285732269287,5.740511417388916,0.5887976884841919,0.5887976884841919,nan,nan,0,-0.29566603899002075,-0.28237485885620117,2.8007938861846924,4.199733257293701,-0.35783301293849945,-0.35783301293849945,nan,nan,0,-0.6615564227104187,-0.37653473019599915,-5.22167444229126,-9.208381652832031,-0.33077821135520935,-0.33077821135520935,nan,nan,0,0,0.9975924491882324,0.019494617357850075,-0.04318345710635185,-0.05064021423459053,1.1682581901550293,-0.28467488288879395,0.20011866092681885,nan,nan,nan,0.0,0.0,0.0,0.0,0.0,0.057936958968639374,0.2999216318130493,-0.46244826912879944
1782207312512636322,-0.9195270538330078,0.3930266499519348,0.4000000059604645,0.0,0.0,0,0,0.0523226372897625,-0.08684158325195312,-0.10175466537475586,0.7102928757667542,-0.20410020649433136,0.11827635020017624,-0.1590915322303772,0.5209996700286865,3.935377836227417,6.475687026977539,0.3204542398452759,0.3204542398452759,nan,nan,0,-0.7137523889541626,0.1429620385169983,-4.035118103027344,-12.497282028198242,-0.30687619373202324,-0.30687619373202324,nan,nan,0,-0.4293159246444702,-0.18166804313659668,-2.1820504665374756,-2.4477226734161377,-0.5246579647064209,-0.5246579647064209,nan,nan,0,0.14305050671100616,0.9130602478981018,0.7882927060127258,-1.3306246995925903,0.5615252628922462,0.5615252628922462,nan,nan,0,-0.47437626123428345,-0.4099940359592438,0.00563329691067338,-12.634033203125,-0.4471881240606308,-0.4471881240606308,nan,nan,0,0.22424232959747314,-0.07424328476190567,1.1856383085250854,2.0961475372314453,0.11212116479873657,0.11212116479873657,nan,nan,0,-1.0828120708465576,-0.34626278281211853,0.394306480884552,-6.445077419281006,-0.9414060413837433,-0.9414060413837433,nan,nan,0,-2.028374671936035,0.5752834677696228,6.164273262023926,-16.70357322692871,-1.0641873367130756,-1.0641873367130756,nan,nan,0,-1.309667706489563,0.3815825581550598,0.8667377233505249,-6.69783878326416,-0.3448338508605957,-0.3448338508605957,nan,nan,0,0.12171532958745956,0.6336193680763245,0.4716825485229492,-0.08191108703613281,0.550857674330473,0.550857674330473,nan,nan,0,-0.3235618770122528,-0.2568172216415405,1.7910007238388062,2.3539814949035645,-0.3717809319496155,-0.3717809319496155,nan,nan,0,-0.43476420640945435,-0.43781983852386475,-3.111611843109131,-4.652080059051514,-0.21738210320472717,-0.21738210320472717,nan,nan,0,0,0.9974809885025024,0.02389313280582428,-0.0446651466190815,-0.04965605214238167,0.7102928757667542,-0.20410020649433136,0.11827635020017624,nan,nan,nan,0.0,0.0,0.0,0.0,0.0,0.049529045820236206,0.2650347352027893,-0.5566279888153076
1782207312522636322,-0.8805951476097107,0.4738694131374359,0.4000000059604645,0.0,0.0,0,0,0.056233782321214676,-0.0883784294128418,-0.1018214225769043,0.16254591941833496,-0.09901808947324753,-0.09615413844585419,-0.1191977858543396,0.5627856850624084,4.473465442657471,-2.011319398880005,0.3404011130332947,0.3404011130332947,nan,nan,0,-0.5673490762710571,0.09405359625816345,-5.4042229652404785,-4.070282936096191,-0.2336745373904705,-0.2336745373904705,nan,nan,0,-0.4157724976539612,-0.1977357119321823,-1.5576505661010742,-0.42654889822006226,-0.5178862512111664,-0.5178862512111664,nan,nan,0,-0.22965185344219208,0.9147039651870728,-0.07432788610458374,2.0194990634918213,0.3751740828156471,0.3751740828156471,nan,nan,0,-0.4964241683483124,-0.4099963307380676,0.003397348802536726,-7.983013153076172,-0.45821207761764526,-0.45821207761764526,nan,nan,0,0.12133503705263138,-0.048374809324741364,1.3421101570129395,2.2230682373046875,0.06066751852631569,0.06066751852631569,nan,nan,0,-0.7202372550964355,-0.33926716446876526,0.4513181447982788,-11.379083633422852,-0.7601186335086823,-0.7601186335086823,nan,nan,0,-1.7068833112716675,0.6225607991218567,3.655673027038574,-40.62254333496094,-0.9034416563808918,-0.9034416563808918,nan,nan,0,-1.2334749698638916,0.3819792866706848,-0.029730699956417084,-11.631579399108887,-0.30673748254776,-0.30673748254776,nan,nan,0,0.12831369042396545,0.6403575539588928,0.8162600994110107,-5.271941184997559,0.5541568547487259,0.5541568547487259,nan,nan,0,-0.24338766932487488,-0.24325914680957794,0.9458379149436951,0.8056042194366455,-0.3316938281059265,-0.3316938281059265,nan,nan,0,-0.31036999821662903,-0.4661262035369873,-1.3928778171539307,-1.2607923746109009,-0.15518499910831451,-0.15518499910831451,nan,nan,0,0,0.997398316860199,0.025802237913012505,-0.045529428869485855,-0.04957876354455948,0.16254591941833496,-0.09901808947324753,-0.09615413844585419,nan,nan,nan,0.0,0.0,0.0,0.0,0.0,0.04480224475264549,0.24227586388587952,-0.6285542249679565
