timestamp_ns,phase_sin,phase_cos,cmd_linear_x,cmd_linear_y,cmd_angular_z,left_contact,right_contact,base_euler_x,base_euler_y,base_euler_z,base_ang_vel_x,base_ang_vel_y,base_ang_vel_z,action_left_hip_pitch_joint,pos_left_hip_pitch_joint,vel_left_hip_pitch_joint,effort_left_hip_pitch_joint,pos_des_raw_left_hip_pitch_joint,pos_des_lpf_left_hip_pitch_joint,tau_des_raw_left_hip_pitch_joint,tau_des_lpf_left_hip_pitch_joint,is_parallel_left_hip_pitch_joint,action_left_hip_roll_joint,pos_left_hip_roll_joint,vel_left_hip_roll_joint,effort_left_hip_roll_joint,pos_des_raw_left_hip_roll_joint,pos_des_lpf_left_hip_roll_joint,tau_des_raw_left_hip_roll_joint,tau_des_lpf_left_hip_roll_joint,is_parallel_left_hip_roll_joint,action_left_hip_yaw_joint,pos_left_hip_yaw_joint,vel_left_hip_yaw_joint,effort_left_hip_yaw_joint,pos_des_raw_left_hip_yaw_joint,pos_des_lpf_left_hip_yaw_joint,tau_des_raw_left_hip_yaw_joint,tau_des_lpf_left_hip_yaw_joint,is_parallel_left_hip_yaw_joint,action_left_knee_pitch_joint,pos_left_knee_pitch_joint,vel_left_knee_pitch_joint,effort_left_knee_pitch_joint,pos_des_raw_left_knee_pitch_joint,pos_des_lpf_left_knee_pitch_joint,tau_des_raw_left_knee_pitch_joint,tau_des_lpf_left_knee_pitch_joint,is_parallel_left_knee_pitch_joint,action_left_ankle_pitch_joint,pos_left_ankle_pitch_joint,vel_left_ankle_pitch_joint,effort_left_ankle_pitch_joint,pos_des_raw_left_ankle_pitch_joint,pos_des_lpf_left_ankle_pitch_joint,tau_des_raw_left_ankle_pitch_joint,tau_des_lpf_left_ankle_pitch_joint,is_parallel_left_ankle_pitch_joint,action_left_ankle_roll_joint,pos_left_ankle_roll_joint,vel_left_ankle_roll_joint,effort_left_ankle_roll_joint,pos_des_raw_left_ankle_roll_joint,pos_des_lpf_left_ankle_roll_joint,tau_des_raw_left_ankle_roll_joint,tau_des_lpf_left_ankle_roll_joint,is_parallel_left_ankle_roll_joint,action_right_hip_pitch_joint,pos_right_hip_pitch_joint,vel_right_hip_pitch_joint,effort_right_hip_pitch_joint,pos_des_raw_right_hip_pitch_joint,pos_des_lpf_right_hip_pitch_joint,tau_des_raw_right_hip_pitch_joint,tau_des_lpf_right_hip_pitch_joint,is_parallel_right_hip_pitch_joint,action_right_hip_roll_joint,pos_right_hip_roll_joint,vel_right_hip_roll_joint,effort_right_hip_roll_joint,pos_des_raw_right_hip_roll_joint,pos_des_lpf_right_hip_roll_joint,tau_des_raw_right_hip_roll_joint,tau_des_lpf_right_hip_roll_joint,is_parallel_right_hip_roll_joint,action_right_hip_yaw_joint,pos_right_hip_yaw_joint,vel_right_hip_yaw_joint,effort_right_hip_yaw_joint,pos_des_raw_right_hip_yaw_joint,pos_des_lpf_right_hip_yaw_joint,tau_des_raw_right_hip_yaw_joint,tau_des_lpf_right_hip_yaw_joint,is_parallel_right_hip_yaw_joint,action_right_knee_pitch_joint,pos_right_knee_pitch_joint,vel_right_knee_pitch_joint,effort_right_knee_pitch_joint,pos_des_raw_right_knee_pitch_joint,pos_des_lpf_right_knee_pitch_joint,tau_des_raw_right_knee_pitch_joint,tau_des_lpf_right_knee_pitch_joint,is_parallel_right_knee_pitch_joint,action_right_ankle_pitch_joint,pos_right_ankle_pitch_joint,vel_right_ankle_pitch_joint,effort_right_ankle_pitch_joint,pos_des_raw_right_ankle_pitch_joint,pos_des_lpf_right_ankle_pitch_joint,tau_des_raw_right_ankle_pitch_joint,tau_des_lpf_right_ankle_pitch_joint,is_parallel_right_ankle_pitch_joint,action_right_ankle_roll_joint,pos_right_ankle_roll_joint,vel_right_ankle_roll_joint,effort_right_ankle_roll_joint,pos_des_raw_right_ankle_roll_joint,pos_des_lpf_right_ankle_roll_joint,tau_des_raw_right_ankle_roll_joint,tau_des_lpf_right_ankle_roll_joint,is_parallel_right_ankle_roll_joint,clip_count,imu_quat_w,imu_quat_x,imu_quat_y,imu_quat_z,imu_gyro_x,imu_gyro_y,imu_gyro_z,imu_accel_x,imu_accel_y,imu_accel_z,left_foot_contact_force_z,right_foot_contact_force_z,left_foot_contact_force_mag,right_foot_contact_force_mag,feet_contact_force_penalty,base_lin_vel_x,base_lin_vel_y,base_lin_vel_z
1782893391885074081,0.2660350799560547,-0.9639633297920227,0.4000000059604645,0.0,0.0,1,0,-0.0980677604675293,0.0515853576362133,0.045679155737161636,0.3905673623085022,-0.091756172478199,-0.10462363809347153,-1.0545766353607178,0.40505775809288025,-0.8194380402565002,-9.977021217346191,-0.1272883117198944,-0.1272883117198944,nan,nan,0,-0.5639639496803284,0.037321314215660095,0.17686448991298676,-23.719961166381836,-0.23198197409510612,-0.23198197409510612,nan,nan,0,0.16314542293548584,-0.26479417085647583,0.7082478404045105,-5.159430980682373,-0.22842729091644287,-0.22842729091644287,nan,nan,0,0.31545209884643555,0.6193514466285706,0.099750816822052,-5.090678691864014,0.6477260589599609,0.6477260589599609,nan,nan,0,1.4547258615493774,-0.3760822117328644,-0.6481720209121704,32.420169830322266,0.5173629373311996,0.5173629373311996,nan,nan,0,-1.1128493547439575,0.09741493314504623,0.08457233756780624,-17.958019256591797,-0.5564246773719788,-0.5564246773719788,nan,nan,0,-0.521436870098114,-0.35317322611808777,-0.8309211134910583,-5.623203754425049,-0.6607184410095215,-0.6607184410095215,nan,nan,0,-0.4220324754714966,-0.06352207809686661,-0.5454760193824768,-3.804396629333496,-0.26101623848080635,-0.26101623848080635,nan,nan,0,0.087822824716568,0.31595176458358765,0.32092922925949097,-0.45290207862854004,0.3539114147424698,0.3539114147424698,nan,nan,0,-0.29542678594589233,0.6305702924728394,-1.4045979976654053,-1.3622117042541504,0.342286616563797,0.342286616563797,nan,nan,0,-1.7739555835723877,-0.41000014543533325,0.0014309671241790056,-47.86902618408203,-1.096977785229683,-1.096977785229683,nan,nan,0,-0.07223120331764221,0.008606045506894588,-0.10498976707458496,-0.14657245576381683,-0.036115601658821106,-0.036115601658821106,nan,nan,0,0,0.998176634311676,-0.049573443830013275,0.02463310770690441,0.024066297337412834,0.3905673623085022,-0.091756172478199,-0.10462363809347153,nan,nan,nan,318.52197265625,0.0,318.52197265625,0.0,0.0,0.20579400658607483,-0.13163229823112488,-0.08398201316595078
1782893391895074081,0.17855599522590637,-0.9839297533035278,0.4000000059604645,0.0,0.0,1,0,-0.09406089782714844,0.050264790654182434,0.04458817094564438,0.42368555068969727,-0.1392119973897934,-0.13742288947105408,-1.1127055883407593,0.39668264985084534,-0.8453789949417114,-9.35703182220459,-0.15635278820991516,-0.15635278820991516,nan,nan,0,-0.301557332277298,0.0389135405421257,0.18652115762233734,-22.470043182373047,-0.10077866539359093,-0.10077866539359093,nan,nan,0,0.21220049262046814,-0.2569686770439148,0.7659512162208557,-4.960456371307373,-0.20389975607395172,-0.20389975607395172,nan,nan,0,0.3354419469833374,0.6209608912467957,0.20872431993484497,-5.671741008758545,0.6577209830284119,0.6577209830284119,nan,nan,0,1.4012523889541626,-0.38278356194496155,-0.6705897450447083,32.2380485534668,0.4906262010335922,0.4906262010335922,nan,nan,0,-1.175884485244751,0.09702480584383011,0.04271073639392853,-18.590688705444336,-0.5879422426223755,-0.5879422426223755,nan,nan,0,-0.3641030192375183,-0.3612598776817322,-0.8467788696289062,-5.1370320320129395,-0.5820515155792236,-0.5820515155792236,nan,nan,0,-0.26130324602127075,-0.06901802122592926,-0.5662448406219482,-3.5353336334228516,-0.18065162375569344,-0.18065162375569344,nan,nan,0,0.22805869579315186,0.31721341609954834,0.080123670399189,-0.6586320400238037,0.4240293502807617,0.4240293502807617,nan,nan,0,-0.3931070864200592,0.6156733632087708,-1.4575616121292114,-1.120696783065796,0.29344646632671356,0.29344646632671356,nan,nan,0,-1.133317232131958,-0.4100000858306885,0.0013719967100769281,-43.28469467163086,-0.7766586095094681,-0.7766586095094681,nan,nan,0,-0.16455420851707458,0.006718695629388094,-0.08124275505542755,-0.12267516553401947,-0.08227710425853729,-0.08227710425853729,nan,nan,0,0,0.9983044266700745,-0.0475461445748806,0.024048026651144028,0.02344169281423092,0.42368555068969727,-0.1392119973897934,-0.13742288947105408,nan,nan,nan,318.3467712402344,0.0,318.3467712402344,0.0,0.0,0.20465590059757233,-0.14555098116397858,-0.09680230170488358
1782893391905074081,0.0896383747458458,-0.9959743618965149,0.4000000059604645,0.0,0.0,1,0,-0.08977603912353516,0.048558492213487625,0.04320356622338295,0.4522310793399811,-0.1700267791748047,-0.16960686445236206,-0.8313551545143127,0.3887074887752533,-0.7832182049751282,-10.808268547058105,-0.015677571296691895,-0.015677571296691895,nan,nan,0,0.18226882815361023,0.040666982531547546,0.20069731771945953,-19.87103271484375,0.14113441482186317,0.14113441482186317,nan,nan,0,0.3213716149330139,-0.24900288879871368,0.7723022103309631,-5.3659162521362305,-0.14931419491767883,-0.14931419491767883,nan,nan,0,0.34174293279647827,0.624129593372345,0.37374356389045715,-5.1378912925720215,0.6608714759349823,0.6608714759349823,nan,nan,0,1.1326793432235718,-0.38958579301834106,-0.6769123077392578,32.961856842041016,0.3563396781682968,0.3563396781682968,nan,nan,0,-1.1565364599227905,0.09647441655397415,-0.004932299256324768,-19.282976150512695,-0.5782682299613953,-0.5782682299613953,nan,nan,0,0.021036192774772644,-0.36921441555023193,-0.8331930041313171,-6.085158824920654,-0.38948190957307816,-0.38948190957307816,nan,nan,0,0.35100889205932617,-0.07559385150671005,-0.7211975455284119,-6.214169979095459,0.12550444528460503,0.12550444528460503,nan,nan,0,0.4125145375728607,0.31848934292793274,0.17206692695617676,-0.7649837732315063,0.5162572711706161,0.5162572711706161,nan,nan,0,-0.41377851366996765,0.5986570119857788,-1.7256114482879639,-2.3048462867736816,0.28311075270175934,0.28311075270175934,nan,nan,0,-0.38781166076660156,-0.4100000858306885,0.0012506109196692705,-36.884071350097656,-0.40390582382678986,-0.40390582382678986,nan,nan,0,-0.3570418357849121,0.0048742638900876045,-0.09559883177280426,-0.10860458016395569,-0.17852091789245605,-0.17852091789245605,nan,nan,0,0,0.998441755771637,-0.04537306725978851,0.023277774453163147,0.022661104798316956,0.4522310793399811,-0.1700267791748047,-0.16960686445236206,nan,nan,nan,318.6852111816406,0.0,318.6852111816406,0.0,0.0,0.20414915680885315,-0.16126801073551178,-0.10977952182292938
1782893391915074081,-9.775241096576792e-07,-1.0,0.4000000059604645,0.0,0.0,1,0,-0.08486318588256836,0.046459343284368515,0.04150300472974777,0.5402414202690125,-0.20996615290641785,-0.20278753340244293,-0.10155558586120605,0.3805652856826782,-0.8298177719116211,-9.63997745513916,0.34922221302986145,0.34922221302986145,nan,nan,0,0.4525679051876068,0.04302668571472168,0.29232320189476013,-17.108135223388672,0.27628395333886147,0.27628395333886147,nan,nan,0,0.15979376435279846,-0.24033156037330627,0.8762127161026001,-4.212772369384766,-0.23010312020778656,-0.23010312020778656,nan,nan,0,0.501634955406189,0.6283785700798035,0.4632572531700134,-5.814482688903809,0.7408174872398376,0.7408174872398376,nan,nan,0,0.5986006259918213,-0.39613357186317444,-0.6368952393531799,32.48051834106445,0.08930031955242157,0.08930031955242157,nan,nan,0,-0.8359854817390442,0.09595587104558945,-0.007742432877421379,-20.546022415161133,-0.4179927408695221,-0.4179927408695221,nan,nan,0,0.6311932802200317,-0.3776996433734894,-0.9123259782791138,-5.422947883605957,-0.08440336585044861,-0.08440336585044861,nan,nan,0,1.7794567346572876,-0.08228091150522232,-0.6363811492919922,-3.1932883262634277,0.8397283665835857,0.8397283665835857,nan,nan,0,0.9377223253250122,0.31931939721107483,0.08457726240158081,-0.352782279253006,0.7788611650466919,0.7788611650466919,nan,nan,0,-0.386544793844223,0.5804345607757568,-1.7898072004318237,-1.7630070447921753,0.29672761261463165,0.29672761261463165,nan,nan,0,0.4394579231739044,-0.4100000262260437,0.0012247057165950537,-31.398174285888672,0.009728968143463135,0.009728968143463135,nan,nan,0,-0.707379162311554,0.002150100190192461,-0.13403208553791046,-0.2515416145324707,-0.353689581155777,-0.353689581155777,nan,nan,0,0,0.9985949397087097,-0.04287979379296303,0.02232172340154648,0.021710818633437157,0.5402414202690125,-0.20996615290641785,-0.20278753340244293,nan,nan,nan,316.19024658203125,0.0,316.19024658203125,0.0,0.0,0.20384544134140015,-0.17502884566783905,-0.12302590906620026
1782893391925074081,-0.08964031934738159,-0.9959741830825806,0.4000000059604645,0.0,0.0,1,0,-0.07896995544433594,0.0438699834048748,0.039566416293382645,0.6484604477882385,-0.26529258489608765,-0.22181233763694763,0.6093726754188538,0.37195655703544617,-0.8825066685676575,-11.848944664001465,0.7046863436698914,0.7046863436698914,nan,nan,0,-0.08835823088884354,0.0464949756860733,0.40988102555274963,-12.506659507751465,0.0058208853006362915,0.0058208853006362915,nan,nan,0,-0.3389805257320404,-0.2306332141160965,0.9926438927650452,-4.745828151702881,-0.479490265250206,-0.479490265250206,nan,nan,0,1.0387169122695923,0.6337237358093262,0.5815582275390625,-4.680423736572266,1.0093584656715393,1.0093584656715393,nan,nan,0,0.07891330122947693,-0.40174350142478943,-0.49826210737228394,33.05479049682617,-0.1705433428287506,-0.1705433428287506,nan,nan,0,-0.25606414675712585,0.09566431492567062,-0.03803572803735733,-22.42039680480957,-0.12803207337856293,-0.12803207337856293,nan,nan,0,0.7768450975418091,-0.3863449990749359,-0.8952801823616028,-5.206153392791748,-0.011577457189559937,-0.011577457189559937,nan,nan,0,3.3527116775512695,-0.08844351023435593,-0.5856196880340576,-4.355377674102783,1.6263558380305767,1.6263558380305767,nan,nan,0,1.274669885635376,0.32110604643821716,0.2728482782840729,-0.1268509030342102,0.9473349452018738,0.9473349452018738,nan,nan,0,-0.1976306140422821,0.5608177185058594,-1.9464242458343506,-2.085390567779541,0.3911847025156021,0.3911847025156021,nan,nan,0,0.8309279084205627,-0.40999987721443176,-1.3505574315786362e-05,-24.60801887512207,0.2054639607667923,0.2054639607667923,nan,nan,0,-1.0493345260620117,-0.0056227706372737885,-0.41315770149230957,-0.7130212783813477,-0.5246672630310059,-0.5246672630310059,nan,nan,0,0,0.9987674951553345,-0.039890993386507034,0.021131154149770737,0.020627377554774284,0.6484604477882385,-0.26529258489608765,-0.22181233763694763,nan,nan,nan,311.9166259765625,0.0,311.9166259765625,0.0,0.0,0.20369461178779602,-0.19005662202835083,-0.13696716725826263
1782893391935074081,-0.17855793237686157,-0.9839293956756592,0.4000000059604645,0.0,0.0,1,1,-0.07222461700439453,0.03999792039394379,0.0384894497692585,0.694617748260498,-0.47300922870635986,-0.0243732538074255,1.0401936769485474,0.3606775403022766,-1.2888473272323608,-11.169322967529297,0.9200968444347382,0.9200968444347382,nan,nan,0,-0.440379798412323,0.05071861296892166,0.43987780809402466,-7.528171539306641,-0.17018989846110344,-0.17018989846110344,nan,nan,0,-0.46895164251327515,-0.21931804716587067,1.157009482383728,-4.996729373931885,-0.5444758236408234,-0.5444758236408234,nan,nan,0,1.5962908267974854,0.6391832828521729,0.5504596829414368,-3.9300076961517334,1.2881454229354858,1.2881454229354858,nan,nan,0,-0.2168085277080536,-0.4045751988887787,0.0017513707280158997,31.986068725585938,-0.31840425729751587,-0.31840425729751587,nan,nan,0,-0.005967710167169571,0.09546633809804916,-0.07017318904399872,-23.492429733276367,-0.0029838550835847855,-0.0029838550835847855,nan,nan,0,0.7538622617721558,-0.3879791498184204,0.7869238257408142,-7.988795757293701,-0.023068875074386597,-0.023068875074386597,nan,nan,0,3.55532169342041,-0.09047266840934753,0.36916694045066833,-5.056269645690918,1.727660845965147,1.727660845965147,nan,nan,0,0.9321537613868713,0.32990774512290955,0.5136692523956299,0.2022436410188675,0.7760768830776215,0.7760768830776215,nan,nan,0,-0.11204171180725098,0.5596277117729187,0.5054720640182495,-32.19590759277344,0.4339791536331177,0.4339791536331177,nan,nan,0,0.9605783224105835,-0.3847145736217499,1.2195820808410645,-14.984112739562988,0.2702891677618027,0.2702891677618027,nan,nan,0,-1.0581703186035156,-0.008469625376164913,-0.3731350004673004,-2.2243709564208984,-0.5290851593017578,-0.5290851593017578,nan,nan,0,0,0.9989492297172546,-0.03647521510720253,0.019286248832941055,0.019949017092585564,0.694617748260498,-0.47300922870635986,-0.0243732538074255,nan,nan,nan,293.63226318359375,132.9959716796875,293.63226318359375,132.9959716796875,0.0,0.21934905648231506,-0.19213075935840607,-0.10842561721801758
1782893391945074081,-0.2660379111766815,-0.9639625549316406,0.4000000059604645,0.0,0.0,1,1,-0.06425952911376953,0.035208165645599365,0.03932039812207222,0.8744174838066101,-0.4582653045654297,0.061439335346221924,1.1979809999465942,0.34876152873039246,-1.1248466968536377,-6.985066890716553,0.9989905059337616,0.9989905059337616,nan,nan,0,-0.5657193064689636,0.05624479427933693,0.4013514220714569,1.7199325561523438,-0.23285965248942375,-0.23285965248942375,nan,nan,0,-0.3440961539745331,-0.20984604954719543,1.3384634256362915,-2.307102918624878,-0.48204807937145233,-0.48204807937145233,nan,nan,0,1.8322187662124634,0.6473990678787231,0.7447934150695801,-6.968317031860352,1.4061093926429749,1.4061093926429749,nan,nan,0,-0.3299417793750763,-0.41083118319511414,-0.40471887588500977,27.841968536376953,-0.3749708831310272,-0.3749708831310272,nan,nan,0,0.029750142246484756,0.07897277921438217,-2.0812759399414062,-20.667896270751953,0.014875071123242378,0.014875071123242378,nan,nan,0,0.36841434240341187,-0.3731430470943451,1.488142967224121,-5.33433198928833,-0.21579283475875854,-0.21579283475875854,nan,nan,0,3.0636725425720215,-0.08258786052465439,1.0890047550201416,4.43978214263916,1.4818362705409527,1.4818362705409527,nan,nan,0,0.8003947734832764,0.33084020018577576,0.02076846733689308,5.99089241027832,0.710197389125824,0.710197389125824,nan,nan,0,-0.17283517122268677,0.551272988319397,-0.797593891620636,-18.540653228759766,0.4035824239253998,0.4035824239253998,nan,nan,0,0.9264905452728271,-0.3444308936595917,3.5060434341430664,-4.890109062194824,0.2532452791929245,0.2532452791929245,nan,nan,0,-1.0815298557281494,-0.025243256241083145,0.5438299179077148,-4.966012001037598,-0.5407649278640747,-0.5407649278640747,nan,nan,0,0,0.9991248846054077,-0.03245890885591507,0.016959255561232567,0.020211122930049896,0.8744174838066101,-0.4582653045654297,0.061439335346221924,nan,nan,nan,310.77740478515625,88.7712631225586,310.77740478515625,88.7712631225586,0.0,0.2318757325410843,-0.20048876106739044,-0.10634195804595947
1782893391955074081,-0.35137587785720825,-0.9362344741821289,0.4000000059604645,0.0,0.0,1,1,-0.0534210205078125,0.03181692212820053,0.04104319587349892,1.1633156538009644,-0.29390305280685425,0.1227155327796936,1.282448410987854,0.3448614776134491,-0.27612045407295227,1.5378667116165161,1.0412242114543915,1.0412242114543915,nan,nan,0,-0.4094335436820984,0.06834503263235092,1.1964833736419678,4.51300048828125,-0.15471677109599113,-0.15471677109599113,nan,nan,0,-0.40933793783187866,-0.20574289560317993,0.5903112292289734,-3.877950429916382,-0.5146689713001251,-0.5146689713001251,nan,nan,0,1.8483840227127075,0.6630473732948303,1.5312496423721313,-8.167318344116211,1.414192020893097,1.414192020893097,nan,nan,0,-0.3410787284374237,-0.4084976017475128,0.5124071836471558,16.53489875793457,-0.3805393576622009,-0.3805393576622009,nan,nan,0,0.028077300637960434,0.06330880522727966,-1.836373209953308,-15.588967323303223,0.014038650318980217,0.014038650318980217,nan,nan,0,0.23907597362995148,-0.3609507083892822,0.9267446398735046,4.011799335479736,-0.28046201914548874,-0.28046201914548874,nan,nan,0,2.4757752418518066,-0.06512881815433502,2.2345943450927734,29.37957763671875,1.1878876201808453,1.1878876201808453,nan,nan,0,0.6311180591583252,0.3319128751754761,-0.0043132491409778595,18.843217849731445,0.6255590319633484,0.6255590319633484,nan,nan,0,-0.12417237460613251,0.5403013825416565,-0.752212643623352,-18.771574020385742,0.4279138222336769,0.4279138222336769,nan,nan,0,0.913108766078949,-0.2999286949634552,0.6366500854492188,13.104978561401367,0.2465543895959854,0.2465543895959854,nan,nan,0,-1.0756561756134033,0.00231717387214303,8.841282844543457,-14.058338165283203,-0.5378280878067017,-0.5378280878067017,nan,nan,0,0,0.9992976784706116,-0.027024662122130394,0.015350796282291412,0.02093501016497612,1.1633156538009644,-0.29390305280685425,0.1227155327796936,nan,nan,nan,156.6158905029297,445.0963134765625,156.6158905029297,445.0963134765625,0.0,0.2335146814584732,-0.19130714237689972,-0.08662945032119751
1782893391965074081,-0.43388479948043823,-0.9009683728218079,0.4000000059604645,0.0,0.0,1,1,-0.041487693786621094,0.030653202906250954,0.04273952171206474,0.9872647523880005,0.017798684537410736,0.019872372969985008,1.3363888263702393,0.3559839725494385,1.745659589767456,4.983715534210205,1.068194419145584,1.068194419145584,nan,nan,0,-0.2264590859413147,0.08360391855239868,1.1779898405075073,-7.482895851135254,-0.06322954222559929,-0.06322954222559929,nan,nan,0,-0.3922368288040161,-0.21348601579666138,-0.6375439763069153,-5.555479526519775,-0.5061184167861938,-0.5061184167861938,nan,nan,0,1.5650160312652588,0.6917352676391602,2.987456798553467,0.9160658121109009,1.2725080251693726,1.2725080251693726,nan,nan,0,-0.39305058121681213,-0.3979617655277252,1.9740997552871704,6.403284072875977,-0.40652528405189514,-0.40652528405189514,nan,nan,0,0.02125469222664833,0.033105917274951935,-2.6398909091949463,-3.6659889221191406,0.010627346113324165,0.010627346113324165,nan,nan,0,0.1572577953338623,-0.35777994990348816,-2.1257872581481934,13.920621871948242,-0.3213711082935333,-0.3213711082935333,nan,nan,0,1.0574347972869873,-0.0454004742205143,0.5950769782066345,62.913631439208984,0.4787173978984356,0.4787173978984356,nan,nan,0,0.46232444047927856,0.3324945271015167,1.5786031484603882,17.60418128967285,0.5411622226238251,0.5411622226238251,nan,nan,0,-0.04875098913908005,0.539975643157959,3.0978844165802,-32.25498962402344,0.46562451496720314,0.46562451496720314,nan,nan,0,0.9500243663787842,-0.3131750226020813,-1.554774284362793,19.543550491333008,0.265012189745903,0.265012189745903,nan,nan,0,-0.980793833732605,0.05206926167011261,-1.7588976621627808,-19.563419342041016,-0.4903969168663025,-0.4903969168663025,nan,nan,0,0,0.9994324445724487,-0.021062711253762245,0.014876029454171658,0.021678855642676353,0.9872647523880005,0.017798684537410736,0.019872372969985008,nan,nan,nan,45.79151153564453,2246.798583984375,45.79151153564453,2246.798583984375,400.0,0.21376465260982513,-0.16852900385856628,-0.0019240687834098935
1782893391975074081,-0.5128994584083557,-0.8584486842155457,0.4000000059604645,0.0,0.0,0,1,-0.032616615295410156,0.029491068795323372,0.045773182064294815,0.8333820700645447,-0.1872527301311493,0.35431572794914246,1.1374789476394653,0.37949779629707336,2.4568350315093994,8.226387977600098,0.9687394797801971,0.9687394797801971,nan,nan,0,0.040617071092128754,0.09338279068470001,0.7068385481834412,-13.028665542602539,0.07030853629112244,0.07030853629112244,nan,nan,0,-0.2568131983280182,-0.2282889038324356,-1.4678690433502197,-4.201340675354004,-0.4384066015481949,-0.4384066015481949,nan,nan,0,1.2605082988739014,0.7384284734725952,4.925380706787109,5.326021671295166,1.1202541589736938,1.1202541589736938,nan,nan,0,-0.3663797676563263,-0.38730496168136597,1.0695316791534424,1.1998913288116455,-0.3931898772716522,-0.3931898772716522,nan,nan,0,0.013307388871908188,0.023997893556952477,-0.35307684540748596,-0.35008010268211365,0.006653694435954094,0.006653694435954094,nan,nan,0,0.46973854303359985,-0.3610721230506897,0.16952049732208252,9.53062629699707,-0.16513073444366455,-0.16513073444366455,nan,nan,0,1.1433157920837402,-0.034899674355983734,1.0242377519607544,66.76936340332031,0.5216578952968121,0.5216578952968121,nan,nan,0,0.3070679008960724,0.3341669738292694,-0.3035743832588196,16.612253189086914,0.463533952832222,0.463533952832222,nan,nan,0,0.18335729837417603,0.5517842173576355,0.7576122283935547,-20.155019760131836,0.5816786587238312,0.5816786587238312,nan,nan,0,1.340052604675293,-0.3232240378856659,-0.831122636795044,21.78460693359375,0.4600263088941574,0.4600263088941574,nan,nan,0,-0.7481727600097656,0.04971097782254219,-1.874884843826294,-18.921598434448242,-0.3740863800048828,-0.3740863800048828,nan,nan,0,0,0.9994909763336182,-0.01663883961737156,0.01436602883040905,0.023119449615478516,0.8333820700645447,-0.1872527301311493,0.35431572794914246,nan,nan,nan,0.0,550.8235473632812,0.0,550.8235473632812,0.0,0.22006264328956604,-0.13813380897045135,0.05988575518131256
1782893391985074081,-0.5877862572669983,-0.8090162873268127,0.4000000059604645,0.0,0.0,0,1,-0.024393558502197266,0.02793910540640354,0.049406297504901886,0.801756739616394,-0.16193972527980804,0.3257197141647339,1.0308233499526978,0.40878286957740784,3.0057127475738525,8.133514404296875,0.9154116809368134,0.9154116809368134,nan,nan,0,0.13058829307556152,0.09734650701284409,0.10545254498720169,-13.837138175964355,0.11529414728283882,0.11529414728283882,nan,nan,0,-0.11105630546808243,-0.24147562682628632,-1.0638306140899658,-3.183581590652466,-0.365528155118227,-0.365528155118227,nan,nan,0,0.9995054006576538,0.7948580980300903,5.572216510772705,4.888163089752197,0.9897527098655701,0.9897527098655701,nan,nan,0,-0.484155535697937,-0.38746336102485657,0.03415463864803314,-0.20358651876449585,-0.4520777612924576,-0.4520777612924576,nan,nan,0,0.005896527320146561,0.022710923105478287,-0.029499810189008713,0.13071683049201965,0.0029482636600732803,0.0029482636600732803,nan,nan,0,0.0941799134016037,-0.35695111751556396,0.572850227355957,2.177311420440674,-0.35291004925966263,-0.35291004925966263,nan,nan,0,0.6730924844741821,-0.022920746356248856,1.1589528322219849,56.01520919799805,0.286546241492033,0.286546241492033,nan,nan,0,0.5116963982582092,0.3303546905517578,-0.5713254809379578,15.732685089111328,0.5658482015132904,0.5658482015132904,nan,nan,0,0.008972153067588806,0.5553534626960754,0.16125178337097168,-16.917322158813477,0.49448608607053757,0.49448608607053757,nan,nan,0,1.1280028820037842,-0.3311113715171814,-0.7330211400985718,21.290624618530273,0.354001447558403,0.354001447558403,nan,nan,0,-0.8075273036956787,0.05138659104704857,-1.1968586444854736,-19.79468536376953,-0.40376365184783936,-0.40376365184783936,nan,nan,0,0,0.999518871307373,-0.012536588124930859,0.013662565499544144,0.02486671321094036,0.801756739616394,-0.16193972527980804,0.3257197141647339,nan,nan,nan,0.0,383.6990966796875,0.0,383.6990966796875,0.0,0.22438977658748627,-0.12253694236278534,0.06679454445838928
1782893391995074081,-0.6579396724700928,-0.7530706524848938,0.4000000059604645,0.0,0.0,0,1,-0.01645040512084961,0.026961674913764,0.05232219770550728,0.7820599675178528,-0.08314686268568039,0.2504407465457916,0.9610826373100281,0.44141265749931335,3.278369426727295,7.589908123016357,0.8805413246154785,0.8805413246154785,nan,nan,0,0.29743608832359314,0.09676281362771988,-0.22854314744472504,-9.298306465148926,0.19871804490685463,0.19871804490685463,nan,nan,0,-0.028828270733356476,-0.254379540681839,-1.244468092918396,-3.147897481918335,-0.32441413775086403,-0.32441413775086403,nan,nan,0,1.0034946203231812,0.8500403165817261,5.207296371459961,3.2656257152557373,0.9917473196983337,0.9917473196983337,nan,nan,0,-0.5318424701690674,-0.3867310583591461,0.42716577649116516,0.8629301190376282,-0.47592122852802277,-0.47592122852802277,nan,nan,0,0.02001180127263069,0.020939841866493225,0.011830992996692657,0.33203208446502686,0.010005900636315346,0.010005900636315346,nan,nan,0,0.1898382157087326,-0.3532564342021942,0.40439215302467346,0.5725916624069214,-0.3050808981060982,-0.3050808981060982,nan,nan,0,0.6175526976585388,-0.011270337738096714,1.1078071594238281,43.844120025634766,0.25877634808421135,0.25877634808421135,nan,nan,0,0.5012512803077698,0.3274078667163849,-0.3473603129386902,12.133772850036621,0.5606256425380707,0.5606256425380707,nan,nan,0,0.022685334086418152,0.5578298568725586,0.14437343180179596,-14.471779823303223,0.5013426765799522,0.5013426765799522,nan,nan,0,1.0959055423736572,-0.338134765625,-0.4452700614929199,21.258804321289062,0.33795277774333954,0.33795277774333954,nan,nan,0,-0.8292457461357117,0.05321744829416275,-0.923166036605835,-19.984121322631836,-0.41462287306785583,-0.41462287306785583,nan,nan,0,0,0.9995302557945251,-0.008574210107326508,0.01326022483408451,0.026265693828463554,0.7820599675178528,-0.08314686268568039,0.2504407465457916,nan,nan,nan,0.0,347.8513488769531,0.0,347.8513488769531,0.0,0.2291780412197113,-0.10792932659387589,0.060098856687545776
1782893392005074081,-0.7227957844734192,-0.6910617351531982,0.4000000059604645,0.0,0.0,0,1,-0.00930166244506836,0.02684030495584011,0.05379359424114227,0.663329541683197,0.031153805553913116,0.08772393316030502,1.0179060697555542,0.47351059317588806,3.2407755851745605,7.625075817108154,0.9089530408382416,0.9089530408382416,nan,nan,0,0.12716111540794373,0.09162826091051102,-0.6920838356018066,-4.030210494995117,0.11358055844902992,0.11358055844902992,nan,nan,0,-0.03082665055990219,-0.2665949761867523,-1.2536163330078125,-2.6602725982666016,-0.3254133276641369,-0.3254133276641369,nan,nan,0,1.0743441581726074,0.8923636078834534,3.736830711364746,0.035732924938201904,1.0271720886230469,1.0271720886230469,nan,nan,0,-0.5548110008239746,-0.3877947926521301,-0.3068206012248993,-1.3299198150634766,-0.4874054938554764,-0.4874054938554764,nan,nan,0,0.026605624705553055,0.018269499763846397,-0.29794394969940186,-0.6923036575317383,0.013302812352776527,0.013302812352776527,nan,nan,0,0.11957798898220062,-0.35220950841903687,0.17517703771591187,0.05442056059837341,-0.34021101146936417,-0.34021101146936417,nan,nan,0,0.2897017002105713,-0.001556132803671062,0.8731033802032471,15.750131607055664,0.09485084936022758,0.09485084936022758,nan,nan,0,0.4246087372303009,0.32740822434425354,-0.12131667137145996,8.204850196838379,0.5223043709993362,0.5223043709993362,nan,nan,0,0.015211299061775208,0.561459481716156,0.26311808824539185,-12.421943664550781,0.49760565906763077,0.49760565906763077,nan,nan,0,1.1294947862625122,-0.3446044921875,-1.1560109853744507,22.465076446533203,0.35474739968776703,0.35474739968776703,nan,nan,0,-0.8456836342811584,0.05384264513850212,-1.0182762145996094,-18.323081970214844,-0.4228418171405792,-0.4228418171405792,nan,nan,0,0,0.999535858631134,-0.005009660962969065,0.013289682567119598,0.026953235268592834,0.663329541683197,0.031153805553913116,0.08772393316030502,nan,nan,nan,0.0,245.77813720703125,0.0,245.77813720703125,0.0,0.2372409999370575,-0.09775190055370331,0.03863516449928284
1782893392015074081,-0.7818323373794556,-0.6234887838363647,0.4000000059604645,0.0,0.0,0,1,-0.002780437469482422,0.02689521573483944,0.0540938600897789,0.6349010467529297,-0.00912707019597292,0.02137710340321064,1.0042341947555542,0.5008624196052551,2.5754244327545166,5.7366485595703125,0.9021171033382416,0.9021171033382416,nan,nan,0,0.2880750298500061,0.0837622880935669,-0.8030592799186707,2.059023380279541,0.1940375156700611,0.1940375156700611,nan,nan,0,-0.10626906901597977,-0.2762506604194641,-0.9543464779853821,-1.1581087112426758,-0.3631345368921757,-0.3631345368921757,nan,nan,0,1.249330997467041,0.9169936776161194,2.014586925506592,-0.33824270963668823,1.1146655082702637,1.1146655082702637,nan,nan,0,-0.6144417524337769,-0.3863920569419861,-0.1555170863866806,-0.9962277412414551,-0.5172208696603775,-0.5172208696603775,nan,nan,0,0.03974531218409538,0.015391554683446884,-0.2662220895290375,-0.7488685846328735,0.01987265609204769,0.01987265609204769,nan,nan,0,0.22929628193378448,-0.3522198796272278,0.04968789219856262,5.172586917877197,-0.28535186499357224,-0.28535186499357224,nan,nan,0,0.4941001534461975,0.0070801228284835815,0.8200348615646362,17.2731876373291,0.1970500759780407,0.1970500759780407,nan,nan,0,0.32347729802131653,0.3291047215461731,0.13095369935035706,3.787562131881714,0.47173865139484406,0.47173865139484406,nan,nan,0,0.03914409875869751,0.5659055113792419,0.4033893942832947,-2.117692708969116,0.5095720589160919,0.5095720589160919,nan,nan,0,1.1468689441680908,-0.3513052761554718,-0.24610638618469238,27.730640411376953,0.36343447864055634,0.36343447864055634,nan,nan,0,-0.8381069302558899,0.056232377886772156,-0.23725008964538574,-15.2640380859375,-0.41905346512794495,-0.41905346512794495,nan,nan,0,0,0.9995424151420593,-0.0017532827332615852,0.01340467669069767,0.027059853076934814,0.6349010467529297,-0.00912707019597292,0.02137710340321064,nan,nan,nan,0.0,252.51283264160156,0.0,252.51283264160156,0.0,0.24041517078876495,-0.0847957506775856,0.013147328048944473
1782893392025074081,-0.8345740437507629,-0.5508958697319031,0.4000000059604645,0.0,0.0,0,1,0.0031438726000487804,0.027228597551584244,0.05322863161563873,0.5555239319801331,0.06814946979284286,-0.13662073016166687,1.0508134365081787,0.5236098170280457,2.234285593032837,4.544912815093994,0.9254067242145538,0.9254067242145538,nan,nan,0,0.2401893436908722,0.07477416098117828,-0.9120334982872009,4.561646461486816,0.17009467259049416,0.17009467259049416,nan,nan,0,-0.10961804538965225,-0.2824942469596863,-0.5871454477310181,0.14600318670272827,-0.3648090250790119,-0.3648090250790119,nan,nan,0,1.2454893589019775,0.927218496799469,0.6468708515167236,-0.9628663063049316,1.112744688987732,1.112744688987732,nan,nan,0,-0.6708360910415649,-0.39362818002700806,-0.6767815351486206,-1.0571496486663818,-0.5454180389642715,-0.5454180389642715,nan,nan,0,0.04216385260224342,0.012973029166460037,-0.2632645070552826,-0.7944526076316833,0.02108192630112171,0.02108192630112171,nan,nan,0,0.14127404987812042,-0.3542305529117584,-0.2167075276374817,0.9509067535400391,-0.32936298102140427,-0.32936298102140427,nan,nan,0,0.5272173285484314,0.014370921067893505,0.6436055302619934,8.120339393615723,0.21360866352915764,0.21360866352915764,nan,nan,0,0.28145697712898254,0.333183616399765,0.3840160369873047,6.452412128448486,0.45072849094867706,0.45072849094867706,nan,nan,0,0.034838199615478516,0.5721268057823181,0.5540591478347778,-13.40339183807373,0.5074191093444824,0.5074191093444824,nan,nan,0,1.1207408905029297,-0.3586612045764923,-0.5589785575866699,25.80314064025879,0.35037045180797577,0.35037045180797577,nan,nan,0,-0.8309957981109619,0.05811803415417671,-0.5596179366111755,-15.71088981628418,-0.41549789905548096,-0.41549789905548096,nan,nan,0,0,0.9995526075363159,0.0012089525116607547,0.013650867156684399,0.026587285101413727,0.5555239319801331,0.06814946979284286,-0.13662073016166687,nan,nan,nan,0.0,305.4691467285156,0.0,305.4691467285156,0.0,0.24760283529758453,-0.06799212843179703,-0.0008103151922114193
1782893392035074081,-0.8805962204933167,-0.47386741638183594,0.4000000059604645,0.0,0.0,0,1,0.008131084032356739,0.028149569407105446,0.051450684666633606,0.46424517035484314,0.09923048317432404,-0.2010272741317749,1.08096444606781,0.5456246733665466,2.1597070693969727,3.0132315158843994,0.9404822289943695,0.9404822289943695,nan,nan,0,0.30906957387924194,0.06634464114904404,-0.7826961874961853,7.885278701782227,0.20453478768467903,0.20453478768467903,nan,nan,0,-0.0404559001326561,-0.28765279054641724,-0.4915880262851715,1.4250738620758057,-0.33022795245051384,-0.33022795245051384,nan,nan,0,1.2832566499710083,0.932653546333313,0.4327526092529297,1.1000211238861084,1.1316283345222473,1.1316283345222473,nan,nan,0,-0.7263127565383911,-0.40710344910621643,-0.9786778688430786,-1.241377592086792,-0.5731563717126846,-0.5731563717126846,nan,nan,0,0.04388957843184471,0.013379493728280067,-0.12234299629926682,-0.6360675096511841,0.021944789215922356,0.021944789215922356,nan,nan,0,0.12551741302013397,-0.35758236050605774,-0.2609615623950958,2.690457582473755,-0.3372412994503975,-0.3372412994503975,nan,nan,0,0.7070863246917725,0.02012699656188488,0.5135049223899841,7.207789421081543,0.30354316160082817,0.30354316160082817,nan,nan,0,0.23686420917510986,0.33885806798934937,0.45794105529785156,5.694622993469238,0.4284321069717407,0.4284321069717407,nan,nan,0,0.03951177000999451,0.5786018371582031,0.5486594438552856,-13.436408996582031,0.5097558945417404,0.5097558945417404,nan,nan,0,1.0732306241989136,-0.3655323088169098,-0.5045154094696045,25.460620880126953,0.3266153186559677,0.3266153186559677,nan,nan,0,-0.8561719059944153,0.05993404611945152,-0.5820111036300659,-16.131046295166016,-0.42808595299720764,-0.42808595299720764,nan,nan,0,0,0.9995632767677307,0.003701759036630392,0.014174113050103188,0.02566254325211048,0.46424517035484314,0.09923048317432404,-0.2010272741317749,nan,nan,nan,0.0,323.0927734375,0.0,323.0927734375,0.0,0.25162070989608765,-0.0460636131465435,-0.010471964254975319
1782893392045074081,-0.9195279479026794,-0.39302459359169006,0.4000000059604645,0.0,0.0,0,1,0.011705147102475166,0.029467107728123665,0.04906432330608368,0.29680395126342773,0.13733991980552673,-0.27017176151275635,1.1130294799804688,0.5693542957305908,2.412924289703369,2.4155642986297607,0.9565147459506989,0.9565147459506989,nan,nan,0,0.26550012826919556,0.0578237920999527,-0.9016309380531311,5.108348846435547,0.18275006487965584,0.18275006487965584,nan,nan,0,-0.0022298917174339294,-0.2924337685108185,-0.42536404728889465,1.3238694667816162,-0.31111494824290276,-0.31111494824290276,nan,nan,0,1.315830111503601,0.9388657808303833,0.6446480751037598,2.0141055583953857,1.1479150652885437,1.1479150652885437,nan,nan,0,-0.7714555263519287,-0.4099999964237213,8.590874494984746e-05,-3.329892635345459,-0.5957277566194534,-0.5957277566194534,nan,nan,0,0.04803398624062538,0.014231071807444096,-0.09904945641756058,-0.5634394288063049,0.02401699312031269,0.02401699312031269,nan,nan,0,0.2164556235074997,-0.36096853017807007,-0.2140835076570511,1.5837256908416748,-0.29177219420671463,-0.29177219420671463,nan,nan,0,0.8439958095550537,0.023882558569312096,0.2850151062011719,1.155471682548523,0.3719979040324688,0.3719979040324688,nan,nan,0,0.18680806457996368,0.3447191119194031,0.43709683418273926,4.242382526397705,0.40340403467416763,0.40340403467416763,nan,nan,0,0.07205305993556976,0.5846551656723022,0.46072837710380554,-13.455865859985352,0.526026539504528,0.526026539504528,nan,nan,0,1.1409239768981934,-0.3717857003211975,-0.46641474962234497,26.23729133605957,0.3604619950056076,0.3604619950056076,nan,nan,0,-0.8218664526939392,0.061115968972444534,-0.5127366781234741,-16.514324188232422,-0.4109332263469696,-0.4109332263469696,nan,nan,0,0,0.999575674533844,0.005488754250109196,0.014871880412101746,0.024440418928861618,0.29680395126342773,0.13733991980552673,-0.27017176151275635,nan,nan,nan,0.0,310.1231384277344,0.0,310.1231384277344,0.0,0.25461244583129883,-0.027805760502815247,-0.026141846552491188
1782893392055074081,-0.9510566592216492,-0.30901649594306946,0.4000000059604645,0.0,0.0,0,1,0.013869860209524632,0.03086649626493454,0.04660636559128761,0.17576657235622406,0.11347787827253342,-0.24250133335590363,1.1639450788497925,0.5951476097106934,2.4859800338745117,1.1079882383346558,0.9819725453853607,0.9819725453853607,nan,nan,0,0.2842133045196533,0.050371941179037094,-0.6777979731559753,8.025284767150879,0.19210665300488472,0.19210665300488472,nan,nan,0,-0.00961223989725113,-0.29936015605926514,-0.6917449235916138,1.409569501876831,-0.31480612233281136,-0.31480612233281136,nan,nan,0,1.3042656183242798,0.9505193829536438,1.2487518787384033,3.599342107772827,1.142132818698883,1.142132818698883,nan,nan,0,-0.8340631723403931,-0.4099999964237213,0.00010305493196938187,-4.373454570770264,-0.6270315796136856,-0.6270315796136856,nan,nan,0,0.04703909531235695,0.015402168966829777,0.0037528760731220245,-0.2399977147579193,0.023519547656178474,0.023519547656178474,nan,nan,0,0.3621375560760498,-0.3632240891456604,-0.053973663598299026,2.908848285675049,-0.21893122792243958,-0.21893122792243958,nan,nan,0,1.1463301181793213,0.02605428360402584,0.156327486038208,5.61253547668457,0.5231650583446026,0.5231650583446026,nan,nan,0,0.23682722449302673,0.34940260648727417,0.27542465925216675,2.834920883178711,0.42841361463069916,0.42841361463069916,nan,nan,0,0.12294302880764008,0.589905321598053,0.42099037766456604,-12.578699111938477,0.5514715239405632,0.5514715239405632,nan,nan,0,1.2173231840133667,-0.3777333199977875,-0.4395580291748047,26.734210968017578,0.3986615985631943,0.3986615985631943,nan,nan,0,-0.8435230851173401,0.062120288610458374,-0.7153254747390747,-16.312532424926758,-0.42176154255867004,-0.42176154255867004,nan,nan,0,0,0.999587893486023,0.006572577636688948,0.015589645132422447,0.02319074422121048,0.17576657235622406,0.11347787827253342,-0.24250133335590363,nan,nan,nan,0.0,320.7266540527344,0.0,320.7266540527344,0.0,0.25608617067337036,-0.003617767943069339,-0.03477064147591591
1782893392065074081,-0.9749282598495483,-0.22251944243907928,0.4000000059604645,0.0,0.0,0,1,0.015042711980640888,0.032050199806690216,0.04412747919559479,0.08840230107307434,0.11066273599863052,-0.2550504803657532,1.2304831743240356,0.6193739771842957,2.321584939956665,1.608290433883667,1.0152415931224823,1.0152415931224823,nan,nan,0,0.24837851524353027,0.04437362775206566,-0.542844831943512,6.888872146606445,0.1741892583668232,0.1741892583668232,nan,nan,0,-0.017448417842388153,-0.3060852587223053,-0.6147341728210449,1.2696613073349,-0.31872421130537987,-0.31872421130537987,nan,nan,0,1.242516040802002,0.9630367159843445,1.1970577239990234,2.5481293201446533,1.1112580299377441,1.1112580299377441,nan,nan,0,-0.9248955249786377,-0.4100000262260437,0.0001244777231477201,-5.360367298126221,-0.6724477559328079,-0.6724477559328079,nan,nan,0,0.03688782826066017,0.015178149566054344,0.012569872662425041,-0.19435852766036987,0.018443914130330086,0.018443914130330086,nan,nan,0,0.4158320426940918,-0.3640395998954773,0.02915213629603386,0.6413341760635376,-0.19208398461341858,-0.19208398461341858,nan,nan,0,1.3914417028427124,0.027363978326320648,0.07421258091926575,6.456825256347656,0.6457208506762981,0.6457208506762981,nan,nan,0,0.31415116786956787,0.3527972102165222,0.209634467959404,2.357511043548584,0.4670755863189697,0.4670755863189697,nan,nan,0,0.13391231000423431,0.5945824980735779,0.37761613726615906,-12.597826957702637,0.5569561645388603,0.5569561645388603,nan,nan,0,1.233867883682251,-0.3835752606391907,-0.4508318305015564,26.478256225585938,0.4069339483976364,0.4069339483976364,nan,nan,0,-0.8718258738517761,0.0628485307097435,-0.6573525071144104,-16.21164894104004,-0.43591293692588806,-0.43591293692588806,nan,nan,0,0,0.9996026158332825,0.0071649691089987755,0.016185972839593887,0.02193799987435341,0.08840230107307434,0.11066273599863052,-0.2550504803657532,nan,nan,nan,0.0,313.04833984375,0.0,313.04833984375,0.0,0.2599358856678009,0.01767704263329506,-0.04751031473278999
1782893392075074081,-0.9909498691558838,-0.13423265516757965,0.4000000059604645,0.0,0.0,0,1,0.015519005246460438,0.0332038588821888,0.04168335720896721,0.029286669567227364,0.10346998274326324,-0.23514743149280548,1.240862488746643,0.6419076919555664,2.1369717121124268,1.9283685684204102,1.020431250333786,1.020431250333786,nan,nan,0,0.2630019783973694,0.04025111719965935,-0.3238147795200348,7.790127754211426,0.18150098994374275,0.18150098994374275,nan,nan,0,-0.019629858434200287,-0.3113802671432495,-0.43556442856788635,1.9656472206115723,-0.31981493160128593,-0.31981493160128593,nan,nan,0,1.228300929069519,0.9757028222084045,1.2387264966964722,2.7919318675994873,1.1041504740715027,1.1041504740715027,nan,nan,0,-0.981437087059021,-0.4100000262260437,0.0001436631428077817,-6.331220626831055,-0.7007185369729996,-0.7007185369729996,nan,nan,0,0.03232003375887871,0.015608779154717922,0.02991289272904396,-0.18820859491825104,0.016160016879439354,0.016160016879439354,nan,nan,0,0.46739572286605835,-0.36441338062286377,0.07650262117385864,0.29123011231422424,-0.1663021445274353,-0.1663021445274353,nan,nan,0,1.606831669807434,0.028100108727812767,0.027706952765583992,10.205574989318848,0.753415834158659,0.753415834158659,nan,nan,0,0.3692280948162079,0.35566967725753784,0.15408635139465332,1.6594644784927368,0.49461404979228973,0.49461404979228973,nan,nan,0,0.13749122619628906,0.5992594361305237,0.38890790939331055,-12.990378379821777,0.5587456226348877,0.5587456226348877,nan,nan,0,1.2583636045455933,-0.3895629346370697,-0.43837398290634155,25.843908309936523,0.41918180882930756,0.41918180882930756,nan,nan,0,-0.9058855772018433,0.06366361677646637,-0.7432987093925476,-16.619230270385742,-0.45294278860092163,-0.45294278860092163,nan,nan,0,0,0.9996175765991211,0.007410709280520678,0.016758747398853302,0.020707882940769196,0.029286669567227364,0.10346998274326324,-0.23514743149280548,nan,nan,nan,0.0,321.5065612792969,0.0,321.5065612792969,0.0,0.2637835741043091,0.04063495248556137,-0.05669138580560684
1782893392085074081,-0.9989930987358093,-0.04486418515443802,0.4000000059604645,0.0,0.0,0,1,0.015406303107738495,0.034108035266399384,0.039587970823049545,-0.030979225412011147,0.07048629224300385,-0.18993140757083893,1.2620006799697876,0.6624093651771545,1.9397419691085815,2.40102219581604,1.0310003459453583,1.0310003459453583,nan,nan,0,0.22297433018684387,0.03788381814956665,-0.17674294114112854,6.543623924255371,0.16148716583848,0.16148716583848,nan,nan,0,-0.04543193429708481,-0.31456419825553894,-0.22403162717819214,1.8841710090637207,-0.3327159695327282,-0.3327159695327282,nan,nan,0,1.1948148012161255,0.9887420535087585,1.2827088832855225,2.6915876865386963,1.087407410144806,1.087407410144806,nan,nan,0,-1.0452746152877808,-0.4100000262260437,0.00015958474250510335,-7.121228218078613,-0.7326373010873795,-0.7326373010873795,nan,nan,0,0.03497449681162834,0.016271185129880905,0.03098270110785961,-0.1399902105331421,0.01748724840581417,0.01748724840581417,nan,nan,0,0.5682556629180908,-0.3636056184768677,0.22941094636917114,1.1838265657424927,-0.11587217450141907,-0.11587217450141907,nan,nan,0,1.8215630054473877,0.028646143153309822,0.01058925874531269,12.95608901977539,0.8607815019786358,0.8607815019786358,nan,nan,0,0.40148094296455383,0.35722288489341736,0.00110568106174469,1.3755788803100586,0.5107404738664627,0.5107404738664627,nan,nan,0,0.15698730945587158,0.603670597076416,0.34435832500457764,-11.46900749206543,0.568493664264679,0.568493664264679,nan,nan,0,1.296999216079712,-0.39570724964141846,-0.42962509393692017,27.270923614501953,0.4384996145963669,0.4384996145963669,nan,nan,0,-0.933466374874115,0.06446897238492966,-0.7176997661590576,-16.038272857666016,-0.4667331874370575,-0.4667331874370575,nan,nan,0,0,0.9996317028999329,0.007362928241491318,0.01720178686082363,0.019657893106341362,-0.030979225412011147,0.07048629224300385,-0.18993140757083893,nan,nan,nan,0.0,317.6220703125,0.0,317.6220703125,0.0,0.2674415707588196,0.06289307773113251,-0.0652938187122345
1782893392095074081,-0.9989929795265198,0.04486646503210068,0.4000000059604645,0.0,0.0,0,1,0.014959117397665977,0.034687068313360214,0.0379992239177227,-0.04944900423288345,0.03945155814290047,-0.13450972735881805,1.2903372049331665,0.680515706539154,1.6956486701965332,3.3649775981903076,1.0451686084270477,1.0451686084270477,nan,nan,0,0.1787240207195282,0.03756006807088852,0.06016255542635918,5.895542144775391,0.13936201110482216,0.13936201110482216,nan,nan,0,-0.09959570318460464,-0.3163853883743286,-0.13369859755039215,1.4267568588256836,-0.3597978539764881,-0.3597978539764881,nan,nan,0,1.124932050704956,1.0010675191879272,1.1724743843078613,1.930469036102295,1.0524660348892212,1.0524660348892212,nan,nan,0,-1.1184701919555664,-0.4099999964237213,0.00018102041212841868,-8.216875076293945,-0.7692350894212723,-0.7692350894212723,nan,nan,0,0.04890523478388786,0.016318917274475098,0.0005107317119836807,-0.14277029037475586,0.02445261739194393,0.02445261739194393,nan,nan,0,0.7292404770851135,-0.3617843687534332,0.30380645394325256,3.0736141204833984,-0.035379767417907715,-0.035379767417907715,nan,nan,0,1.998888373374939,0.029401803389191628,0.05144788324832916,18.846546173095703,0.9494441859424114,0.9494441859424114,nan,nan,0,0.42430180311203003,0.3575175404548645,-0.09974579513072968,3.0887210369110107,0.5221509039402008,0.5221509039402008,nan,nan,0,0.19426216185092926,0.6081246137619019,0.36984580755233765,-9.495766639709473,0.5871310904622078,0.5871310904622078,nan,nan,0,1.3461124897003174,-0.4023076891899109,-0.4511335492134094,28.839941024780273,0.4630562514066696,0.4630562514066696,nan,nan,0,-0.9645538330078125,0.06546447426080704,-0.6901799440383911,-16.51469612121582,-0.48227691650390625,-0.48227691650390625,nan,nan,0,0,0.9996436834335327,0.007147539407014847,0.01748112589120865,0.018865389749407768,-0.04944900423288345,0.03945155814290047,-0.13450972735881805,nan,nan,nan,0.0,318.6033935546875,0.0,318.6033935546875,0.0,0.2706512212753296,0.08527352660894394,-0.07530665397644043
1782893392105074081,-0.9909496903419495,0.1342339813709259,0.4000000059604645,0.0,0.0,0,1,0.014424746856093407,0.03500847518444061,0.036867085844278336,-0.05510818585753441,0.02114754542708397,-0.09168513864278793,1.3017807006835938,0.6960443258285522,1.472427248954773,4.591491222381592,1.0508903563022614,1.0508903563022614,nan,nan,0,0.14146339893341064,0.03920536860823631,0.23855237662792206,4.5730085372924805,0.12073170021176338,0.12073170021176338,nan,nan,0,-0.14665216207504272,-0.317009299993515,-0.033049944788217545,0.9695764780044556,-0.38332608342170715,-0.38332608342170715,nan,nan,0,1.0051379203796387,1.010685920715332,0.8605963587760925,0.935600757598877,0.9925689697265625,0.9925689697265625,nan,nan,0,-1.1922988891601562,-0.4099999964237213,0.00020919099915772676,-9.806461334228516,-0.8061494380235672,-0.8061494380235672,nan,nan,0,0.05494953319430351,0.017465488985180855,0.21561720967292786,0.502896249294281,0.027474766597151756,0.027474766597151756,nan,nan,0,0.7911012768745422,-0.3594475984573364,0.3351392447948456,3.6801230907440186,-0.004449367523193359,-0.004449367523193359,nan,nan,0,2.1004421710968018,0.030643347650766373,0.10610251128673553,23.572128295898438,1.0002210848033428,1.0002210848033428,nan,nan,0,0.46122288703918457,0.3570491671562195,-0.16823656857013702,4.708698272705078,0.5406114459037781,0.5406114459037781,nan,nan,0,0.21147523820400238,0.6128799915313721,0.3974077105522156,-9.677635192871094,0.5957376286387444,0.5957376286387444,nan,nan,0,1.3613914251327515,-0.4094712734222412,-0.47396689653396606,29.38735008239746,0.47069571912288666,0.47069571912288666,nan,nan,0,-0.9926891922950745,0.06683067232370377,-0.6627764105796814,-17.03391456604004,-0.49634459614753723,-0.49634459614753723,nan,nan,0,0,0.9996532797813416,0.006887358613312244,0.017632832750678062,0.018302977085113525,-0.05510818585753441,0.02114754542708397,-0.09168513864278793,nan,nan,nan,0.0,324.5362243652344,0.0,324.5362243652344,0.0,0.27485209703445435,0.1070261225104332,-0.08374550938606262
1782893392115074081,-0.9749277234077454,0.22252167761325836,0.4000000059604645,0.0,0.0,0,1,0.013300786726176739,0.035214707255363464,0.03598616644740105,-0.20048514008522034,0.014259143732488155,-0.09423119574785233,1.2708812952041626,0.7101971507072449,1.383976936340332,4.592782974243164,1.0354406535625458,1.0354406535625458,nan,nan,0,0.1339779496192932,0.041752953082323074,0.1852216273546219,4.8321075439453125,0.11698897555470467,0.11698897555470467,nan,nan,0,-0.1788056194782257,-0.3174024820327759,-0.02789323776960373,0.9086539149284363,-0.39940281212329865,-0.39940281212329865,nan,nan,0,0.9193018674850464,1.0179078578948975,0.6014851331710815,2.0701358318328857,0.9496509432792664,0.9496509432792664,nan,nan,0,-1.2140928506851196,-0.4099999964237213,0.00023348606191575527,-10.795950889587402,-0.8170464187860489,-0.8170464187860489,nan,nan,0,0.06227267161011696,0.01764988899230957,0.17100989818572998,0.4407989978790283,0.03113633580505848,0.03113633580505848,nan,nan,0,0.8455520272254944,-0.35825052857398987,-0.03832338750362396,6.24468994140625,0.022776007652282715,0.022776007652282715,nan,nan,0,2.062173843383789,0.03107222355902195,-0.07485975325107574,29.822513580322266,0.9810869209468365,0.9810869209468365,nan,nan,0,0.4667437970638275,0.35738229751586914,0.2830798625946045,3.374440908432007,0.5433719009160995,0.5433719009160995,nan,nan,0,0.2243788242340088,0.6193248629570007,0.7276144027709961,-13.739508628845215,0.6021894216537476,0.6021894216537476,nan,nan,0,1.3717188835144043,-0.41260209679603577,0.8387905359268188,28.188079833984375,0.4758594483137131,0.4758594483137131,nan,nan,0,-1.0034921169281006,0.06786102056503296,1.300731897354126,-19.056488037109375,-0.5017460584640503,-0.5017460584640503,nan,nan,0,0,0.9996631145477295,0.006331466604024172,0.0177228394895792,0.017871854826807976,-0.20048514008522034,0.014259143732488155,-0.09423119574785233,nan,nan,nan,0.0,643.9396362304688,0.0,643.9396362304688,0.0,0.27318906784057617,0.14752651751041412,-0.021150818094611168
1782893392125074081,-0.9510560035705566,0.30901864171028137,0.4000000059604645,0.0,0.0,0,1,0.011071774177253246,0.03489134833216667,0.03566387668251991,-0.22404791414737701,-0.046339672058820724,-0.003944471478462219,1.2237848043441772,0.722707211971283,1.2080910205841064,5.2316203117370605,1.011892408132553,1.011892408132553,nan,nan,0,0.19050297141075134,0.044175516813993454,0.3169151842594147,3.488680839538574,0.14525148645043373,0.14525148645043373,nan,nan,0,-0.24560195207595825,-0.3179568946361542,-0.06599929928779602,0.5674978494644165,-0.4328009784221649,-0.4328009784221649,nan,nan,0,0.7939556837081909,1.0231631994247437,0.5082427859306335,0.9268577098846436,0.8869778513908386,0.8869778513908386,nan,nan,0,-1.2001605033874512,-0.4100000560283661,0.0002604047185741365,-11.913121223449707,-0.8100802451372147,-0.8100802451372147,nan,nan,0,0.0744488388299942,0.017893565818667412,0.1678658127784729,0.46738797426223755,0.0372244194149971,0.0372244194149971,nan,nan,0,0.9846543669700623,-0.35391831398010254,0.6729563474655151,4.896442890167236,0.09232717752456665,0.09232717752456665,nan,nan,0,2.194283962249756,0.030948277562856674,-0.05130806192755699,31.969724655151367,1.0471419803798199,1.0471419803798199,nan,nan,0,0.45560315251350403,0.3547699451446533,-0.4132261276245117,6.81943416595459,0.5378015786409378,0.5378015786409378,nan,nan,0,0.27135369181632996,0.6237987279891968,0.2304147481918335,-6.776369094848633,0.6256768554449081,0.6256768554449081,nan,nan,0,1.3832824230194092,-0.411604106426239,0.23314714431762695,28.619121551513672,0.4816412180662155,0.4816412180662155,nan,nan,0,-1.0068857669830322,0.06653881072998047,-1.0782363414764404,-19.774456024169922,-0.5034428834915161,-0.5034428834915161,nan,nan,0,0,0.9996753334999084,0.005223083775490522,0.01754044182598591,0.017731450498104095,-0.22404791414737701,-0.046339672058820724,-0.003944471478462219,nan,nan,nan,0.0,490.0693664550781,0.0,490.0693664550781,0.0,0.27695509791374207,0.1724042147397995,-0.008416207507252693
1782893392135074081,-0.9195270538330078,0.3930266499519348,0.4000000059604645,0.0,0.0,0,1,0.008960109204053879,0.034349940717220306,0.03566150739789009,-0.20614318549633026,-0.058271437883377075,0.002347218804061413,1.1095584630966187,0.733484148979187,1.0311591625213623,5.71734619140625,0.9547792375087738,0.9547792375087738,nan,nan,0,0.17950236797332764,0.04818735644221306,0.46200740337371826,2.140890121459961,0.13975118473172188,0.13975118473172188,nan,nan,0,-0.32200857996940613,-0.3187046945095062,-0.09554223716259003,-0.18424582481384277,-0.47100429236888885,-0.47100429236888885,nan,nan,0,0.6239084005355835,1.0258550643920898,0.183400958776474,0.35904160141944885,0.8019542098045349,0.8019542098045349,nan,nan,0,-1.2014696598052979,-0.4100000262260437,0.000294980825856328,-13.19405746459961,-0.810734823346138,-0.810734823346138,nan,nan,0,0.08915714919567108,0.019381633028388023,0.23417386412620544,0.6371071338653564,0.04457857459783554,0.04457857459783554,nan,nan,0,0.9262961149215698,-0.3470141887664795,0.7145617008209229,6.8992085456848145,0.06314805150032043,0.06314805150032043,nan,nan,0,1.913183569908142,0.031212039291858673,0.039992596954107285,35.92416763305664,0.906591784209013,0.906591784209013,nan,nan,0,0.4414924681186676,0.34987398982048035,-0.5147027969360352,8.284265518188477,0.5307462364435196,0.5307462364435196,nan,nan,0,0.25565943121910095,0.6261674165725708,0.21537882089614868,-6.373468399047852,0.6178297251462936,0.6178297251462936,nan,nan,0,1.3120031356811523,-0.41074463725090027,0.11207044124603271,29.955116271972656,0.4460015743970871,0.4460015743970871,nan,nan,0,-1.001635193824768,0.053477559238672256,-1.6247297525405884,-17.669963836669922,-0.500817596912384,-0.500817596912384,nan,nan,0,0,0.9996848702430725,0.004172458313405514,0.017251091077923775,0.017750069499015808,-0.20614318549633026,-0.058271437883377075,0.002347218804061413,nan,nan,nan,0.0,323.0180969238281,0.0,323.0180969238281,0.0,0.2779792845249176,0.19925665855407715,0.0018714555772021413
1782893392145074081,-0.8805951476097107,0.4738694131374359,0.4000000059604645,0.0,0.0,0,1,0.007396910805255175,0.033581145107746124,0.03579748794436455,-0.12639451026916504,-0.08715278655290604,0.026489436626434326,0.9749254584312439,0.7420175671577454,0.8239045143127441,6.280850887298584,0.8874627351760864,0.8874627351760864,nan,nan,0,0.2595672607421875,0.053831856697797775,0.6312903761863708,0.6461540460586548,0.1797836311161518,0.1797836311161518,nan,nan,0,-0.35161301493644714,-0.3197513520717621,-0.14635518193244934,-0.7766434550285339,-0.48580650985240936,-0.48580650985240936,nan,nan,0,0.47716715931892395,1.0245144367218018,-0.21054984629154205,-0.7782683372497559,0.7285835891962051,0.7285835891962051,nan,nan,0,-1.1363499164581299,-0.4100000262260437,0.00032740685855969787,-14.486072540283203,-0.778174951672554,-0.778174951672554,nan,nan,0,0.1007051169872284,0.020873378962278366,0.24283581972122192,0.6859021782875061,0.0503525584936142,0.0503525584936142,nan,nan,0,1.004102349281311,-0.3399955928325653,0.8033409118652344,7.313426971435547,0.10205116868019104,0.10205116868019104,nan,nan,0,1.6610006093978882,0.03464426472783089,0.3641449511051178,36.82805252075195,0.780500303953886,0.780500303953886,nan,nan,0,0.33261045813560486,0.3453872799873352,-0.5167294144630432,9.07752799987793,0.4763052314519882,0.4763052314519882,nan,nan,0,0.2868819832801819,0.6272643208503723,0.04288988560438156,-3.7727208137512207,0.6334410011768341,0.6334410011768341,nan,nan,0,1.266638994216919,-0.40718474984169006,0.22305282950401306,30.027738571166992,0.4233195036649704,0.4233195036649704,nan,nan,0,-0.9578793048858643,0.06335847079753876,0.35389095544815063,-19.952547073364258,-0.47893965244293213,-0.47893965244293213,nan,nan,0,0,0.9996930956840515,0.003396835410967469,0.01685316488146782,0.017833057790994644,-0.12639451026916504,-0.08715278655290604,0.026489436626434326,nan,nan,nan,0.0,238.29331970214844,0.0,238.29331970214844,0.0,0.28166863322257996,0.21696367859840393,-0.021895548328757286
