timestamp_ns,phase_sin,phase_cos,cmd_linear_x,cmd_linear_y,cmd_angular_z,left_contact,right_contact,base_euler_x,base_euler_y,base_euler_z,base_ang_vel_x,base_ang_vel_y,base_ang_vel_z,action_left_hip_pitch_joint,pos_left_hip_pitch_joint,vel_left_hip_pitch_joint,effort_left_hip_pitch_joint,pos_des_raw_left_hip_pitch_joint,pos_des_lpf_left_hip_pitch_joint,tau_des_raw_left_hip_pitch_joint,tau_des_lpf_left_hip_pitch_joint,is_parallel_left_hip_pitch_joint,action_left_hip_roll_joint,pos_left_hip_roll_joint,vel_left_hip_roll_joint,effort_left_hip_roll_joint,pos_des_raw_left_hip_roll_joint,pos_des_lpf_left_hip_roll_joint,tau_des_raw_left_hip_roll_joint,tau_des_lpf_left_hip_roll_joint,is_parallel_left_hip_roll_joint,action_left_hip_yaw_joint,pos_left_hip_yaw_joint,vel_left_hip_yaw_joint,effort_left_hip_yaw_joint,pos_des_raw_left_hip_yaw_joint,pos_des_lpf_left_hip_yaw_joint,tau_des_raw_left_hip_yaw_joint,tau_des_lpf_left_hip_yaw_joint,is_parallel_left_hip_yaw_joint,action_left_knee_pitch_joint,pos_left_knee_pitch_joint,vel_left_knee_pitch_joint,effort_left_knee_pitch_joint,pos_des_raw_left_knee_pitch_joint,pos_des_lpf_left_knee_pitch_joint,tau_des_raw_left_knee_pitch_joint,tau_des_lpf_left_knee_pitch_joint,is_parallel_left_knee_pitch_joint,action_left_ankle_pitch_joint,pos_left_ankle_pitch_joint,vel_left_ankle_pitch_joint,effort_left_ankle_pitch_joint,pos_des_raw_left_ankle_pitch_joint,pos_des_lpf_left_ankle_pitch_joint,tau_des_raw_left_ankle_pitch_joint,tau_des_lpf_left_ankle_pitch_joint,is_parallel_left_ankle_pitch_joint,action_left_ankle_roll_joint,pos_left_ankle_roll_joint,vel_left_ankle_roll_joint,effort_left_ankle_roll_joint,pos_des_raw_left_ankle_roll_joint,pos_des_lpf_left_ankle_roll_joint,tau_des_raw_left_ankle_roll_joint,tau_des_lpf_left_ankle_roll_joint,is_parallel_left_ankle_roll_joint,action_right_hip_pitch_joint,pos_right_hip_pitch_joint,vel_right_hip_pitch_joint,effort_right_hip_pitch_joint,pos_des_raw_right_hip_pitch_joint,pos_des_lpf_right_hip_pitch_joint,tau_des_raw_right_hip_pitch_joint,tau_des_lpf_right_hip_pitch_joint,is_parallel_right_hip_pitch_joint,action_right_hip_roll_joint,pos_right_hip_roll_joint,vel_right_hip_roll_joint,effort_right_hip_roll_joint,pos_des_raw_right_hip_roll_joint,pos_des_lpf_right_hip_roll_joint,tau_des_raw_right_hip_roll_joint,tau_des_lpf_right_hip_roll_joint,is_parallel_right_hip_roll_joint,action_right_hip_yaw_joint,pos_right_hip_yaw_joint,vel_right_hip_yaw_joint,effort_right_hip_yaw_joint,pos_des_raw_right_hip_yaw_joint,pos_des_lpf_right_hip_yaw_joint,tau_des_raw_right_hip_yaw_joint,tau_des_lpf_right_hip_yaw_joint,is_parallel_right_hip_yaw_joint,action_right_knee_pitch_joint,pos_right_knee_pitch_joint,vel_right_knee_pitch_joint,effort_right_knee_pitch_joint,pos_des_raw_right_knee_pitch_joint,pos_des_lpf_right_knee_pitch_joint,tau_des_raw_right_knee_pitch_joint,tau_des_lpf_right_knee_pitch_joint,is_parallel_right_knee_pitch_joint,action_right_ankle_pitch_joint,pos_right_ankle_pitch_joint,vel_right_ankle_pitch_joint,effort_right_ankle_pitch_joint,pos_des_raw_right_ankle_pitch_joint,pos_des_lpf_right_ankle_pitch_joint,tau_des_raw_right_ankle_pitch_joint,tau_des_lpf_right_ankle_pitch_joint,is_parallel_right_ankle_pitch_joint,action_right_ankle_roll_joint,pos_right_ankle_roll_joint,vel_right_ankle_roll_joint,effort_right_ankle_roll_joint,pos_des_raw_right_ankle_roll_joint,pos_des_lpf_right_ankle_roll_joint,tau_des_raw_right_ankle_roll_joint,tau_des_lpf_right_ankle_roll_joint,is_parallel_right_ankle_roll_joint,clip_count,imu_quat_w,imu_quat_x,imu_quat_y,imu_quat_z,imu_gyro_x,imu_gyro_y,imu_gyro_z,imu_accel_x,imu_accel_y,imu_accel_z,left_foot_contact_force_z,right_foot_contact_force_z,left_foot_contact_force_mag,right_foot_contact_force_mag,feet_contact_force_penalty,base_lin_vel_x,base_lin_vel_y,base_lin_vel_z
1782213133336554668,0.2660350799560547,-0.9639633297920227,0.4000000059604645,0.0,0.0,1,1,0.005128892138600349,-0.07394123077392578,-0.029000282287597656,0.18720366060733795,0.16585709154605865,0.0964939147233963,0.10977796465158463,0.6081417202949524,0.0979275032877922,0.4613197147846222,0.4548889882862568,0.4548889882862568,nan,nan,0,-0.06867511570453644,0.05309044197201729,0.04684659093618393,4.7027387619018555,0.01566244289278984,0.01566244289278984,nan,nan,0,0.2773212492465973,-0.3304155170917511,-0.18238228559494019,3.6616768836975098,-0.17133937776088715,-0.17133937776088715,nan,nan,0,0.4280160665512085,0.8843725919723511,-0.2372060865163803,-13.258025169372559,0.7040080428123474,0.7040080428123474,nan,nan,0,-0.46779757738113403,-0.3692961633205414,0.2020007073879242,0.40725427865982056,-0.4438987821340561,-0.4438987821340561,nan,nan,0,0.17234979569911957,0.0011355220340192318,-0.22161391377449036,5.484138011932373,0.08617489784955978,0.08617489784955978,nan,nan,0,-1.2549688816070557,-0.6271110773086548,0.7374311089515686,-9.387994766235352,-1.0274844467639923,-1.0274844467639923,nan,nan,0,0.14937922358512878,-0.04425548389554024,-0.015252577140927315,-7.694206237792969,0.024689611047506332,0.024689611047506332,nan,nan,0,0.015622764825820923,0.31849563121795654,-0.8022939562797546,-0.36332499980926514,0.31781138479709625,0.31781138479709625,nan,nan,0,0.13379636406898499,0.9022122025489807,-1.1878594160079956,-32.42829895019531,0.5568981915712357,0.5568981915712357,nan,nan,0,-0.7629965543746948,-0.3872449994087219,1.072608470916748,-13.915361404418945,-0.5914982706308365,-0.5914982706308365,nan,nan,0,-0.4182530641555786,-0.01684383675456047,-3.3621726036071777,-1.0869992971420288,-0.2091265320777893,-0.2091265320777893,nan,nan,0,0,0.9992097020149231,0.0020264817867428064,-0.03699542582035065,-0.014394951984286308,0.18720366060733795,0.16585709154605865,0.0964939147233963,nan,nan,nan,157.27980041503906,130.26771545410156,157.27980041503906,130.26771545410156,0.0,0.04007597267627716,-0.17226408421993256,0.008283475413918495
1782213133346554668,0.17855599522590637,-0.9839297533035278,0.4000000059604645,0.0,0.0,1,1,0.008402621373534203,-0.07130670547485352,-0.029632091522216797,0.40013331174850464,0.27007460594177246,-0.10335338860750198,0.6158743500709534,0.60923171043396,0.06405402719974518,-3.109027147293091,0.7079371809959412,0.7079371809959412,nan,nan,0,0.15455952286720276,0.05497032403945923,0.28392288088798523,-10.940764427185059,0.12727976217865944,0.12727976217865944,nan,nan,0,0.22434815764427185,-0.32981616258621216,0.20624257624149323,-2.9637269973754883,-0.19782592356204987,-0.19782592356204987,nan,nan,0,1.0230711698532104,0.8811648488044739,-0.30681559443473816,-19.429691314697266,1.0015355944633484,1.0015355944633484,nan,nan,0,-0.5830531120300293,-0.3670491874217987,0.21505430340766907,4.687022686004639,-0.5015265494585037,-0.5015265494585037,nan,nan,0,0.053237635642290115,-0.0004844984214287251,0.12063217163085938,7.365839004516602,0.026618817821145058,0.026618817821145058,nan,nan,0,-0.8697214722633362,-0.6393377780914307,-1.838287591934204,-9.353347778320312,-0.8348607420921326,-0.8348607420921326,nan,nan,0,-0.06459060311317444,-0.04669126495718956,-0.12313750386238098,3.5430150032043457,-0.08229530230164528,-0.08229530230164528,nan,nan,0,0.10903023183345795,0.3270038962364197,1.0920414924621582,-0.23755702376365662,0.36451511830091476,0.36451511830091476,nan,nan,0,-0.1304233968257904,0.9113283157348633,1.2203959226608276,-9.022597312927246,0.42478831112384796,0.42478831112384796,nan,nan,0,-0.6796303987503052,-0.3907844126224518,-1.0558967590332031,-12.235896110534668,-0.5498151928186417,-0.5498151928186417,nan,nan,0,-0.4692855775356293,-0.02746213786303997,-1.7444090843200684,-3.8540854454040527,-0.23464278876781464,-0.23464278876781464,nan,nan,0,0,0.999248206615448,0.0036700633354485035,-0.03570370003581047,-0.014656192623078823,0.40013331174850464,0.27007460594177246,-0.10335338860750198,nan,nan,nan,238.814208984375,15.723762512207031,238.814208984375,15.723762512207031,0.0,0.03269863873720169,-0.17539963126182556,-0.008252562955021858
1782213133356554668,0.0896383747458458,-0.9959743618965149,0.4000000059604645,0.0,0.0,1,1,0.010915044695138931,-0.06966686248779297,-0.029460906982421875,0.1097787618637085,0.1953314244747162,-0.016000797972083092,0.3886793851852417,0.6085522174835205,0.10490966588258743,-0.976077675819397,0.5943396985530853,0.5943396985530853,nan,nan,0,-0.14721830189228058,0.05558658391237259,-0.11396904289722443,3.111654281616211,-0.02360915020108223,-0.02360915020108223,nan,nan,0,0.22214102745056152,-0.32929593324661255,-0.1412196308374405,3.5157241821289062,-0.19892948865890503,-0.19892948865890503,nan,nan,0,0.26592862606048584,0.8777399063110352,-0.3419848084449768,-9.283557891845703,0.6229643225669861,0.6229643225669861,nan,nan,0,-0.5022243857383728,-0.36522147059440613,0.28774207830429077,-3.3809726238250732,-0.4611121863126755,-0.4611121863126755,nan,nan,0,0.07755044102668762,-0.002315086778253317,-0.2774985730648041,4.659193515777588,0.03877522051334381,0.03877522051334381,nan,nan,0,-1.510842204093933,-0.6378645300865173,-0.35506027936935425,-7.562666893005371,-1.155421108007431,-1.155421108007431,nan,nan,0,0.3924751281738281,-0.04440625384449959,-0.336931437253952,-12.925117492675781,0.146237563341856,0.146237563341856,nan,nan,0,0.18633168935775757,0.32557761669158936,0.10442271828651428,-3.5456700325012207,0.4031658470630646,0.4031658470630646,nan,nan,0,0.3218860328197479,0.9029319882392883,0.2671922445297241,-50.0156135559082,0.6509430259466171,0.6509430259466171,nan,nan,0,-0.48369601368904114,-0.3763292729854584,-0.11104261875152588,-16.180627822875977,-0.45184800028800964,-0.45184800028800964,nan,nan,0,-0.4592610001564026,-0.014334282837808132,-1.2254668474197388,-5.129881858825684,-0.2296305000782013,-0.2296305000782013,nan,nan,0,0,0.9992729425430298,0.004940609913319349,-0.034902337938547134,-0.014530776999890804,0.1097787618637085,0.1953314244747162,-0.016000797972083092,nan,nan,nan,94.63245391845703,978.5311279296875,94.63245391845703,978.5311279296875,278.5311279296875,0.04910692945122719,-0.16766855120658875,0.026806890964508057
1782213133366554668,-9.775241096576792e-07,-1.0,0.4000000059604645,0.0,0.0,1,1,0.01253835391253233,-0.06730508804321289,-0.02985858917236328,0.19893108308315277,0.267627477645874,-0.05965469777584076,0.3370945453643799,0.6098350882530212,0.2093961238861084,0.6207685470581055,0.5685472786426544,0.5685472786426544,nan,nan,0,0.2954844832420349,0.05519922822713852,0.04226558655500412,-1.6968351602554321,0.19774224236607552,0.19774224236607552,nan,nan,0,0.23497343063354492,-0.3302241861820221,-0.09094469994306564,2.5910825729370117,-0.19251328706741333,-0.19251328706741333,nan,nan,0,1.0094268321990967,0.8743663430213928,-0.2628161907196045,-13.651636123657227,0.9947134256362915,0.9947134256362915,nan,nan,0,-0.8813943266868591,-0.3633173704147339,0.2030743658542633,1.8439655303955078,-0.6506971567869186,-0.6506971567869186,nan,nan,0,-0.03603256866335869,-0.004862142726778984,-0.09817247092723846,4.683408260345459,-0.018016284331679344,-0.018016284331679344,nan,nan,0,-0.9144705533981323,-0.6427825093269348,-0.6269363760948181,-10.927492141723633,-0.8572352826595306,-0.8572352826595306,nan,nan,0,0.3758167028427124,-0.04736895486712456,-0.28767484426498413,1.908677339553833,0.13790835067629814,0.13790835067629814,nan,nan,0,0.28049278259277344,0.3285008668899536,0.41838881373405457,0.3998592495918274,0.4502463936805725,0.4502463936805725,nan,nan,0,-0.038157664239406586,0.9064601063728333,0.302179217338562,-23.810264587402344,0.47092117741703987,0.47092117741703987,nan,nan,0,-0.4478234648704529,-0.38362351059913635,0.12825292348861694,-8.259218215942383,-0.4339117258787155,-0.4339117258787155,nan,nan,0,-0.5574538707733154,-0.021380135789513588,-0.727420449256897,-5.166143417358398,-0.2787269353866577,-0.2787269353866577,nan,nan,0,0,0.9993059635162354,0.005762604996562004,-0.03373532369732857,-0.014709034003317356,0.19893108308315277,0.267627477645874,-0.05965469777584076,nan,nan,nan,162.2936248779297,159.3145294189453,162.2936248779297,159.3145294189453,0.0,0.052418503910303116,-0.16898630559444427,0.010870903730392456
1782213133376554668,-0.08964031934738159,-0.9959741830825806,0.4000000059604645,0.0,0.0,1,1,0.014940203167498112,-0.06556320190429688,-0.030561447143554688,0.24299222230911255,0.1474471092224121,-0.09546209126710892,0.7248318791389465,0.6079456210136414,-0.2727370262145996,-3.3308563232421875,0.7624159455299377,0.7624159455299377,nan,nan,0,0.04901278018951416,0.05490800365805626,-0.05053941532969475,-1.3134057521820068,0.07450639083981514,0.07450639083981514,nan,nan,0,0.3161677122116089,-0.3282223641872406,0.2843017578125,3.59264874458313,-0.15191614627838135,-0.15191614627838135,nan,nan,0,0.5629964470863342,0.8695067167282104,-0.5226007699966431,-11.157132148742676,0.7714982330799103,0.7714982330799103,nan,nan,0,-0.9622212052345276,-0.3613678514957428,0.2793367803096771,-3.660642147064209,-0.6911105960607529,-0.6911105960607529,nan,nan,0,-0.033973246812820435,-0.006882107350975275,-0.11976229399442673,3.7184507846832275,-0.016986623406410217,-0.016986623406410217,nan,nan,0,-1.131706714630127,-0.6443371772766113,-0.3125312030315399,-10.65068244934082,-0.965853363275528,-0.965853363275528,nan,nan,0,0.48880693316459656,-0.04760830104351044,-0.1158827692270279,3.729656219482422,0.19440346583724022,0.19440346583724022,nan,nan,0,0.13668610155582428,0.3301560878753662,0.2839309573173523,-1.5626633167266846,0.37834305316209793,0.37834305316209793,nan,nan,0,0.06417734920978546,0.9045056700706482,0.16711682081222534,-34.04275894165039,0.5220886841416359,0.5220886841416359,nan,nan,0,-0.36633554100990295,-0.37668249011039734,0.03828001022338867,-8.217639923095703,-0.39316776394844055,-0.39316776394844055,nan,nan,0,-0.5460953712463379,-0.019865000620484352,-0.5254728198051453,-6.8170013427734375,-0.27304768562316895,-0.27304768562316895,nan,nan,0,0,0.9993218779563904,0.006964340340346098,-0.0328851193189621,-0.015026767738163471,0.24299222230911255,0.1474471092224121,-0.09546209126710892,nan,nan,nan,145.68153381347656,396.5624084472656,145.68153381347656,396.5624084472656,0.0,0.05984491482377052,-0.16722361743450165,0.030001940205693245
1782213133386554668,-0.17855793237686157,-0.9839293956756592,0.4000000059604645,0.0,0.0,1,1,0.015924183651804924,-0.0639500617980957,-0.030849933624267578,-0.001587443519383669,0.1676798313856125,-0.022508153691887856,0.027132030576467514,0.6129025220870972,0.6680576205253601,0.35426023602485657,0.41356602124869823,0.41356602124869823,nan,nan,0,0.06160059571266174,0.05348116159439087,-0.29185009002685547,3.9121572971343994,0.08080029860138893,0.08080029860138893,nan,nan,0,0.3134323060512543,-0.32768043875694275,0.1600983440876007,3.2177464962005615,-0.15328384935855865,-0.15328384935855865,nan,nan,0,0.6377063989639282,0.8764247894287109,0.9308160543441772,2.6006178855895996,0.8088532090187073,0.8088532090187073,nan,nan,0,-1.1591980457305908,-0.3791333734989166,-2.0796384811401367,-2.3519463539123535,-0.7895990163087845,-0.7895990163087845,nan,nan,0,-0.08664464950561523,-0.003869687905535102,0.3925456404685974,0.3519168794155121,-0.04332232475280762,-0.04332232475280762,nan,nan,0,-1.3418006896972656,-0.6437352895736694,0.12781134247779846,-6.339755535125732,-1.0709003508090973,-1.0709003508090973,nan,nan,0,0.5168018341064453,-0.04937160760164261,-0.29273390769958496,0.3091875910758972,0.2084009163081646,0.2084009163081646,nan,nan,0,0.26713937520980835,0.32904577255249023,-0.29137638211250305,2.463768482208252,0.44356968998908997,0.44356968998908997,nan,nan,0,-0.014075487852096558,0.9026718139648438,-0.1909240484237671,-46.055545806884766,0.4829622656106949,0.4829622656106949,nan,nan,0,-0.3758552074432373,-0.376416951417923,0.07297056913375854,-6.681395053863525,-0.3979275971651077,-0.3979275971651077,nan,nan,0,-0.5809582471847534,-0.02277730405330658,-0.7863342761993408,-6.817533016204834,-0.2904791235923767,-0.2904791235923767,nan,nan,0,0,0.9993422627449036,0.007463898044079542,-0.03208761289715767,-0.015161402523517609,-0.001587443519383669,0.1676798313856125,-0.022508153691887856,nan,nan,nan,6.0800042152404785,343.48974609375,6.0800042152404785,343.48974609375,0.0,0.06303474307060242,-0.1525634527206421,0.03655004873871803
1782213133396554668,-0.2660379111766815,-0.9639625549316406,0.4000000059604645,0.0,0.0,1,1,0.01688695326447487,-0.06195878982543945,-0.03192281723022461,0.11476900428533554,0.2572556138038635,-0.135866180062294,1.009230136871338,0.6097386479377747,-0.3019143342971802,1.5257575511932373,0.9046150743961334,0.9046150743961334,nan,nan,0,0.08423317968845367,0.05005573853850365,-0.33849290013313293,-2.074514150619507,0.0921165905892849,0.0921165905892849,nan,nan,0,0.16300469636917114,-0.32181620597839355,0.06453121453523636,2.0094032287597656,-0.22849765419960022,-0.22849765419960022,nan,nan,0,1.1974899768829346,0.866642951965332,-1.0757509469985962,-11.35676097869873,1.0887449979782104,1.0887449979782104,nan,nan,0,-1.3913509845733643,-0.36629942059516907,1.321691632270813,-4.969934940338135,-0.9056754857301712,-0.9056754857301712,nan,nan,0,-0.0776061862707138,-0.0009752725600264966,-3.1812679767608643,1.8200430870056152,-0.0388030931353569,-0.0388030931353569,nan,nan,0,-0.8108199834823608,-0.6451781988143921,-0.37663671374320984,-13.901945114135742,-0.8054099977016449,-0.8054099977016449,nan,nan,0,0.733747124671936,-0.051381148397922516,-0.3705369234085083,9.570210456848145,0.31687356159090996,0.31687356159090996,nan,nan,0,0.4306325912475586,0.3292373716831207,0.3072018325328827,1.2558928728103638,0.5253162980079651,0.5253162980079651,nan,nan,0,0.032591111958026886,0.9022150635719299,0.17639507353305817,-26.737184524536133,0.5062955655157566,0.5062955655157566,nan,nan,0,-0.3726010322570801,-0.3763146996498108,-0.08403483033180237,-2.052192211151123,-0.3963005095720291,-0.3963005095720291,nan,nan,0,-0.6326362490653992,-0.025354592129588127,-0.7024940252304077,-6.790767669677734,-0.3163181245326996,-0.3163181245326996,nan,nan,0,0,0.9993613958358765,0.0079438965767622,-0.03110397979617119,-0.015690956264734268,0.11476900428533554,0.2572556138038635,-0.135866180062294,nan,nan,nan,180.67103576660156,188.19419860839844,180.67103576660156,188.19419860839844,0.0,0.07233878970146179,-0.1513652801513672,0.0031436076387763023
1782213133406554668,-0.35137587785720825,-0.9362344741821289,0.4000000059604645,0.0,0.0,1,1,0.017652804031968117,-0.059638023376464844,-0.03261852264404297,0.05249180272221565,0.1757829487323761,-0.0864223763346672,-0.045152127742767334,0.6162616014480591,0.7560006380081177,-4.259235382080078,0.3774239420890808,0.3774239420890808,nan,nan,0,0.07289379835128784,0.04975006356835365,-0.014734849333763123,6.138947486877441,0.08644689992070198,0.08644689992070198,nan,nan,0,0.27949902415275574,-0.3255842626094818,-0.44442614912986755,7.355501651763916,-0.17025049030780792,-0.17025049030780792,nan,nan,0,0.2565000653266907,0.8723126649856567,0.8656479716300964,3.389261484146118,0.6182500422000885,0.6182500422000885,nan,nan,0,-1.271193265914917,-0.37833455204963684,-1.667855978012085,-8.020074844360352,-0.8455966264009476,-0.8455966264009476,nan,nan,0,-0.09104150533676147,-0.0026380461640655994,0.18463853001594543,-0.0686582624912262,-0.04552075266838074,-0.04552075266838074,nan,nan,0,-1.2477678060531616,-0.646868884563446,-0.05414903163909912,-5.712895393371582,-1.0238839089870453,-1.0238839089870453,nan,nan,0,0.5778955817222595,-0.054017674177885056,-0.2807697057723999,9.292343139648438,0.2389477901160717,0.2389477901160717,nan,nan,0,0.013124242424964905,0.3299539089202881,-0.0503297783434391,4.56279182434082,0.31656212359666824,0.31656212359666824,nan,nan,0,0.020377330482006073,0.9018386006355286,-0.025321979075670242,-42.87514877319336,0.5001886747777462,0.5001886747777462,nan,nan,0,-0.304057776927948,-0.376341313123703,-0.013140439987182617,-1.4321852922439575,-0.3620288819074631,-0.3620288819074631,nan,nan,0,-0.5330840945243835,-0.027707060799002647,-0.9255234003067017,-8.148744583129883,-0.2665420472621918,-0.2665420472621918,nan,nan,0,0,0.9993879199028015,0.00833497941493988,-0.029953232035040855,-0.01603754237294197,0.05249180272221565,0.1757829487323761,-0.0864223763346672,nan,nan,nan,77.4828872680664,357.427978515625,77.4828872680664,357.427978515625,0.0,0.07025329023599625,-0.1352255940437317,0.025124944746494293
1782213133416554668,-0.43388479948043823,-0.9009683728218079,0.4000000059604645,0.0,0.0,1,1,0.018529227003455162,-0.058226585388183594,-0.03404855728149414,0.08427523076534271,0.14676015079021454,-0.17468751966953278,0.8342573046684265,0.6181469559669495,0.0842977836728096,3.5765154361724854,0.8171286582946777,0.8171286582946777,nan,nan,0,0.06707462668418884,0.04817328602075577,-0.1762741059064865,1.7415767908096313,0.08353731408715248,0.08353731408715248,nan,nan,0,0.13529635965824127,-0.32585492730140686,0.03702040761709213,5.2078962326049805,-0.24235182255506516,-0.24235182255506516,nan,nan,0,1.2038298845291138,0.8738581538200378,0.02156011201441288,-10.740632057189941,1.0919149518013,1.0919149518013,nan,nan,0,-1.497434139251709,-0.38704463839530945,-0.5184712409973145,-9.695897102355957,-0.9587170630693436,-0.9587170630693436,nan,nan,0,-0.07874435186386108,-0.004210244864225388,-0.14910003542900085,0.08292022347450256,-0.03937217593193054,-0.03937217593193054,nan,nan,0,-0.9729049205780029,-0.6455248594284058,0.08473647385835648,-10.18406867980957,-0.8864524662494659,-0.8864524662494659,nan,nan,0,0.896695077419281,-0.05578666552901268,-0.23256051540374756,11.459888458251953,0.39834753796458244,0.39834753796458244,nan,nan,0,0.6371018290519714,0.32953935861587524,0.004293840378522873,1.9265635013580322,0.6285509169101715,0.6285509169101715,nan,nan,0,0.1257915049791336,0.8996877670288086,-0.1489754319190979,-36.18730926513672,0.55289576202631,0.55289576202631,nan,nan,0,-0.29334285855293274,-0.3759955167770386,-0.02493894100189209,-0.02161639928817749,-0.35667142271995544,-0.35667142271995544,nan,nan,0,-0.6775946617126465,-0.029971357434988022,-0.7635267376899719,-7.9434075355529785,-0.33879733085632324,-0.33879733085632324,nan,nan,0,0,0.9993930459022522,0.008763694204390049,-0.02926139533519745,-0.016745898872613907,0.08427523076534271,0.14676015079021454,-0.17468751966953278,nan,nan,nan,91.15840911865234,283.306640625,91.15840911865234,283.306640625,0.0,0.08029051125049591,-0.12788669764995575,0.037742678076028824
1782213133426554668,-0.5128994584083557,-0.8584486842155457,0.4000000059604645,0.0,0.0,1,1,0.020052919164299965,-0.057112693786621094,-0.036208152770996094,0.1751338541507721,0.09186234325170517,-0.2547990679740906,0.744736909866333,0.617699921131134,-0.11705857515335083,-5.392377853393555,0.772368460893631,0.772368460893631,nan,nan,0,-0.14324966073036194,0.04635683074593544,-0.16761088371276855,2.0621113777160645,-0.02162482962012291,-0.02162482962012291,nan,nan,0,0.1642579287290573,-0.32388028502464294,0.34282416105270386,3.9140379428863525,-0.22787103801965714,-0.22787103801965714,nan,nan,0,0.876853346824646,0.8744171261787415,0.10006128251552582,-7.286501884460449,0.9284266829490662,0.9284266829490662,nan,nan,0,-1.7493500709533691,-0.3976981043815613,-0.8997460007667542,-12.636547088623047,-1.0846750289201736,-1.0846750289201736,nan,nan,0,-0.10390762984752655,-0.01051423978060484,-0.596814751625061,-0.4961481988430023,-0.051953814923763275,-0.051953814923763275,nan,nan,0,-0.8284727931022644,-0.6436660289764404,0.1572033315896988,-13.594679832458496,-0.8142364025115967,-0.8142364025115967,nan,nan,0,0.8945728540420532,-0.05667172744870186,-0.09822496771812439,11.677766799926758,0.39728642627596855,0.39728642627596855,nan,nan,0,0.13266882300376892,0.32999423146247864,0.10116620361804962,3.392759323120117,0.37633441388607025,0.37633441388607025,nan,nan,0,0.026114068925380707,0.8969916105270386,-0.20520879328250885,-39.25199890136719,0.5030570439994335,0.5030570439994335,nan,nan,0,-0.3594632148742676,-0.37554025650024414,-0.015835106372833252,-0.2144593596458435,-0.38973160088062286,-0.38973160088062286,nan,nan,0,-0.6291327476501465,-0.03164107725024223,-0.7438775300979614,-8.48147964477539,-0.31456637382507324,-0.31456637382507324,nan,nan,0,0,0.9993833899497986,0.009503697976469994,-0.028727706521749496,-0.017808647826313972,0.1751338541507721,0.09186234325170517,-0.2547990679740906,nan,nan,nan,120.23143768310547,282.75531005859375,120.23143768310547,282.75531005859375,0.0,0.08764293789863586,-0.12214703112840652,0.05478918179869652
1782213133436554668,-0.5877862572669983,-0.8090162873268127,0.4000000059604645,0.0,0.0,0,1,0.021473299711942673,-0.0555272102355957,-0.03808164596557617,0.09427421540021896,0.1720895618200302,-0.17596423625946045,0.09276019036769867,0.6286237239837646,1.2694603204727173,4.0131683349609375,0.4463801011443138,0.4463801011443138,nan,nan,0,0.13082602620124817,0.04632649943232536,-0.0818801000714302,2.211622953414917,0.11541301384568214,0.11541301384568214,nan,nan,0,0.15428127348423004,-0.325473427772522,0.1140463650226593,2.253547430038452,-0.23285936564207077,-0.23285936564207077,nan,nan,0,0.752070426940918,0.8899810314178467,1.6531556844711304,3.140700340270996,0.8660352230072021,0.8660352230072021,nan,nan,0,-1.6440966129302979,-0.41000014543533325,0.000515741587150842,-17.9696044921875,-1.032048299908638,-1.032048299908638,nan,nan,0,-0.10468350350856781,-0.0148468017578125,-0.13210034370422363,-0.3793446123600006,-0.052341751754283905,-0.052341751754283905,nan,nan,0,-1.1162636280059814,-0.6427488327026367,0.01427730917930603,-5.242312908172607,-0.9581318199634552,-0.9581318199634552,nan,nan,0,0.7200826406478882,-0.057729244232177734,-0.19855567812919617,16.30374526977539,0.31004131957888603,0.31004131957888603,nan,nan,0,0.34136927127838135,0.33082035183906555,0.05452878773212433,6.340590476989746,0.48068463802337646,0.48068463802337646,nan,nan,0,0.08017393946647644,0.8943606615066528,-0.15545812249183655,-37.094058990478516,0.5300869792699814,0.5300869792699814,nan,nan,0,-0.1876135766506195,-0.3749064803123474,0.05036640167236328,-1.3402302265167236,-0.30380678176879883,-0.30380678176879883,nan,nan,0,-0.5996034145355225,-0.03317832574248314,-0.7294276356697083,-9.361068725585938,-0.29980170726776123,-0.29980170726776123,nan,nan,0,0,0.9993814826011658,0.01020184438675642,-0.02795785292983055,-0.01873331144452095,0.09427421540021896,0.1720895618200302,-0.17596423625946045,nan,nan,nan,0.0,316.7926330566406,0.0,316.7926330566406,0.0,0.08529677987098694,-0.11280931532382965,0.04064621776342392
1782213133446554668,-0.6579396724700928,-0.7530706524848938,0.4000000059604645,0.0,0.0,0,1,0.022974509745836258,-0.05485248565673828,-0.0400853157043457,0.12834371626377106,0.07714544981718063,-0.16039112210273743,1.2580440044403076,0.6219893097877502,-1.0818454027175903,-3.670281171798706,1.0290220081806183,1.0290220081806183,nan,nan,0,-0.034443944692611694,0.04305225610733032,-0.24603402614593506,2.736241340637207,0.03277802839875221,0.03277802839875221,nan,nan,0,0.026191800832748413,-0.31341102719306946,1.0799592733383179,-0.4394301772117615,-0.2969041019678116,-0.2969041019678116,nan,nan,0,1.1771904230117798,0.874681830406189,-2.269904136657715,-2.9584805965423584,1.078595221042633,1.078595221042633,nan,nan,0,-1.9012577533721924,-0.41000011563301086,-0.018645137548446655,-14.625173568725586,-1.1606288701295853,-1.1606288701295853,nan,nan,0,-0.09631067514419556,-0.019372189417481422,-0.2793547511100769,-0.3646215498447418,-0.04815533757209778,-0.04815533757209778,nan,nan,0,-0.7148690819740295,-0.6393845677375793,0.26557403802871704,-12.699287414550781,-0.7574345469474792,-0.7574345469474792,nan,nan,0,1.1114649772644043,-0.057669296860694885,-0.05387258529663086,12.769853591918945,0.5057324878871441,0.5057324878871441,nan,nan,0,0.5295339226722717,0.3303852379322052,-0.040699370205402374,-0.11226339638233185,0.5747669637203217,0.5747669637203217,nan,nan,0,0.13776466250419617,0.8909416794776917,-0.22190409898757935,-36.62238311767578,0.5588823407888412,0.5588823407888412,nan,nan,0,-0.23947107791900635,-0.374645859003067,-0.07427549362182617,1.051499843597412,-0.32973553240299225,-0.32973553240299225,nan,nan,0,-0.6545894145965576,-0.03434162586927414,-0.6970705389976501,-7.562372207641602,-0.3272947072982788,-0.3272947072982788,nan,nan,0,0,0.9993634819984436,0.01093082595616579,-0.027645649388432503,-0.01971740648150444,0.12834371626377106,0.07714544981718063,-0.16039112210273743,nan,nan,nan,0.0,289.90216064453125,0.0,289.90216064453125,0.0,0.09907717257738113,-0.09843342006206512,0.05106808990240097
1782213133456554668,-0.7227957844734192,-0.6910617351531982,0.4000000059604645,0.0,0.0,0,1,0.023837631568312645,-0.05245018005371094,-0.04071044921875,0.06378195434808731,0.27849194407463074,-0.06163736805319786,0.03753989189863205,0.6287137269973755,1.055626630783081,2.0713555812835693,0.4187699519097805,0.4187699519097805,nan,nan,0,-0.1614530384540558,0.04451090097427368,0.1507345288991928,0.9485626220703125,-0.030726518481969833,-0.030726518481969833,nan,nan,0,0.21726614236831665,-0.3139868974685669,0.05040481686592102,1.5259358882904053,-0.20136693120002747,-0.20136693120002747,nan,nan,0,0.6986355185508728,0.8825028538703918,1.5217596292495728,6.044607639312744,0.8393177688121796,0.8393177688121796,nan,nan,0,-1.897144079208374,-0.4100000858306885,0.0004939837381243706,-19.826030731201172,-1.158572033047676,-1.158572033047676,nan,nan,0,-0.09574899077415466,-0.021514736115932465,-0.05887951701879501,-0.23131027817726135,-0.04787449538707733,-0.04787449538707733,nan,nan,0,-0.6912906169891357,-0.6413260698318481,-0.37872475385665894,-5.959096908569336,-0.7456453144550323,-0.7456453144550323,nan,nan,0,0.8472791314125061,-0.059233322739601135,-0.2624397277832031,19.80948257446289,0.373639564961195,0.373639564961195,nan,nan,0,0.08356328308582306,0.331874817609787,0.20086675882339478,9.400008201599121,0.3517816439270973,0.3517816439270973,nan,nan,0,0.11509211361408234,0.8905572295188904,0.12718677520751953,-34.96030044555664,0.5475460663437843,0.5475460663437843,nan,nan,0,-0.1627366989850998,-0.3748413324356079,-0.0452612042427063,1.2141838073730469,-0.29136834293603897,-0.29136834293603897,nan,nan,0,-0.5043600797653198,-0.03579512983560562,-0.8295211791992188,-10.01207447052002,-0.2521800398826599,-0.2521800398826599,nan,nan,0,0,0.9993844628334045,0.011378287337720394,-0.026457292959094048,-0.02003285102546215,0.06378195434808731,0.27849194407463074,-0.06163736805319786,nan,nan,nan,0.0,308.0352478027344,0.0,308.0352478027344,0.0,0.08858445286750793,-0.08729718625545502,0.001398178981617093
1782213133466554668,-0.7818323373794556,-0.6234887838363647,0.4000000059604645,0.0,0.0,0,1,0.02369021438062191,-0.05050945281982422,-0.04061317443847656,-0.07992266118526459,0.17731210589408875,0.0654672384262085,0.839263916015625,0.6339848637580872,0.4530181288719177,2.3117620944976807,0.819631963968277,0.819631963968277,nan,nan,0,0.15463905036449432,0.04247060790657997,-0.35104233026504517,-1.389330267906189,0.12731952592730522,0.12731952592730522,nan,nan,0,0.049877800047397614,-0.309104859828949,0.5008642077445984,-0.05704313516616821,-0.285061102360487,-0.285061102360487,nan,nan,0,1.0483624935150146,0.8881553411483765,0.3097268342971802,0.34345880150794983,1.0141812562942505,1.0141812562942505,nan,nan,0,-2.0021517276763916,-0.4100002944469452,0.0008085499284788966,-24.234766006469727,-1.2110758572816849,-1.2110758572816849,nan,nan,0,-0.09763999283313751,-0.026222987100481987,-0.26129382848739624,-0.36851659417152405,-0.048819996416568756,-0.048819996416568756,nan,nan,0,-0.8234246373176575,-0.6406621932983398,0.16921739280223846,-5.9549994468688965,-0.8117123246192932,-0.8117123246192932,nan,nan,0,1.0144333839416504,-0.06091514974832535,-0.24891099333763123,19.823137283325195,0.45721669122576714,0.45721669122576714,nan,nan,0,0.7286959886550903,0.3304128646850586,-0.32917526364326477,3.0024123191833496,0.674347996711731,0.674347996711731,nan,nan,0,0.17734162509441376,0.8890107870101929,-0.13615845143795013,-37.25217819213867,0.57867082208395,0.57867082208395,nan,nan,0,-0.10034500807523727,-0.3751458525657654,-0.06580281257629395,0.09071379899978638,-0.2601724974811077,-0.2601724974811077,nan,nan,0,-0.6268638968467712,-0.03732528164982796,-0.8216575980186462,-9.099472999572754,-0.3134319484233856,-0.3134319484233856,nan,nan,0,0,0.9994109272956848,0.011325903236865997,-0.025485491380095482,-0.019998135045170784,-0.07992266118526459,0.17731210589408875,0.0654672384262085,nan,nan,nan,0.0,334.94287109375,0.0,334.94287109375,0.0,0.09491043537855148,-0.07576421648263931,0.015004421584308147
1782213133476554668,-0.8345740437507629,-0.5508958697319031,0.4000000059604645,0.0,0.0,0,1,0.0233567226678133,-0.04873371124267578,-0.0398712158203125,-0.01791217550635338,0.20086614787578583,0.0808841660618782,0.9612469673156738,0.632703959941864,-0.33234724402427673,-4.217272758483887,0.8806234896183014,0.8806234896183014,nan,nan,0,-0.11163461208343506,0.04114880785346031,0.02636304683983326,3.137530565261841,-0.00581730529665947,-0.00581730529665947,nan,nan,0,0.16112929582595825,-0.30418887734413147,0.36870473623275757,0.11150681972503662,-0.22943535447120667,-0.22943535447120667,nan,nan,0,0.8474497199058533,0.8854174613952637,-0.39161020517349243,2.290430784225464,0.9137248694896698,0.9137248694896698,nan,nan,0,-2.1393215656280518,-0.41000017523765564,0.0006880253786221147,-22.39275550842285,-1.279660776257515,-1.279660776257515,nan,nan,0,-0.10751466453075409,-0.029594236984848976,-0.17867867648601532,-0.3075007498264313,-0.053757332265377045,-0.053757332265377045,nan,nan,0,-0.6203483939170837,-0.6397855877876282,-0.0693356990814209,-9.095365524291992,-0.7101742029190063,-0.7101742029190063,nan,nan,0,1.0723001956939697,-0.06216437369585037,-0.1769770085811615,16.16901969909668,0.4861500971019268,0.4861500971019268,nan,nan,0,0.31694674491882324,0.3282984495162964,-0.14187753200531006,6.170443058013916,0.4684733748435974,0.4684733748435974,nan,nan,0,0.14878448843955994,0.8877963423728943,0.039658091962337494,-36.110958099365234,0.5643922537565231,0.5643922537565231,nan,nan,0,-0.11055243760347366,-0.3758881688117981,-0.1754319667816162,3.1599254608154297,-0.2652762122452259,-0.2652762122452259,nan,nan,0,-0.5757195353507996,-0.03887634351849556,-0.841444194316864,-8.525229454040527,-0.2878597676753998,-0.2878597676753998,nan,nan,0,0,0.9994419813156128,0.01118665561079979,-0.02459069713950157,-0.01964247226715088,-0.01791217550635338,0.20086614787578583,0.0808841660618782,nan,nan,nan,0.0,306.1521911621094,0.0,306.1521911621094,0.0,0.09747248888015747,-0.05914792791008949,-0.0008317680913023651
1782213133486554668,-0.8805962204933167,-0.47386741638183594,0.4000000059604645,0.0,0.0,0,1,0.022324591875076294,-0.045804500579833984,-0.038033485412597656,-0.14132900536060333,0.3278416097164154,0.208392933011055,-0.1858208179473877,0.6414383053779602,1.2439967393875122,7.502579212188721,0.30708959698677063,0.30708959698677063,nan,nan,0,0.09088027477264404,0.042102470993995667,-0.009655168280005455,-0.5754425525665283,0.09544013813138008,0.09544013813138008,nan,nan,0,0.1811279058456421,-0.3063928782939911,-0.13035914301872253,1.7995738983154297,-0.21943604946136475,-0.21943604946136475,nan,nan,0,0.5795088410377502,0.8976843953132629,1.5742055177688599,2.164094924926758,0.7797544300556183,0.7797544300556183,nan,nan,0,-1.9703569412231445,-0.4100000858306885,0.0006599932676181197,-26.893062591552734,-1.1951784640550613,-1.1951784640550613,nan,nan,0,-0.07512874901294708,-0.03080342523753643,-0.04730774834752083,-0.19267955422401428,-0.03756437450647354,-0.03756437450647354,nan,nan,0,-0.9504749774932861,-0.6419358849525452,-0.293814092874527,-2.258120536804199,-0.8752374947071075,-0.8752374947071075,nan,nan,0,0.6501791477203369,-0.06459516286849976,-0.3576650321483612,24.62523078918457,0.2750895731151104,0.2750895731151104,nan,nan,0,0.42687419056892395,0.32679566740989685,-0.21208617091178894,9.71240520477295,0.5234370976686478,0.5234370976686478,nan,nan,0,0.12854135036468506,0.8881879448890686,0.1306331753730774,-34.356529235839844,0.5542706847190857,0.5542706847190857,nan,nan,0,-0.03535520285367966,-0.37683895230293274,-0.1145893931388855,2.2638325691223145,-0.2276775948703289,-0.2276775948703289,nan,nan,0,-0.5120976567268372,-0.040477387607097626,-0.9439188241958618,-9.354984283447266,-0.2560488283634186,-0.2560488283634186,nan,nan,0,0,0.9994996190071106,0.010721683502197266,-0.023106979206204414,-0.01875387690961361,-0.14132900536060333,0.3278416097164154,0.208392933011055,nan,nan,nan,0.0,328.70599365234375,0.0,328.70599365234375,0.0,0.09288399666547775,-0.04962218552827835,-0.026193788275122643
1782213133496554668,-0.9195279479026794,-0.39302459359169006,0.4000000059604645,0.0,0.0,0,1,0.020743364468216896,-0.044332027435302734,-0.03597831726074219,-0.1815905123949051,0.09884288161993027,0.2371470332145691,1.467581033706665,0.638950526714325,-0.6548497676849365,-4.288687229156494,1.133790522813797,1.133790522813797,nan,nan,0,0.08983433246612549,0.038308847695589066,-0.4474338889122009,-1.2370160818099976,0.0949171669781208,0.0949171669781208,nan,nan,0,0.00023349374532699585,-0.2978020906448364,0.8529763221740723,-1.0185105800628662,-0.3098832555115223,-0.3098832555115223,nan,nan,0,1.0526741743087769,0.8946222066879272,-0.6936421394348145,1.6087814569473267,1.0163370966911316,1.0163370966911316,nan,nan,0,-2.1407864093780518,-0.41000017523765564,0.0006830777274444699,-26.821086883544922,-1.280393198132515,-1.280393198132515,nan,nan,0,-0.06904324889183044,-0.0329284630715847,-0.1353369951248169,-0.05538737773895264,-0.03452162444591522,-0.03452162444591522,nan,nan,0,-0.5308606028556824,-0.6394783854484558,0.3635280132293701,-4.532903671264648,-0.6654303073883057,-0.6654303073883057,nan,nan,0,1.029125452041626,-0.06604301184415817,-0.1754646599292755,18.889209747314453,0.46456272527575493,0.46456272527575493,nan,nan,0,0.7802999019622803,0.3218701481819153,-0.6360137462615967,3.741450786590576,0.7001499533653259,0.7001499533653259,nan,nan,0,0.18415141105651855,0.886854887008667,-0.08650998771190643,-33.00372314453125,0.5820757150650024,0.5820757150650024,nan,nan,0,-0.04197802394628525,-0.3781503140926361,-0.22827282547950745,3.7247138023376465,-0.2309890054166317,-0.2309890054166317,nan,nan,0,-0.6117595434188843,-0.04202299565076828,-0.7930548787117004,-6.719916820526123,-0.30587977170944214,-0.30587977170944214,nan,nan,0,0,0.9995428919792175,0.009968596510589123,-0.022345907986164093,-0.017753077670931816,-0.1815905123949051,0.09884288161993027,0.2371470332145691,nan,nan,nan,0.0,315.3465576171875,0.0,315.3465576171875,0.0,0.09976281970739365,-0.03528594598174095,-0.008810067549347878
1782213133506554668,-0.9510566592216492,-0.30901649594306946,0.4000000059604645,0.0,0.0,0,1,0.019034966826438904,-0.04187297821044922,-0.033136844635009766,-0.14347650110721588,0.3122473359107971,0.2710362374782562,0.10974092781543732,0.641813337802887,0.4948330819606781,3.396096706390381,0.45487046986818314,0.45487046986818314,nan,nan,0,-0.2876706123352051,0.038469038903713226,0.14275914430618286,3.0075345039367676,-0.09383530542254448,-0.09383530542254448,nan,nan,0,0.2777276337146759,-0.2983852028846741,-0.09381050616502762,1.6405270099639893,-0.17113618552684784,-0.17113618552684784,nan,nan,0,0.5281588435173035,0.9009410738945007,0.8797949552536011,2.238420009613037,0.7540794312953949,0.7540794312953949,nan,nan,0,-2.1504952907562256,-0.41000041365623474,0.001102051348425448,-28.658689498901367,-1.2852476388216019,-1.2852476388216019,nan,nan,0,-0.05111389234662056,-0.03523722290992737,-0.3096318244934082,-0.8952081203460693,-0.02555694617331028,-0.02555694617331028,nan,nan,0,-0.6756391525268555,-0.6408137679100037,-0.38889551162719727,-3.736297607421875,-0.7378195822238922,-0.7378195822238922,nan,nan,0,0.9757362008094788,-0.06814821809530258,-0.28422749042510986,22.65182876586914,0.4378680996596813,0.4378680996596813,nan,nan,0,0.13212215900421143,0.3187643587589264,-0.18684157729148865,13.506769180297852,0.3760610818862915,0.3760610818862915,nan,nan,0,0.19804826378822327,0.8879585266113281,0.2728688716888428,-33.68607711791992,0.5890241414308548,0.5890241414308548,nan,nan,0,-0.11491983383893967,-0.3799799382686615,-0.2021794319152832,4.8618998527526855,-0.2674599103629589,-0.2674599103629589,nan,nan,0,-0.4973915219306946,-0.04362562671303749,-0.8773841857910156,-8.754159927368164,-0.2486957609653473,-0.2486957609653473,nan,nan,0,0,0.9996016621589661,0.009167118929326534,-0.02108876407146454,-0.01636415161192417,-0.14347650110721588,0.3122473359107971,0.2710362374782562,nan,nan,nan,0.0,298.9074401855469,0.0,298.9074401855469,0.0,0.09508698433637619,-0.02117062918841839,-0.0495205894112587
1782213133516554668,-0.9749282598495483,-0.22251944243907928,0.4000000059604645,0.0,0.0,0,1,0.016835447400808334,-0.03916788101196289,-0.02992725372314453,-0.26372256875038147,0.27577483654022217,0.36038777232170105,0.707878828048706,0.6450096964836121,0.3917160928249359,5.4751811027526855,0.7539394199848175,0.7539394199848175,nan,nan,0,0.14415788650512695,0.0371587872505188,-0.2624705135822296,-0.815085768699646,0.12207894399762154,0.12207894399762154,nan,nan,0,-0.04083191975951195,-0.29566311836242676,0.2830348312854767,0.3392569422721863,-0.33041596226394176,-0.33041596226394176,nan,nan,0,0.8671609163284302,0.9037514925003052,0.11596571654081345,-0.7158134579658508,0.9235804677009583,0.9235804677009583,nan,nan,0,-2.0358047485351562,-0.41000017523765564,0.000803008209913969,-31.059263229370117,-1.2279023677110672,-1.2279023677110672,nan,nan,0,-0.03766431286931038,-0.03692138195037842,-0.10552337765693665,-0.13945308327674866,-0.01883215643465519,-0.01883215643465519,nan,nan,0,-0.9163095951080322,-0.6422567367553711,-0.0904662162065506,-1.3919280767440796,-0.8581548035144806,-0.8581548035144806,nan,nan,0,0.6010083556175232,-0.07060033828020096,-0.33316925168037415,24.025497436523438,0.25050417706370354,0.25050417706370354,nan,nan,0,0.8361120820045471,0.3151509165763855,-0.5085482597351074,7.529845237731934,0.7280560433864594,0.7280560433864594,nan,nan,0,0.1293981522321701,0.8890381455421448,0.12513311207294464,-34.02458190917969,0.5546990856528282,0.5546990856528282,nan,nan,0,-0.11873731762170792,-0.3818244934082031,-0.2103290557861328,4.761936664581299,-0.26936865225434303,-0.26936865225434303,nan,nan,0,-0.568779706954956,-0.04492286592721939,-0.8766456842422485,-7.839351654052734,-0.284389853477478,-0.284389853477478,nan,nan,0,0,0.9996632933616638,0.008122057653963566,-0.019705820828676224,-0.014794901944696903,-0.26372256875038147,0.27577483654022217,0.36038777232170105,nan,nan,nan,0.0,338.3738708496094,0.0,338.3738708496094,0.0,0.09845971316099167,-0.010098765604197979,-0.04383471980690956
1782213133526554668,-0.9909498691558838,-0.13423265516757965,0.4000000059604645,0.0,0.0,0,1,0.014627581462264061,-0.036975860595703125,-0.026774883270263672,-0.19775091111660004,0.22587141394615173,0.29634663462638855,1.2917041778564453,0.6383095979690552,-1.0173779726028442,-6.522243499755859,1.0458520948886871,1.0458520948886871,nan,nan,0,-0.06609290838241577,0.03544889762997627,-0.03742077946662903,2.7556118965148926,0.016953546553850174,0.016953546553850174,nan,nan,0,0.10862064361572266,-0.2892542779445648,0.5140630006790161,-0.6719093322753906,-0.25568968057632446,-0.25568968057632446,nan,nan,0,0.7768199443817139,0.8929985761642456,-1.3136767148971558,2.0785791873931885,0.8784099817276001,0.8784099817276001,nan,nan,0,-2.156576156616211,-0.4100002944469452,0.0008499707328155637,-28.102121353149414,-1.2882880717515945,-1.2882880717515945,nan,nan,0,-0.03923624008893967,-0.037207815796136856,-0.202877014875412,-0.4837607741355896,-0.019618120044469833,-0.019618120044469833,nan,nan,0,-0.4523313641548157,-0.6425997614860535,-0.12759464979171753,-6.3315863609313965,-0.6261656880378723,-0.6261656880378723,nan,nan,0,1.0952625274658203,-0.07244881242513657,-0.21521061658859253,15.297405242919922,0.4976312629878521,0.4976312629878521,nan,nan,0,0.5116133689880371,0.31104591488838196,-0.3695316016674042,9.198698997497559,0.5658066868782043,0.5658066868782043,nan,nan,0,0.21472036838531494,0.8899511098861694,0.20726048946380615,-35.617183685302734,0.5973601937294006,0.5973601937294006,nan,nan,0,-0.10091051459312439,-0.3839511275291443,-0.3003750443458557,6.193277835845947,-0.26045525074005127,-0.26045525074005127,nan,nan,0,-0.5543990135192871,-0.04612969607114792,-0.7835155129432678,-6.781386375427246,-0.27719950675964355,-0.27719950675964355,nan,nan,0,0,0.9997144937515259,0.007064341567456722,-0.018582601100206375,-0.013249216601252556,-0.19775091111660004,0.22587141394615173,0.29634663462638855,nan,nan,nan,0.0,314.1389465332031,0.0,314.1389465332031,0.0,0.10313143581151962,0.00854449812322855,-0.04674085974693298
1782213133536554668,-0.9989930987358093,-0.04486418515443802,0.4000000059604645,0.0,0.0,0,1,0.011689692735671997,-0.03302907943725586,-0.02298116683959961,-0.3265940546989441,0.46708372235298157,0.3785914480686188,-0.44793617725372314,0.644986093044281,1.2234660387039185,10.697142601013184,0.1760319173336029,0.1760319173336029,nan,nan,0,-0.1658356934785843,0.037178587168455124,0.11313844472169876,1.7328234910964966,-0.032917845994234085,-0.032917845994234085,nan,nan,0,0.25489604473114014,-0.29394617676734924,-0.4671083390712738,2.1826529502868652,-0.18255198001861572,-0.18255198001861572,nan,nan,0,0.4042939841747284,0.8998663425445557,1.105163812637329,0.41648420691490173,0.6921470016241074,0.6921470016241074,nan,nan,0,-1.8395814895629883,-0.41000014543533325,0.0008232288528233767,-31.084871292114258,-1.1297907382249832,-1.1297907382249832,nan,nan,0,0.029657166451215744,-0.03600654751062393,-0.06525641679763794,-0.49872565269470215,0.014828583225607872,0.014828583225607872,nan,nan,0,-0.8283282518386841,-0.6471929550170898,-0.6057168841362,1.6110745668411255,-0.8141641318798065,-0.8141641318798065,nan,nan,0,0.7208989858627319,-0.07617586106061935,-0.5098448991775513,23.84503173828125,0.3104494921863079,0.3104494921863079,nan,nan,0,0.30052444338798523,0.30863621830940247,-0.255765438079834,15.00512981414795,0.4602622240781784,0.4602622240781784,nan,nan,0,0.25790935754776,0.8925678133964539,0.33150771260261536,-34.603755950927734,0.6189546883106232,0.6189546883106232,nan,nan,0,-0.13130417466163635,-0.3858256936073303,-0.1490306258201599,6.08860445022583,-0.27565208077430725,-0.27565208077430725,nan,nan,0,-0.45448559522628784,-0.047529347240924835,-0.9620157480239868,-8.334117889404297,-0.22724279761314392,-0.22724279761314392,nan,nan,0,0,0.9997816681861877,0.005653881933540106,-0.01657966524362564,-0.011392173357307911,-0.3265940546989441,0.46708372235298157,0.3785914480686188,nan,nan,nan,0.0,336.321533203125,0.0,336.321533203125,0.0,0.09774455428123474,0.01945141702890396,-0.07774379104375839
1782213133546554668,-0.9989929795265198,0.04486646503210068,0.4000000059604645,0.0,0.0,1,1,0.008257942274212837,-0.03033304214477539,-0.019453048706054688,-0.3433484733104706,0.21697551012039185,0.38763436675071716,1.7616422176361084,0.6421689391136169,-0.3275625705718994,-4.013119697570801,1.2808211147785187,1.2808211147785187,nan,nan,0,0.250772625207901,0.03373829647898674,-0.16359677910804749,-4.16701602935791,0.17538631334900856,0.17538631334900856,nan,nan,0,-0.15394490957260132,-0.28589928150177,0.3109245300292969,0.9511001706123352,-0.38697245717048645,-0.38697245717048645,nan,nan,0,1.018707513809204,0.890887439250946,-0.9037800431251526,-3.452453374862671,0.9993537664413452,0.9993537664413452,nan,nan,0,-2.0162312984466553,-0.4091092348098755,0.3918605446815491,-31.510175704956055,-1.2181156426668167,-1.2181156426668167,nan,nan,0,0.014474783092737198,-0.01805887743830681,4.76375675201416,-3.363516330718994,0.007237391546368599,0.007237391546368599,nan,nan,0,-0.6168310642242432,-0.6475616097450256,0.09886255860328674,-3.2031893730163574,-0.7084155380725861,-0.7084155380725861,nan,nan,0,0.7213953733444214,-0.07924839854240417,-0.3051299750804901,22.46619987487793,0.31069768592715263,0.31069768592715263,nan,nan,0,0.9977025985717773,0.30350765585899353,-0.6453337669372559,5.273734092712402,0.8088513016700745,0.8088513016700745,nan,nan,0,0.21561196446418762,0.8933284878730774,0.08092450350522995,-31.709169387817383,0.597805991768837,0.597805991768837,nan,nan,0,-0.1351284384727478,-0.3877691924571991,-0.28080618381500244,4.923010349273682,-0.277564212679863,-0.277564212679863,nan,nan,0,-0.5630232691764832,-0.048738956451416016,-0.7591790556907654,-6.354471206665039,-0.2815116345882416,-0.2815116345882416,nan,nan,0,0,0.9998298287391663,0.003980782348662615,-0.01520532090216875,-0.009662441909313202,-0.3433484733104706,0.21697551012039185,0.38763436675071716,nan,nan,nan,153.2007598876953,304.1663513183594,153.2007598876953,304.1663513183594,0.0,0.1038641557097435,0.03183719515800476,-0.05078081414103508
1782213133556554668,-0.9909496903419495,0.1342339813709259,0.4000000059604645,0.0,0.0,1,1,0.005042181350290775,-0.026957988739013672,-0.01604747772216797,-0.2834966480731964,0.38889238238334656,0.2657754123210907,0.3026058077812195,0.6491534113883972,1.3913685083389282,-0.6786964535713196,0.5513029098510742,0.5513029098510742,nan,nan,0,-0.3636736273765564,0.03524152934551239,0.1466170847415924,2.861639976501465,-0.13183681294322014,-0.13183681294322014,nan,nan,0,0.27426835894584656,-0.29452791810035706,-1.2645530700683594,4.899713039398193,-0.1728658229112625,-0.1728658229112625,nan,nan,0,0.3043970763683319,0.8919040560722351,0.667147159576416,-0.2557646632194519,0.6421985477209091,0.6421985477209091,nan,nan,0,-2.0342020988464355,-0.40815529227256775,0.9365977048873901,-30.163753509521484,-1.2271010428667068,-1.2271010428667068,nan,nan,0,0.03370771184563637,0.003103481838479638,0.08173909783363342,-0.02606227993965149,0.016853855922818184,0.016853855922818184,nan,nan,0,-0.4588202238082886,-0.6503034830093384,-0.46747642755508423,-4.542476654052734,-0.6294101178646088,-0.6294101178646088,nan,nan,0,1.2101476192474365,-0.08264198899269104,-0.4041507840156555,15.290594100952148,0.5550738088786602,0.5550738088786602,nan,nan,0,0.12682287395000458,0.30023258924484253,-0.2032902091741562,16.16023826599121,0.3734114393591881,0.3734114393591881,nan,nan,0,0.4002276062965393,0.8951131105422974,0.2613930404186249,-36.864768981933594,0.6901138126850128,0.6901138126850128,nan,nan,0,-0.18276776373386383,-0.38959988951683044,-0.13482379913330078,4.8570356369018555,-0.301383875310421,-0.301383875310421,nan,nan,0,-0.44013699889183044,-0.05006152763962746,-0.8403283357620239,-7.558623313903809,-0.22006849944591522,-0.22006849944591522,nan,nan,0,0,0.9998740553855896,0.0024126318749040365,-0.013498276472091675,-0.00798885989934206,-0.2834966480731964,0.38889238238334656,0.2657754123210907,nan,nan,nan,270.8942565917969,289.9507751464844,270.8942565917969,289.9507751464844,0.0,0.10216360539197922,0.03713184967637062,-0.06567037850618362
1782213133566554668,-0.9749277234077454,0.22252167761325836,0.4000000059604645,0.0,0.0,1,1,0.0023043605033308268,-0.023855209350585938,-0.013820648193359375,-0.2670662999153137,0.27471426129341125,0.19317683577537537,0.28600651025772095,0.6607304811477661,0.9725432991981506,8.038643836975098,0.543003261089325,0.543003261089325,nan,nan,0,0.09179922938346863,0.03499023616313934,-0.11469826847314835,-0.2524750828742981,0.09589961543679237,0.09589961543679237,nan,nan,0,-0.05832865834236145,-0.30236688256263733,-0.49404963850975037,4.5900654792785645,-0.3391643315553665,-0.3391643315553665,nan,nan,0,0.6110796928405762,0.8990148901939392,0.5704537630081177,-8.333584785461426,0.7955398559570312,0.7955398559570312,nan,nan,0,-1.5171699523925781,-0.40949055552482605,0.006758581846952438,-31.38914680480957,-0.9685849696397781,-0.9685849696397781,nan,nan,0,0.10368818044662476,0.0028192487079650164,0.11517678201198578,-1.2500418424606323,0.05184409022331238,0.05184409022331238,nan,nan,0,-0.9230942726135254,-0.6523385643959045,-0.13173380494117737,1.573064923286438,-0.8615471422672272,-0.8615471422672272,nan,nan,0,0.31877198815345764,-0.08560262620449066,-0.31738677620887756,25.071123123168945,0.10938599333167076,0.10938599333167076,nan,nan,0,0.8386634588241577,0.2979123294353485,-0.2895664572715759,10.73456859588623,0.7293317317962646,0.7293317317962646,nan,nan,0,0.25455203652381897,0.8960364460945129,0.09989380836486816,-31.20510482788086,0.6172760277986526,0.6172760277986526,nan,nan,0,-0.24791982769966125,-0.39098766446113586,-0.14688757061958313,5.218146800994873,-0.3339599072933197,-0.3339599072933197,nan,nan,0,-0.46716177463531494,-0.05058502033352852,-0.7825778126716614,-7.3317742347717285,-0.23358088731765747,-0.23358088731765747,nan,nan,0,0,0.999904453754425,0.0010696498211473227,-0.011935006827116013,-0.0068960050120949745,-0.2670662999153137,0.27471426129341125,0.19317683577537537,nan,nan,nan,68.07136535644531,318.9430847167969,68.07136535644531,318.9430847167969,0.0,0.10758068412542343,0.04489922896027565,-0.04154469445347786
1782213133576554668,-0.9510560035705566,0.30901864171028137,0.4000000059604645,0.0,0.0,1,1,0.0015185243682935834,-0.023417949676513672,-0.013360023498535156,0.036212168633937836,-0.08418481796979904,-0.049471743404865265,2.217851161956787,0.6586334109306335,-0.7830237746238708,-11.891508102416992,1.508925586938858,1.508925586938858,nan,nan,0,0.01812349259853363,0.03408954665064812,-0.13037405908107758,-2.122689962387085,0.059061747044324875,0.059061747044324875,nan,nan,0,-0.14638274908065796,-0.30128395557403564,0.6694531440734863,0.9932660460472107,-0.38319137692451477,-0.38319137692451477,nan,nan,0,0.9236979484558105,0.8982264399528503,-0.3734700083732605,-16.754764556884766,0.9518489837646484,0.9518489837646484,nan,nan,0,-2.066833257675171,-0.40844348073005676,0.41137751936912537,-26.122629165649414,-1.2434166222810745,-1.2434166222810745,nan,nan,0,0.04766792431473732,0.002941699465736747,0.2146088182926178,-0.08054885268211365,0.02383396215736866,0.02383396215736866,nan,nan,0,-0.06246548518538475,-0.6495054364204407,0.46840089559555054,-6.598303318023682,-0.43123274855315685,-0.43123274855315685,nan,nan,0,0.9874998927116394,-0.08478967845439911,0.23190012574195862,14.466249465942383,0.44374994561076164,0.44374994561076164,nan,nan,0,0.6825934648513794,0.2956855595111847,-0.18910014629364014,6.785364151000977,0.6512967348098755,0.6512967348098755,nan,nan,0,0.27869513630867004,0.8951291441917419,-0.11243933439254761,-26.40751075744629,0.6293475776910782,0.6293475776910782,nan,nan,0,-0.1048719510436058,-0.3927000164985657,-0.23634615540504456,4.784389495849609,-0.262435968965292,-0.262435968965292,nan,nan,0,-0.49862349033355713,-0.04990081116557121,-0.4470112919807434,-5.83046293258667,-0.24931174516677856,-0.24931174516677856,nan,nan,0,0,0.9999089241027832,0.0006809779442846775,-0.011713588610291481,-0.006670703645795584,0.036212168633937836,-0.08418481796979904,-0.049471743404865265,nan,nan,nan,227.43917846679688,224.67466735839844,227.43917846679688,224.67466735839844,0.0,0.11692800372838974,0.04432882368564606,0.021371513605117798
1782213133586554668,-0.9195270538330078,0.3930266499519348,0.4000000059604645,0.0,0.0,0,1,0.00141489552333951,-0.021471023559570312,-0.013473033905029297,-0.03985900804400444,0.32790881395339966,-0.03265979140996933,-0.3984811305999756,0.6686620116233826,1.604714274406433,13.289793968200684,0.20075944066047668,0.20075944066047668,nan,nan,0,-0.4474780261516571,0.03716342896223068,0.3738195300102234,4.2213592529296875,-0.1737390123307705,-0.1737390123307705,nan,nan,0,0.22408521175384521,-0.3071763515472412,-0.7949943542480469,1.1333831548690796,-0.19795739650726318,-0.19795739650726318,nan,nan,0,0.06281951069831848,0.9090268611907959,1.2083914279937744,-3.5980329513549805,0.5214097648859024,0.5214097648859024,nan,nan,0,-1.7626917362213135,-0.4099942445755005,-1.3941880752099678e-05,-28.90507698059082,-1.0913458615541458,-1.0913458615541458,nan,nan,0,0.1192888468503952,0.003743422217667103,-0.03518776595592499,-0.43953487277030945,0.0596444234251976,0.0596444234251976,nan,nan,0,-0.8060591220855713,-0.6517563462257385,-0.5777555108070374,0.21267592906951904,-0.8030295670032501,-0.8030295670032501,nan,nan,0,0.9127810001373291,-0.08477703481912613,-0.15630657970905304,16.956157684326172,0.4063904993236065,0.4063904993236065,nan,nan,0,-0.03471003472805023,0.29776933789253235,0.32764965295791626,16.479368209838867,0.2926449850201607,0.2926449850201607,nan,nan,0,0.4888377785682678,0.8963474035263062,0.26721739768981934,-32.4109992980957,0.7344188988208771,0.7344188988208771,nan,nan,0,-0.3925531208515167,-0.39420458674430847,-0.0933312177658081,4.689888000488281,-0.40627655386924744,-0.40627655386924744,nan,nan,0,-0.37953150272369385,-0.048841968178749084,-0.563750684261322,-7.688103675842285,-0.18976575136184692,-0.18976575136184692,nan,nan,0,0,0.9999195337295532,0.0006350735784508288,-0.010739787481725216,-0.006728443782776594,-0.03985900804400444,0.32790881395339966,-0.03265979140996933,nan,nan,nan,0.0,292.01751708984375,0.0,292.01751708984375,0.0,0.11552939563989639,0.054463356733322144,-0.030881982296705246
1782213133596554668,-0.8805951476097107,0.4738694131374359,0.4000000059604645,0.0,0.0,1,1,0.001236435491591692,-0.020769119262695312,-0.014084815979003906,0.008436310105025768,-0.039709821343421936,-0.03541432321071625,1.8696107864379883,0.6656831502914429,-0.5414900779724121,-1.3587205410003662,1.3348053991794586,1.3348053991794586,nan,nan,0,0.39119550585746765,0.03482652083039284,-0.11574310064315796,-6.083627700805664,0.24559775367379189,0.24559775367379189,nan,nan,0,-0.2406001091003418,-0.29995933175086975,0.44822418689727783,2.245549440383911,-0.4303000569343567,-0.4303000569343567,nan,nan,0,0.9707286953926086,0.9004386067390442,-0.15245287120342255,-22.905302047729492,0.9753643572330475,0.9753643572330475,nan,nan,0,-1.8841185569763184,-0.40699779987335205,0.12452737987041473,-29.540048599243164,-1.1520592719316483,-1.1520592719316483,nan,nan,0,0.07189235091209412,0.0008537244284525514,-0.4390650987625122,1.5112985372543335,0.03594617545604706,0.03594617545604706,nan,nan,0,-0.6494284868240356,-0.650992214679718,0.3016433119773865,-0.4127759337425232,-0.7247142493724823,-0.7247142493724823,nan,nan,0,0.3481987416744232,-0.08387035876512527,0.16881470382213593,24.478904724121094,0.12409937009215355,0.12409937009215355,nan,nan,0,1.0755466222763062,0.29830875992774963,-0.07717587053775787,3.030158758163452,0.8477733135223389,0.8477733135223389,nan,nan,0,0.1420765221118927,0.8968968987464905,0.045152876526117325,-21.57798957824707,0.5610382705926895,0.5610382705926895,nan,nan,0,-0.2326599657535553,-0.3962087333202362,-0.29622191190719604,4.0442047119140625,-0.3263299763202667,-0.3263299763202667,nan,nan,0,-0.4761022925376892,-0.04723222181200981,-0.3684617280960083,-5.623495578765869,-0.2380511462688446,-0.2380511462688446,nan,nan,0,0,0.9999212026596069,0.0005450386670418084,-0.010388355702161789,-0.007035622373223305,0.008436310105025768,-0.039709821343421936,-0.03541432321071625,nan,nan,nan,265.17315673828125,252.92910766601562,265.17315673828125,252.92910766601562,0.0,0.12487901747226715,0.06143379583954811,0.0044601489789783955
