timestamp_ns,phase_sin,phase_cos,cmd_linear_x,cmd_linear_y,cmd_angular_z,left_contact,right_contact,base_euler_x,base_euler_y,base_euler_z,base_ang_vel_x,base_ang_vel_y,base_ang_vel_z,action_left_hip_pitch_joint,pos_left_hip_pitch_joint,vel_left_hip_pitch_joint,effort_left_hip_pitch_joint,pos_des_raw_left_hip_pitch_joint,pos_des_lpf_left_hip_pitch_joint,tau_des_raw_left_hip_pitch_joint,tau_des_lpf_left_hip_pitch_joint,is_parallel_left_hip_pitch_joint,action_left_hip_roll_joint,pos_left_hip_roll_joint,vel_left_hip_roll_joint,effort_left_hip_roll_joint,pos_des_raw_left_hip_roll_joint,pos_des_lpf_left_hip_roll_joint,tau_des_raw_left_hip_roll_joint,tau_des_lpf_left_hip_roll_joint,is_parallel_left_hip_roll_joint,action_left_hip_yaw_joint,pos_left_hip_yaw_joint,vel_left_hip_yaw_joint,effort_left_hip_yaw_joint,pos_des_raw_left_hip_yaw_joint,pos_des_lpf_left_hip_yaw_joint,tau_des_raw_left_hip_yaw_joint,tau_des_lpf_left_hip_yaw_joint,is_parallel_left_hip_yaw_joint,action_left_knee_pitch_joint,pos_left_knee_pitch_joint,vel_left_knee_pitch_joint,effort_left_knee_pitch_joint,pos_des_raw_left_knee_pitch_joint,pos_des_lpf_left_knee_pitch_joint,tau_des_raw_left_knee_pitch_joint,tau_des_lpf_left_knee_pitch_joint,is_parallel_left_knee_pitch_joint,action_left_ankle_pitch_joint,pos_left_ankle_pitch_joint,vel_left_ankle_pitch_joint,effort_left_ankle_pitch_joint,pos_des_raw_left_ankle_pitch_joint,pos_des_lpf_left_ankle_pitch_joint,tau_des_raw_left_ankle_pitch_joint,tau_des_lpf_left_ankle_pitch_joint,is_parallel_left_ankle_pitch_joint,action_left_ankle_roll_joint,pos_left_ankle_roll_joint,vel_left_ankle_roll_joint,effort_left_ankle_roll_joint,pos_des_raw_left_ankle_roll_joint,pos_des_lpf_left_ankle_roll_joint,tau_des_raw_left_ankle_roll_joint,tau_des_lpf_left_ankle_roll_joint,is_parallel_left_ankle_roll_joint,action_right_hip_pitch_joint,pos_right_hip_pitch_joint,vel_right_hip_pitch_joint,effort_right_hip_pitch_joint,pos_des_raw_right_hip_pitch_joint,pos_des_lpf_right_hip_pitch_joint,tau_des_raw_right_hip_pitch_joint,tau_des_lpf_right_hip_pitch_joint,is_parallel_right_hip_pitch_joint,action_right_hip_roll_joint,pos_right_hip_roll_joint,vel_right_hip_roll_joint,effort_right_hip_roll_joint,pos_des_raw_right_hip_roll_joint,pos_des_lpf_right_hip_roll_joint,tau_des_raw_right_hip_roll_joint,tau_des_lpf_right_hip_roll_joint,is_parallel_right_hip_roll_joint,action_right_hip_yaw_joint,pos_right_hip_yaw_joint,vel_right_hip_yaw_joint,effort_right_hip_yaw_joint,pos_des_raw_right_hip_yaw_joint,pos_des_lpf_right_hip_yaw_joint,tau_des_raw_right_hip_yaw_joint,tau_des_lpf_right_hip_yaw_joint,is_parallel_right_hip_yaw_joint,action_right_knee_pitch_joint,pos_right_knee_pitch_joint,vel_right_knee_pitch_joint,effort_right_knee_pitch_joint,pos_des_raw_right_knee_pitch_joint,pos_des_lpf_right_knee_pitch_joint,tau_des_raw_right_knee_pitch_joint,tau_des_lpf_right_knee_pitch_joint,is_parallel_right_knee_pitch_joint,action_right_ankle_pitch_joint,pos_right_ankle_pitch_joint,vel_right_ankle_pitch_joint,effort_right_ankle_pitch_joint,pos_des_raw_right_ankle_pitch_joint,pos_des_lpf_right_ankle_pitch_joint,tau_des_raw_right_ankle_pitch_joint,tau_des_lpf_right_ankle_pitch_joint,is_parallel_right_ankle_pitch_joint,action_right_ankle_roll_joint,pos_right_ankle_roll_joint,vel_right_ankle_roll_joint,effort_right_ankle_roll_joint,pos_des_raw_right_ankle_roll_joint,pos_des_lpf_right_ankle_roll_joint,tau_des_raw_right_ankle_roll_joint,tau_des_lpf_right_ankle_roll_joint,is_parallel_right_ankle_roll_joint,clip_count,imu_quat_w,imu_quat_x,imu_quat_y,imu_quat_z,imu_gyro_x,imu_gyro_y,imu_gyro_z,imu_accel_x,imu_accel_y,imu_accel_z,left_foot_contact_force_z,right_foot_contact_force_z,left_foot_contact_force_mag,right_foot_contact_force_mag,feet_contact_force_penalty,base_lin_vel_x,base_lin_vel_y,base_lin_vel_z
1782265740822960962,0.2660350799560547,-0.9639633297920227,0.4000000059604645,0.0,0.0,1,1,-0.021671772003173828,0.020630989223718643,-0.003818988800048828,0.28351446986198425,0.17779463529586792,0.27600646018981934,-0.8534114956855774,0.3518163859844208,-0.4159644842147827,-4.899880886077881,-0.02670574188232422,-0.02670574188232422,nan,nan,0,-0.2883581817150116,0.038043830543756485,0.05938805267214775,-18.704591751098633,-0.09417909011244774,-0.09417909011244774,nan,nan,0,-0.02201753854751587,-0.31533461809158325,0.06611482799053192,-7.78204870223999,-0.3210087716579437,-0.3210087716579437,nan,nan,0,-0.07056273519992828,0.57071453332901,-0.11413853615522385,-15.54224967956543,0.454718641936779,0.454718641936779,nan,nan,0,0.37730538845062256,-0.3344826102256775,-0.3858904540538788,7.9162983894348145,-0.021347299218177795,-0.021347299218177795,nan,nan,0,0.27984899282455444,0.011517929844558239,-0.15082231163978577,14.149073600769043,0.13992449641227722,0.13992449641227722,nan,nan,0,-0.2627978026866913,-0.3896344304084778,0.09199933707714081,-7.301716327667236,-0.5313989073038101,-0.5313989073038101,nan,nan,0,0.2689809501171112,-0.06559527665376663,0.12767831981182098,-1.8266502618789673,0.08449047431349754,0.08449047431349754,nan,nan,0,0.04796547442674637,0.3105917274951935,-0.1903759390115738,-0.02093064785003662,0.333982739597559,0.333982739597559,nan,nan,0,-0.2637253403663635,0.5361154675483704,-0.19207049906253815,-8.467544555664062,0.3581373393535614,0.3581373393535614,nan,nan,0,0.22562271356582642,-0.27096614241600037,0.8686818480491638,-1.2831547260284424,-0.09718863666057587,-0.09718863666057587,nan,nan,0,-0.21385565400123596,0.03470629081130028,-1.3332663774490356,0.18206849694252014,-0.10692782700061798,-0.10692782700061798,nan,nan,0,0,0.9998865127563477,-0.010815365239977837,0.010335377417504787,-0.0017976214876398444,0.28351446986198425,0.17779463529586792,0.27600646018981934,nan,nan,nan,300.0828857421875,29.63680648803711,300.0828857421875,29.63680648803711,0.0,0.2879985570907593,-0.19071006774902344,-0.04096691310405731
1782265740832960962,0.17855599522590637,-0.9839297533035278,0.4000000059604645,0.0,0.0,1,1,-0.018333911895751953,0.0224566962569952,-0.0012602806091308594,0.3590359091758728,0.19597575068473816,0.24381108582019806,-0.7434316277503967,0.3464776277542114,-0.5173946022987366,-5.340281963348389,0.028284192085266113,0.028284192085266113,nan,nan,0,-0.1848696917295456,0.03899215906858444,0.1298752874135971,-15.895109176635742,-0.04243484511971474,-0.04243484511971474,nan,nan,0,-0.007182210683822632,-0.3137841522693634,0.182297945022583,-5.60675048828125,-0.3135911077260971,-0.3135911077260971,nan,nan,0,-0.05012182891368866,0.5684476494789124,-0.21686483919620514,-12.32966136932373,0.46493909507989883,0.46493909507989883,nan,nan,0,0.31553006172180176,-0.3376687467098236,-0.33395346999168396,9.301116943359375,-0.052234962582588196,-0.052234962582588196,nan,nan,0,0.16519653797149658,0.00990310963243246,-0.12001529335975647,12.135809898376465,0.08259826898574829,0.08259826898574829,nan,nan,0,-0.21673157811164856,-0.3864750862121582,0.4306861162185669,-8.166790008544922,-0.5083657950162888,-0.5083657950162888,nan,nan,0,0.47957128286361694,-0.06364980340003967,0.18380343914031982,-0.6678857803344727,0.1897856406867504,0.1897856406867504,nan,nan,0,0.13504242897033691,0.30707091093063354,-0.39714479446411133,1.0961121320724487,0.37752121686935425,0.37752121686935425,nan,nan,0,-0.2393602579832077,0.5323236584663391,-0.18425780534744263,-12.423460960388184,0.3703198805451393,0.3703198805451393,nan,nan,0,0.28937435150146484,-0.2665998935699463,-0.3164495527744293,1.1538842916488647,-0.06531281769275665,-0.06531281769275665,nan,nan,0,-0.31530022621154785,0.011330079287290573,-2.3649301528930664,0.7792940735816956,-0.15765011310577393,-0.15765011310577393,nan,nan,0,0,0.9998947978019714,-0.009159175679087639,0.011233415454626083,-0.0005271895206533372,0.3590359091758728,0.19597575068473816,0.24381108582019806,nan,nan,nan,276.0079040527344,62.7107048034668,276.0079040527344,62.7107048034668,0.0,0.29760923981666565,-0.20018672943115234,-0.04476999491453171
1782265740842960962,0.0896383747458458,-0.9959743618965149,0.4000000059604645,0.0,0.0,1,1,-0.015113353729248047,0.024615120142698288,0.0006321333930827677,0.24451753497123718,0.2079864740371704,0.1941109001636505,-0.45704466104507446,0.33937883377075195,-0.8471507430076599,-4.640458583831787,0.17147767543792725,0.17147767543792725,nan,nan,0,-0.09601175040006638,0.039265308529138565,-0.121349036693573,-10.383097648620605,0.001994125545024872,0.001994125545024872,nan,nan,0,-0.023567132651805878,-0.31041961908340454,0.42384856939315796,-4.692697525024414,-0.32178356871008873,-0.32178356871008873,nan,nan,0,-0.019408389925956726,0.5632460713386536,-0.7232584357261658,-6.861041069030762,0.4802958145737648,0.4802958145737648,nan,nan,0,0.12764368951320648,-0.3395867347717285,-0.13959287106990814,10.041476249694824,-0.14617814868688583,-0.14617814868688583,nan,nan,0,0.07322866469621658,0.009424072690308094,-0.1553613692522049,9.685202598571777,0.03661433234810829,0.03661433234810829,nan,nan,0,0.060809582471847534,-0.3849566876888275,0.22451288998126984,-6.833718776702881,-0.3695952147245407,-0.3695952147245407,nan,nan,0,0.8186982870101929,-0.06219898536801338,0.11022770404815674,1.1956727504730225,0.3593491427600384,0.3593491427600384,nan,nan,0,0.25270068645477295,0.3046213686466217,-0.31865066289901733,1.0133386850357056,0.43635034561157227,0.43635034561157227,nan,nan,0,-0.2214912623167038,0.5343664884567261,0.41721823811531067,-20.468830108642578,0.37925437837839127,0.37925437837839127,nan,nan,0,0.3232201933860779,-0.27339568734169006,-1.0497937202453613,2.4043266773223877,-0.048389896750450134,-0.048389896750450134,nan,nan,0,-0.4271288216114044,0.0018837560201063752,-0.20085185766220093,-1.1884313821792603,-0.2135644108057022,-0.2135644108057022,nan,nan,0,0,0.9998956918716431,-0.007560038939118385,0.012304508127272129,0.0004090361762791872,0.24451753497123718,0.2079864740371704,0.1941109001636505,nan,nan,nan,181.7538604736328,162.19639587402344,181.7538604736328,162.19639587402344,0.0,0.305329293012619,-0.18998312950134277,0.007308046333491802
1782265740852960962,-9.775241096576792e-07,-1.0,0.4000000059604645,0.0,0.0,1,1,-0.013032913208007812,0.026850800961256027,0.0024253702722489834,0.17294608056545258,0.24914801120758057,0.17086926102638245,-0.2835436165332794,0.33040717244148254,-0.8253123164176941,-6.582540988922119,0.25822819769382477,0.25822819769382477,nan,nan,0,-0.07101703435182571,0.037410665303468704,-0.2249254584312439,-5.901762962341309,0.014491483569145203,0.014491483569145203,nan,nan,0,0.0011340528726577759,-0.3060733377933502,0.40998077392578125,-2.8788981437683105,-0.3094329759478569,-0.3094329759478569,nan,nan,0,-0.08026891946792603,0.5548924803733826,-0.8276118636131287,-2.3937947750091553,0.44986554980278015,0.44986554980278015,nan,nan,0,-0.06896209716796875,-0.34038010239601135,-0.06130917742848396,11.489750862121582,-0.24448104202747345,-0.24448104202747345,nan,nan,0,-0.013529472053050995,0.007951359264552593,-0.2162756323814392,7.179623603820801,-0.0067647360265254974,-0.0067647360265254974,nan,nan,0,0.3859603703022003,-0.3814213275909424,0.34043431282043457,-6.741462707519531,-0.20701982080936432,-0.20701982080936432,nan,nan,0,1.257822871208191,-0.06138111278414726,0.02743430808186531,2.7289252281188965,0.5789114348590374,0.5789114348590374,nan,nan,0,0.43861570954322815,0.3004817068576813,-0.40662577748298645,2.5171689987182617,0.5293078571557999,0.5293078571557999,nan,nan,0,-0.11911779642105103,0.5347098112106323,0.008399378508329391,-20.180662155151367,0.43044111132621765,0.43044111132621765,nan,nan,0,0.4922176003456116,-0.27877822518348694,-0.537640392780304,4.698162078857422,0.03610880672931671,0.03610880672931671,nan,nan,0,-0.6162927150726318,-0.0007255851523950696,-0.36846116185188293,-2.07727313041687,-0.3081463575363159,-0.3081463575363159,nan,nan,0,0,0.9998878240585327,-0.006532104220241308,0.013416800647974014,0.0013000325998291373,0.17294608056545258,0.24914801120758057,0.17086926102638245,nan,nan,nan,148.79981994628906,223.50587463378906,148.79981994628906,223.50587463378906,0.0,0.3111344873905182,-0.18201568722724915,0.022405268624424934
1782265740862960962,-0.08964031934738159,-0.9959741830825806,0.4000000059604645,0.0,0.0,1,1,-0.011404991149902344,0.029561907052993774,0.003954178187996149,0.14309725165367126,0.29610875248908997,0.14489449560642242,-0.07303363084793091,0.3220667243003845,-0.7583374381065369,-7.656679630279541,0.363483190536499,0.363483190536499,nan,nan,0,0.03444471210241318,0.034910593181848526,-0.27158546447753906,-4.172562599182129,0.06722235679626465,0.06722235679626465,nan,nan,0,0.011265777051448822,-0.3020431697368622,0.39056819677352905,-3.0786547660827637,-0.3043671138584614,-0.3043671138584614,nan,nan,0,-0.057458773255348206,0.545992910861969,-0.8701406121253967,-0.04115849733352661,0.46127062290906906,0.46127062290906906,nan,nan,0,-0.19152122735977173,-0.34095150232315063,-0.05151521414518356,11.831790924072266,-0.30576060712337494,-0.30576060712337494,nan,nan,0,-0.05355798453092575,0.004873855039477348,-0.42638838291168213,5.3588361740112305,-0.026778992265462875,-0.026778992265462875,nan,nan,0,0.6621400713920593,-0.3776737153530121,0.2942515015602112,-5.842228412628174,-0.06892997026443481,-0.06892997026443481,nan,nan,0,1.5855170488357544,-0.06116156652569771,-0.017847487702965736,6.603912353515625,0.7427585236728191,0.7427585236728191,nan,nan,0,0.5819750428199768,0.2963150441646576,-0.357431560754776,3.006514549255371,0.6009875237941742,0.6009875237941742,nan,nan,0,-0.0849633514881134,0.5337352156639099,-0.05132731795310974,-16.928693771362305,0.44751833379268646,0.44751833379268646,nan,nan,0,0.5656924247741699,-0.2831978499889374,-0.4434363543987274,7.311534404754639,0.07284621894359589,0.07284621894359589,nan,nan,0,-0.7423337697982788,-0.003496622433885932,-0.283456414937973,-3.3559069633483887,-0.3711668848991394,-0.3711668848991394,nan,nan,0,0,0.9998724460601807,-0.005731049459427595,0.014768872410058975,0.002061124425381422,0.14309725165367126,0.29610875248908997,0.14489449560642242,nan,nan,nan,124.1050796508789,227.51608276367188,124.1050796508789,227.51608276367188,0.0,0.3138686418533325,-0.17541199922561646,0.01952073909342289
1782265740872960962,-0.17855793237686157,-0.9839293956756592,0.4000000059604645,0.0,0.0,1,1,-0.009926319122314453,0.0328596830368042,0.005316813476383686,0.13884292542934418,0.35458341240882874,0.13277536630630493,0.09297505021095276,0.3156234323978424,-0.5306347608566284,-6.494332313537598,0.44648753106594086,0.44648753106594086,nan,nan,0,0.07307716459035873,0.032663192600011826,-0.20957377552986145,-2.172619581222534,0.08653858304023743,0.08653858304023743,nan,nan,0,0.02459701895713806,-0.299154669046402,0.24233290553092957,-2.331129312515259,-0.29770149290561676,-0.29770149290561676,nan,nan,0,-0.050205349922180176,0.5380643606185913,-0.7164050340652466,0.3382725119590759,0.4648973345756531,0.4648973345756531,nan,nan,0,-0.2540588974952698,-0.34164994955062866,-0.07318663597106934,10.777552604675293,-0.33702944219112396,-0.33702944219112396,nan,nan,0,-0.070652537047863,0.0018997399602085352,-0.2759695053100586,3.4154460430145264,-0.0353262685239315,-0.0353262685239315,nan,nan,0,0.7846598029136658,-0.3753684461116791,0.12943901121616364,-4.7047529220581055,-0.007670104503631592,-0.007670104503631592,nan,nan,0,1.8224180936813354,-0.0613894946873188,-0.04403957724571228,10.928102493286133,0.8612090460956097,0.8612090460956097,nan,nan,0,0.6873575448989868,0.29326537251472473,-0.22956283390522003,4.120865345001221,0.6536787748336792,0.6536787748336792,nan,nan,0,-0.04471495747566223,0.5331278443336487,-0.0012488272041082382,-16.497482299804688,0.46764253079891205,0.46764253079891205,nan,nan,0,0.6659563779830933,-0.28742659091949463,-0.39955922961235046,8.544343948364258,0.12297819554805756,0.12297819554805756,nan,nan,0,-0.868485689163208,-0.006177524570375681,-0.21665751934051514,-5.037751197814941,-0.434242844581604,-0.434242844581604,nan,nan,0,0,0.9998489618301392,-0.005006061401218176,0.01641565002501011,0.002739550545811653,0.13884292542934418,0.35458341240882874,0.13277536630630493,nan,nan,nan,122.07990264892578,241.61468505859375,122.07990264892578,241.61468505859375,0.0,0.3150262236595154,-0.16747897863388062,0.01526238489896059
1782265740882960962,-0.2660379111766815,-0.9639625549316406,0.4000000059604645,0.0,0.0,1,1,-0.008616447448730469,0.036593109369277954,0.006764343939721584,0.10819082707166672,0.38556811213493347,0.1490335315465927,0.3117271363735199,0.3118593096733093,-0.2950553894042969,-2.8307557106018066,0.5558635741472244,0.5558635741472244,nan,nan,0,0.13400033116340637,0.030935751274228096,-0.19383445382118225,-0.39581525325775146,0.11700016632676125,0.11700016632676125,nan,nan,0,-0.001908421516418457,-0.29818370938301086,0.037917908281087875,-1.8241698741912842,-0.310954213142395,-0.310954213142395,nan,nan,0,-0.04274579882621765,0.5323894023895264,-0.5179694890975952,0.41293302178382874,0.46862711012363434,0.46862711012363434,nan,nan,0,-0.3284982442855835,-0.3421494960784912,0.011352937668561935,6.235535621643066,-0.3742491155862808,-0.3742491155862808,nan,nan,0,-0.09657453745603561,-0.0005329918931238353,-0.4684809446334839,1.9866933822631836,-0.04828726872801781,-0.04828726872801781,nan,nan,0,0.9588278532028198,-0.3739513158798218,0.070508673787117,-0.3901890516281128,0.07941392064094543,0.07941392064094543,nan,nan,0,1.92284095287323,-0.06186477467417717,-0.07314343005418777,17.811355590820312,0.9114204756915569,0.9114204756915569,nan,nan,0,0.7329564094543457,0.2907250225543976,-0.21998658776283264,6.195286750793457,0.6764782071113586,0.6764782071113586,nan,nan,0,0.02858397364616394,0.5326178669929504,0.000619005411863327,-15.569297790527344,0.5042919963598251,0.5042919963598251,nan,nan,0,0.7365233898162842,-0.2915070950984955,-0.3119456171989441,9.251358032226562,0.15826170146465302,0.15826170146465302,nan,nan,0,-0.9476978778839111,-0.008715400472283363,-0.1967938095331192,-6.918914794921875,-0.47384893894195557,-0.47384893894195557,nan,nan,0,0,0.999817430973053,-0.004369459114968777,0.018280688673257828,0.0034603909589350224,0.10819082707166672,0.38556811213493347,0.1490335315465927,nan,nan,nan,56.563255310058594,284.9344787597656,56.563255310058594,284.9344787597656,0.0,0.3165997266769409,-0.15566743910312653,0.01170785166323185
1782265740892960962,-0.35137587785720825,-0.9362344741821289,0.4000000059604645,0.0,0.0,1,1,-0.007365703582763672,0.040367793291807175,0.00815527606755495,0.12077026814222336,0.3789278268814087,0.13752686977386475,0.33117154240608215,0.30804306268692017,-0.37587523460388184,0.11690694093704224,0.5655857771635056,0.5655857771635056,nan,nan,0,0.09293434768915176,0.029324214905500412,-0.15993934869766235,0.0673867017030716,0.09646717458963394,0.09646717458963394,nan,nan,0,-0.0215768963098526,-0.2970583438873291,0.12720580399036407,-1.7437798976898193,-0.3207884505391121,-0.3207884505391121,nan,nan,0,-0.02263292670249939,0.5267461538314819,-0.5593798160552979,-1.7143309116363525,0.47868354618549347,0.47868354618549347,nan,nan,0,-0.3354748785495758,-0.34328457713127136,-0.10856235027313232,4.1453328132629395,-0.377737432718277,-0.377737432718277,nan,nan,0,-0.10958191007375717,-0.0025572520680725574,-0.3092254400253296,0.4166542589664459,-0.054790955036878586,-0.054790955036878586,nan,nan,0,0.979625403881073,-0.3730413615703583,0.0025742389261722565,4.657204627990723,0.08981269598007202,0.08981269598007202,nan,nan,0,1.9769946336746216,-0.062354329973459244,-0.036793194711208344,26.51200294494629,0.9384973160922527,0.9384973160922527,nan,nan,0,0.7707552313804626,0.28861910104751587,-0.17004138231277466,9.344022750854492,0.6953776180744171,0.6953776180744171,nan,nan,0,0.10148021578788757,0.5326694846153259,0.07269789278507233,-11.046342849731445,0.540740117430687,0.540740117430687,nan,nan,0,0.7828154563903809,-0.2958095967769623,-0.25640812516212463,12.30566120147705,0.18140773475170135,0.18140773475170135,nan,nan,0,-1.0512011051177979,-0.011150799691677094,-0.08959300071001053,-10.199438095092773,-0.5256005525588989,-0.5256005525588989,nan,nan,0,0,0.9997808933258057,-0.003764426801353693,0.020167207345366478,0.004151098430156708,0.12077026814222336,0.3789278268814087,0.13752686977386475,nan,nan,nan,42.78411865234375,296.7875671386719,42.78411865234375,296.7875671386719,0.0,0.31838691234588623,-0.1440957933664322,0.006320014130324125
1782265740902960962,-0.43388479948043823,-0.9009683728218079,0.4000000059604645,0.0,0.0,1,1,-0.006006717681884766,0.04405904561281204,0.009664338082075119,0.13033273816108704,0.36153000593185425,0.1539318710565567,0.3848857581615448,0.3051838278770447,-0.24700799584388733,2.9755160808563232,0.5924428850412369,0.5924428850412369,nan,nan,0,0.20034390687942505,0.028384681791067123,-0.07821004092693329,1.9637879133224487,0.15017195418477058,0.15017195418477058,nan,nan,0,-0.03209799528121948,-0.2967904508113861,0.004008077550679445,-1.088884949684143,-0.32604900002479553,-0.32604900002479553,nan,nan,0,0.018464498221874237,0.5226185321807861,-0.34450259804725647,-2.1677796840667725,0.4992322586476803,0.4992322586476803,nan,nan,0,-0.34031152725219727,-0.34400179982185364,-0.0375276654958725,1.9783117771148682,-0.3801557570695877,-0.3801557570695877,nan,nan,0,-0.17236706614494324,-0.00455666147172451,-0.2807578146457672,-0.24125418066978455,-0.08618353307247162,-0.08618353307247162,nan,nan,0,1.0234023332595825,-0.3724634349346161,-0.0019657984375953674,9.433023452758789,0.11170116066932678,0.11170116066932678,nan,nan,0,1.9766347408294678,-0.06248380243778229,0.01849079132080078,31.421300888061523,0.9383173696696758,0.9383173696696758,nan,nan,0,0.7595521807670593,0.2867337763309479,-0.1925024539232254,11.992118835449219,0.6897760927677155,0.6897760927677155,nan,nan,0,0.1897830367088318,0.533286452293396,0.09987978637218475,-9.697113990783691,0.5848915278911591,0.5848915278911591,nan,nan,0,0.8242634534835815,-0.30047640204429626,-0.22318726778030396,13.738430976867676,0.2021317332983017,0.2021317332983017,nan,nan,0,-1.105987548828125,-0.013238097541034222,-0.03644360601902008,-12.3795747756958,-0.5529937744140625,-0.5529937744140625,nan,nan,0,0,0.9997408986091614,-0.0031090748962014914,0.022012874484062195,0.004897113423794508,0.13033273816108704,0.36153000593185425,0.1539318710565567,nan,nan,nan,23.208044052124023,329.3499755859375,23.208044052124023,329.3499755859375,0.0,0.3190019130706787,-0.13004392385482788,0.005504460074007511
1782265740912960962,-0.5128994584083557,-0.8584486842155457,0.4000000059604645,0.0,0.0,0,1,-0.0044765472412109375,0.047579988837242126,0.011105166748166084,0.15367482602596283,0.3443557322025299,0.13186021149158478,0.35330259799957275,0.30319496989250183,-0.1792333871126175,5.281871795654297,0.5766513049602509,0.5766513049602509,nan,nan,0,0.21973863244056702,0.028246929869055748,0.018551435321569443,2.0988693237304688,0.15986931696534157,0.15986931696534157,nan,nan,0,-0.03303530812263489,-0.29691842198371887,-0.0026915809139609337,0.9769381880760193,-0.32651765644550323,-0.32651765644550323,nan,nan,0,0.07005956768989563,0.5198265314102173,-0.27339810132980347,-2.6671481132507324,0.525029793381691,0.525029793381691,nan,nan,0,-0.3099309802055359,-0.3443037271499634,-0.06183652952313423,-0.37778759002685547,-0.364965483546257,-0.364965483546257,nan,nan,0,-0.21625536680221558,-0.00652873981744051,-0.23960641026496887,-0.5813099145889282,-0.10812768340110779,-0.10812768340110779,nan,nan,0,0.9645951390266418,-0.3722037076950073,-0.048473060131073,11.415742874145508,0.08229756355285645,0.08229756355285645,nan,nan,0,1.9443010091781616,-0.06216934695839882,0.07284333556890488,35.99006652832031,0.9221505038440228,0.9221505038440228,nan,nan,0,0.76899254322052,0.28526294231414795,-0.1367458701133728,13.663467407226562,0.6944962739944458,0.6944962739944458,nan,nan,0,0.23116165399551392,0.5345696210861206,0.16721831262111664,-8.501068115234375,0.6055808365345001,0.6055808365345001,nan,nan,0,0.8445137143135071,-0.3055245876312256,-0.22994038462638855,15.666069984436035,0.21225686371326447,0.21225686371326447,nan,nan,0,-1.1373372077941895,-0.014974863268435001,-0.012584857642650604,-14.52938461303711,-0.5686686038970947,-0.5686686038970947,nan,nan,0,0,0.9996987581253052,-0.0023697989527136087,0.023774899542331696,0.005604214500635862,0.15367482602596283,0.3443557322025299,0.13186021149158478,nan,nan,nan,1.0455834865570068,340.8052062988281,1.0455834865570068,340.8052062988281,0.0,0.3198487460613251,-0.11553480476140976,0.002429113257676363
1782265740922960962,-0.5877862572669983,-0.8090162873268127,0.4000000059604645,0.0,0.0,0,1,-0.002735614776611328,0.05098011717200279,0.012448284775018692,0.17600694298744202,0.3291490972042084,0.12979045510292053,0.33545351028442383,0.30314314365386963,0.06389716267585754,6.947925567626953,0.5677267611026764,0.5677267611026764,nan,nan,0,0.23691326379776,0.029122041538357735,0.13594219088554382,2.9725589752197266,0.16845663264393806,0.16845663264393806,nan,nan,0,-0.05144411325454712,-0.2974441349506378,-0.013861114159226418,0.397817999124527,-0.33572205901145935,-0.33572205901145935,nan,nan,0,0.14536821842193604,0.5179634690284729,-0.21690085530281067,-2.4124231338500977,0.5626841187477112,0.5626841187477112,nan,nan,0,-0.24533650279045105,-0.34686967730522156,-0.11791317164897919,-0.2779984474182129,-0.3326682448387146,-0.3326682448387146,nan,nan,0,-0.2604858875274658,-0.011905387043952942,-0.368130087852478,-0.6795238256454468,-0.1302429437637329,-0.1302429437637329,nan,nan,0,0.9348357915878296,-0.3726637661457062,-0.11612492799758911,14.246203422546387,0.06741788983345032,0.06741788983345032,nan,nan,0,1.8966110944747925,-0.06142633780837059,0.12480367720127106,37.81636428833008,0.8983055464923382,0.8983055464923382,nan,nan,0,0.7221821546554565,0.2845187187194824,-0.08283897489309311,14.267533302307129,0.6710910797119141,0.6710910797119141,nan,nan,0,0.2742910385131836,0.5368590950965881,0.2656652629375458,-6.037769794464111,0.627145528793335,0.627145528793335,nan,nan,0,0.8750950694084167,-0.3110499680042267,-0.23899933695793152,17.106027603149414,0.2275475412607193,0.2275475412607193,nan,nan,0,-1.1610260009765625,-0.016289468854665756,0.027180641889572144,-16.1613826751709,-0.5805130004882812,-0.5805130004882812,nan,nan,0,0,0.9996545910835266,-0.0015260414220392704,0.025478271767497063,0.0062569365836679935,0.17600694298744202,0.3291490972042084,0.12979045510292053,nan,nan,nan,1.7111355066299438,343.7474365234375,1.7111355066299438,343.7474365234375,0.0,0.31929564476013184,-0.10098468512296677,-0.0018547220388427377
1782265740932960962,-0.6579396724700928,-0.7530706524848938,0.4000000059604645,0.0,0.0,1,1,-0.0007252693176269531,0.05409941077232361,0.013671009801328182,0.20684371888637543,0.2935846149921417,0.11203660070896149,0.422005832195282,0.3048741817474365,0.2104581743478775,6.72022819519043,0.6110029220581055,0.6110029220581055,nan,nan,0,0.246535986661911,0.031122181564569473,0.2420625388622284,1.7407855987548828,0.17326799407601357,0.17326799407601357,nan,nan,0,-0.05831730365753174,-0.29807746410369873,-0.03573530167341232,0.17638731002807617,-0.33915865421295166,-0.33915865421295166,nan,nan,0,0.1740478277206421,0.5167514681816101,-0.11236759275197983,-2.258410930633545,0.5770239233970642,0.5770239233970642,nan,nan,0,-0.24458026885986328,-0.3503604829311371,-0.11596955358982086,-0.22422927618026733,-0.3322901278734207,-0.3322901278734207,nan,nan,0,-0.2985709309577942,-0.017312489449977875,-0.2031441032886505,-0.7457516193389893,-0.1492854654788971,-0.1492854654788971,nan,nan,0,0.9576776623725891,-0.3738909959793091,-0.1855941265821457,14.808220863342285,0.07883882522583008,0.07883882522583008,nan,nan,0,1.8053838014602661,-0.06018828600645065,0.1812187284231186,38.679443359375,0.852691899985075,0.852691899985075,nan,nan,0,0.7454012036323547,0.28456804156303406,-0.01362524926662445,14.645073890686035,0.6827006042003632,0.6827006042003632,nan,nan,0,0.3075132966041565,0.5405867695808411,0.42003920674324036,-4.247447967529297,0.6437566578388214,0.6437566578388214,nan,nan,0,0.8755699396133423,-0.3173031806945801,-0.3346156179904938,18.179609298706055,0.22778497636318207,0.22778497636318207,nan,nan,0,-1.1668143272399902,-0.01717453822493553,0.06259649991989136,-17.94757080078125,-0.5834071636199951,-0.5834071636199951,nan,nan,0,0,0.9996106624603271,-0.0005473188939504325,0.0270432960242033,0.006842757109552622,0.20684371888637543,0.2935846149921417,0.11203660070896149,nan,nan,nan,5.8236188888549805,333.40509033203125,5.8236188888549805,333.40509033203125,0.0,0.3181443214416504,-0.08763518184423447,-0.009855124168097973
1782265740942960962,-0.7227957844734192,-0.6910617351531982,0.4000000059604645,0.0,0.0,1,1,0.001704065827652812,0.0567299947142601,0.01474153995513916,0.25697222352027893,0.23211367428302765,0.09580586105585098,0.5568761229515076,0.3070927560329437,0.1398431956768036,7.6197896003723145,0.6784380674362183,0.6784380674362183,nan,nan,0,0.2686735689640045,0.03442743048071861,0.3597870171070099,3.3935554027557373,0.18433678522706032,0.18433678522706032,nan,nan,0,-0.04810395836830139,-0.29977408051490784,-0.1321210414171219,0.4162081182003021,-0.3340519815683365,-0.3340519815683365,nan,nan,0,0.2218092978000641,0.5189396142959595,0.19428013265132904,-4.386979103088379,0.6009046584367752,0.6009046584367752,nan,nan,0,-0.2926487922668457,-0.3511492908000946,0.07079452276229858,-0.3780395984649658,-0.3563243895769119,-0.3563243895769119,nan,nan,0,-0.279788076877594,-0.02108198218047619,-0.533510148525238,-1.6006801128387451,-0.139894038438797,-0.139894038438797,nan,nan,0,0.9957972168922424,-0.37573152780532837,-0.21626555919647217,15.626632690429688,0.09789860248565674,0.09789860248565674,nan,nan,0,1.8243825435638428,-0.058216918259859085,0.2706940770149231,38.33096694946289,0.8621912710368633,0.8621912710368633,nan,nan,0,0.745578944683075,0.2853913903236389,0.049091752618551254,13.718722343444824,0.6827894747257233,0.6827894747257233,nan,nan,0,0.2937748432159424,0.546010434627533,0.5809592604637146,-2.0116958618164062,0.6368874311447144,0.6368874311447144,nan,nan,0,0.8733397126197815,-0.32452645897865295,-0.4549858868122101,19.20866584777832,0.22666986286640167,0.22666986286640167,nan,nan,0,-1.1800119876861572,-0.017561113461852074,0.08748997747898102,-18.930923461914062,-0.5900059938430786,-0.5900059938430786,nan,nan,0,0,0.999570369720459,0.0006426250329241157,0.02836669236421585,0.007343571167439222,0.25697222352027893,0.23211367428302765,0.09580586105585098,nan,nan,nan,13.012770652770996,321.6230163574219,13.012770652770996,321.6230163574219,0.0,0.31780287623405457,-0.07579828053712845,-0.01637580431997776
1782265740952960962,-0.7818323373794556,-0.6234887838363647,0.4000000059604645,0.0,0.0,1,1,0.004582378081977367,0.058774180710315704,0.015592796728014946,0.30216050148010254,0.17907384037971497,0.0735480785369873,0.691763699054718,0.3083644509315491,0.06078580021858215,7.350498199462891,0.7458818554878235,0.7458818554878235,nan,nan,0,0.22990012168884277,0.038489509373903275,0.43310272693634033,3.3847479820251465,0.16495006158947945,0.16495006158947945,nan,nan,0,-0.054463744163513184,-0.3015870749950409,-0.126493439078331,0.4540378451347351,-0.3372318744659424,-0.3372318744659424,nan,nan,0,0.2685704231262207,0.5229683518409729,0.3768577575683594,-3.951443672180176,0.6242852210998535,0.6242852210998535,nan,nan,0,-0.3710816502571106,-0.35556894540786743,-0.25230565667152405,0.43059757351875305,-0.3955408185720444,-0.3955408185720444,nan,nan,0,-0.22541067004203796,-0.02952454425394535,-0.5939525961875916,-2.0417721271514893,-0.11270533502101898,-0.11270533502101898,nan,nan,0,1.0530658960342407,-0.3779691755771637,-0.26183634996414185,14.938139915466309,0.12653294205665588,0.12653294205665588,nan,nan,0,1.999627947807312,-0.055453699082136154,0.3489856421947479,37.32547378540039,0.949813973158598,0.949813973158598,nan,nan,0,0.7412638664245605,0.28691616654396057,0.12562286853790283,13.54611587524414,0.6806319355964661,0.6806319355964661,nan,nan,0,0.2780876159667969,0.553104817867279,0.7401493191719055,-2.250655174255371,0.6290438175201416,0.6290438175201416,nan,nan,0,0.8745655417442322,-0.332773357629776,-0.5494041442871094,19.91725730895996,0.22728277742862701,0.22728277742862701,nan,nan,0,-1.2090363502502441,-0.017443273216485977,0.1854967474937439,-19.531892776489258,-0.6045181751251221,-0.6045181751251221,nan,nan,0,0,0.999535858631134,0.0020610508508980274,0.029399743303656578,0.007725614123046398,0.30216050148010254,0.17907384037971497,0.0735480785369873,nan,nan,nan,16.90546989440918,321.62261962890625,16.90546989440918,321.62261962890625,0.0,0.3177527189254761,-0.06472037732601166,-0.02385302633047104
1782265740962960962,-0.8345740437507629,-0.5508958697319031,0.4000000059604645,0.0,0.0,1,1,0.007832289673388004,0.06028282642364502,0.016365662217140198,0.3363724946975708,0.12395957857370377,0.073802649974823,0.7890832424163818,0.30916768312454224,-0.000807714182883501,7.23752498626709,0.7945416271686554,0.7945416271686554,nan,nan,0,0.19486194849014282,0.043017394840717316,0.4459134042263031,3.4882218837738037,0.14743097499012947,0.14743097499012947,nan,nan,0,-0.04068872332572937,-0.3033933937549591,-0.01291713584214449,-0.16052955389022827,-0.3303443640470505,-0.3303443640470505,nan,nan,0,0.31641262769699097,0.5301885604858398,0.77236008644104,-4.817721843719482,0.6482063233852386,0.6482063233852386,nan,nan,0,-0.3993232250213623,-0.3574078679084778,-0.023132089525461197,1.4960534572601318,-0.4096616059541702,-0.4096616059541702,nan,nan,0,-0.19150212407112122,-0.03699163347482681,-0.5262191295623779,-2.590433120727539,-0.09575106203556061,-0.09575106203556061,nan,nan,0,1.0520856380462646,-0.38033777475357056,-0.2413751780986786,14.510387420654297,0.12604281306266785,0.12604281306266785,nan,nan,0,2.0442848205566406,-0.05194709450006485,0.4252932667732239,35.996822357177734,0.9721424095332623,0.9721424095332623,nan,nan,0,0.7448330521583557,0.28879308700561523,0.1325318068265915,12.607908248901367,0.6824165284633636,0.6824165284633636,nan,nan,0,0.24550512433052063,0.5614625215530396,0.8325240015983582,-1.898488163948059,0.6127525717020035,0.6127525717020035,nan,nan,0,0.8884588479995728,-0.34186065196990967,-0.6317464113235474,20.814138412475586,0.2342294305562973,0.2342294305562973,nan,nan,0,-1.223632574081421,-0.01690688170492649,0.22001907229423523,-19.97872543334961,-0.6118162870407104,-0.6118162870407104,nan,nan,0,0,0.9995055794715881,0.003667624667286873,0.03016764111816883,0.008060943335294724,0.3363724946975708,0.12395957857370377,0.073802649974823,nan,nan,nan,28.03922462463379,314.9183349609375,28.03922462463379,314.9183349609375,0.0,0.3177841901779175,-0.05522157624363899,-0.02910786122083664
1782265740972960962,-0.8805962204933167,-0.47386741638183594,0.4000000059604645,0.0,0.0,1,1,0.011350366286933422,0.06144006922841072,0.017193706706166267,0.35833460092544556,0.10468794405460358,0.08617088198661804,0.853814959526062,0.3099483251571655,0.055534727871418,8.41777229309082,0.8269074857234955,0.8269074857234955,nan,nan,0,0.13160502910614014,0.04757653549313545,0.4934062361717224,3.4011714458465576,0.11580251529812813,0.11580251529812813,nan,nan,0,0.0324188768863678,-0.3040323555469513,-0.03558015450835228,-2.0789263248443604,-0.2937905639410019,-0.2937905639410019,nan,nan,0,0.3351401686668396,0.5394307374954224,0.9241681694984436,-5.754279136657715,0.657570093870163,0.657570093870163,nan,nan,0,-0.41132354736328125,-0.35979774594306946,-0.0651317909359932,1.6186344623565674,-0.4156617671251297,-0.4156617671251297,nan,nan,0,-0.16915607452392578,-0.046888791024684906,-0.7830905318260193,-2.786634683609009,-0.08457803726196289,-0.08457803726196289,nan,nan,0,1.0724087953567505,-0.3828176259994507,-0.2798067331314087,15.024276733398438,0.13620439171791077,0.13620439171791077,nan,nan,0,1.976601243019104,-0.047851499170064926,0.47767117619514465,33.83523941040039,0.9383006207644939,0.9383006207644939,nan,nan,0,0.7037728428840637,0.2908390760421753,0.15628214180469513,12.847491264343262,0.6618864238262177,0.6618864238262177,nan,nan,0,0.2595788836479187,0.570702850818634,0.9158650636672974,-1.9949935674667358,0.6197894513607025,0.6197894513607025,nan,nan,0,0.966292142868042,-0.35158586502075195,-0.6875115633010864,21.19635581970215,0.2731460779905319,0.2731460779905319,nan,nan,0,-1.17804753780365,-0.01604061760008335,0.2825835347175598,-20.161231994628906,-0.589023768901825,-0.589023768901825,nan,nan,0,0,0.9994766116142273,0.0054082185961306095,0.030762339010834694,0.008418246172368526,0.35833460092544556,0.10468794405460358,0.08617088198661804,nan,nan,nan,31.330856323242188,310.5235290527344,31.330856323242188,310.5235290527344,0.0,0.31873902678489685,-0.0461517833173275,-0.03532344475388527
1782265740982960962,-0.9195279479026794,-0.39302459359169006,0.4000000059604645,0.0,0.0,1,1,0.014953375793993473,0.062386687844991684,0.0182341281324625,0.35500144958496094,0.08363636583089828,0.10696964710950851,0.8830174803733826,0.31154435873031616,0.15669488906860352,10.05491828918457,0.8415087461471558,0.8415087461471558,nan,nan,0,0.17226874828338623,0.052662260830402374,0.5266463160514832,3.501126766204834,0.13613437488675117,0.13613437488675117,nan,nan,0,0.07296183705329895,-0.3053348958492279,-0.10284887254238129,0.20737630128860474,-0.2735190838575363,-0.2735190838575363,nan,nan,0,0.3335382640361786,0.550010085105896,1.0217175483703613,-5.570984363555908,0.6567691415548325,0.6567691415548325,nan,nan,0,-0.4059779644012451,-0.3616863489151001,-0.008890442550182343,0.8149644732475281,-0.41298897564411163,-0.41298897564411163,nan,nan,0,-0.17291757464408875,-0.05690276250243187,-0.6781488060951233,-2.1516222953796387,-0.08645878732204437,-0.08645878732204437,nan,nan,0,1.0850285291671753,-0.3850117325782776,-0.222510427236557,15.500174522399902,0.14251425862312317,0.14251425862312317,nan,nan,0,1.9327408075332642,-0.04330146685242653,0.5181800723075867,33.91264724731445,0.916370403021574,0.916370403021574,nan,nan,0,0.659431517124176,0.29256966710090637,0.10635774582624435,12.998969078063965,0.6397157609462738,0.6397157609462738,nan,nan,0,0.274481862783432,0.5800976753234863,0.9010472297668457,-3.473717212677002,0.6272409409284592,0.6272409409284592,nan,nan,0,1.0382968187332153,-0.36162039637565613,-0.6879952549934387,21.50802993774414,0.3091484159231186,0.3091484159231186,nan,nan,0,-1.1275320053100586,-0.014882723800837994,0.3607042729854584,-20.444541931152344,-0.5637660026550293,-0.5637660026550293,nan,nan,0,0,0.9994461536407471,0.0071883369237184525,0.03125424683094025,0.008879074826836586,0.35500144958496094,0.08363636583089828,0.10696964710950851,nan,nan,nan,20.626346588134766,329.2943420410156,20.626346588134766,329.2943420410156,0.0,0.32080501317977905,-0.03503640741109848,-0.03762834146618843
1782265740992960962,-0.9510566592216492,-0.30901649594306946,0.4000000059604645,0.0,0.0,0,1,0.01842976175248623,0.0631183609366417,0.019672604277729988,0.3311847746372223,0.06630625575780869,0.16133442521095276,0.9146942496299744,0.3155166804790497,0.541276216506958,10.89307689666748,0.8573471307754517,0.8573471307754517,nan,nan,0,0.20990124344825745,0.05778873711824417,0.5113363265991211,2.5635597705841064,0.15495062246918678,0.15495062246918678,nan,nan,0,0.10404902696609497,-0.30689218640327454,-0.11549519747495651,0.20982080698013306,-0.2579754889011383,-0.2579754889011383,nan,nan,0,0.3168659210205078,0.5599884390830994,0.8974587917327881,-3.0584540367126465,0.6484329700469971,0.6484329700469971,nan,nan,0,-0.4001411199569702,-0.3637934923171997,-0.06239929795265198,-0.45991629362106323,-0.4100705534219742,-0.4100705534219742,nan,nan,0,-0.17659294605255127,-0.06630588322877884,-0.600935161113739,-0.9118863344192505,-0.08829647302627563,-0.08829647302627563,nan,nan,0,1.1208178997039795,-0.38624459505081177,-0.12458432465791702,16.087438583374023,0.16040894389152527,0.16040894389152527,nan,nan,0,1.8502670526504517,-0.038419079035520554,0.5414323806762695,37.14603805541992,0.8751335255801678,0.8751335255801678,nan,nan,0,0.6231881380081177,0.2932598292827606,-0.017564531415700912,13.806000709533691,0.6215940713882446,0.6215940713882446,nan,nan,0,0.29294079542160034,0.5889665484428406,0.8447816967964172,-4.5726823806762695,0.6364704072475433,0.6364704072475433,nan,nan,0,1.1102979183197021,-0.37171033024787903,-0.668049156665802,21.8748836517334,0.345148965716362,0.345148965716362,nan,nan,0,-1.0649280548095703,-0.013565555214881897,0.3255481421947479,-21.008804321289062,-0.5324640274047852,-0.5324640274047852,nan,nan,0,0,0.9994141459465027,0.008899359963834286,0.03164166584610939,0.009540081024169922,0.3311847746372223,0.06630625575780869,0.16133442521095276,nan,nan,nan,1.3408750295639038,346.6734924316406,1.3408750295639038,346.6734924316406,0.0,0.3221452236175537,-0.022494053468108177,-0.03969059884548187
1782265741002960962,-0.9749282598495483,-0.22251944243907928,0.4000000059604645,0.0,0.0,0,1,0.02167692221701145,0.06370174884796143,0.02158295176923275,0.3044606149196625,0.052863385528326035,0.200737863779068,0.9448349475860596,0.3239097595214844,0.9877830743789673,10.738031387329102,0.8724174797534943,0.8724174797534943,nan,nan,0,0.23678794503211975,0.06269737333059311,0.4780838191509247,1.7609741687774658,0.16839397326111794,0.16839397326111794,nan,nan,0,0.12978868186473846,-0.30788666009902954,-0.04511295631527901,0.2150784134864807,-0.24510566145181656,-0.24510566145181656,nan,nan,0,0.30319884419441223,0.5701454281806946,0.9577635526657104,-2.260169506072998,0.6415994316339493,0.6415994316339493,nan,nan,0,-0.3971918821334839,-0.36811256408691406,-0.28221896290779114,-0.676459014415741,-0.408595934510231,-0.408595934510231,nan,nan,0,-0.18389326333999634,-0.07064276188611984,-0.212032288312912,-0.3750974237918854,-0.09194663166999817,-0.09194663166999817,nan,nan,0,1.1514761447906494,-0.38643935322761536,-0.011490317061543465,15.75903034210205,0.17573806643486023,0.17573806643486023,nan,nan,0,1.7074168920516968,-0.033322419971227646,0.5623350143432617,37.773345947265625,0.8037084452807903,0.8037084452807903,nan,nan,0,0.6063675880432129,0.292735755443573,-0.13826173543930054,14.372688293457031,0.6131837964057922,0.6131837964057922,nan,nan,0,0.30343639850616455,0.5971091985702515,0.7581280469894409,-6.2253804206848145,0.6417182087898254,0.6417182087898254,nan,nan,0,1.1543850898742676,-0.3817235827445984,-0.6575219631195068,22.459117889404297,0.3671925514936447,0.3671925514936447,nan,nan,0,-0.9873925447463989,-0.012160013429820538,0.33434879779815674,-21.308490753173828,-0.49369627237319946,-0.49369627237319946,nan,nan,0,0,0.9993796348571777,0.010488487780094147,0.03195866569876671,0.010440030135214329,0.3044606149196625,0.052863385528326035,0.200737863779068,nan,nan,nan,0.0,350.29425048828125,0.0,350.29425048828125,0.0,0.32364681363105774,-0.009836148470640182,-0.04091419279575348
1782265741012960962,-0.9909498691558838,-0.13423265516757965,0.4000000059604645,0.0,0.0,0,1,0.024640901014208794,0.0641133189201355,0.0237210001796484,0.2727798521518707,0.03575897216796875,0.21324044466018677,0.9688774943351746,0.3361508548259735,1.3411577939987183,10.21373176574707,0.8844387531280518,0.8844387531280518,nan,nan,0,0.2891233563423157,0.06688851863145828,0.3844400644302368,0.5565061569213867,0.1945616789162159,0.1945616789162159,nan,nan,0,0.14356237649917603,-0.30768296122550964,0.07417359948158264,1.3213311433792114,-0.23821881413459778,-0.23821881413459778,nan,nan,0,0.2914190888404846,0.5800713896751404,0.9112626910209656,-2.0234761238098145,0.6357095539569855,0.6357095539569855,nan,nan,0,-0.40750938653945923,-0.3729419410228729,-0.3181207776069641,-0.6986194252967834,-0.4137546867132187,-0.4137546867132187,nan,nan,0,-0.18590626120567322,-0.07148542255163193,-0.0010682502761483192,-0.03877854347229004,-0.09295313060283661,-0.09295313060283661,nan,nan,0,1.2063450813293457,-0.3856563866138458,0.08353587239980698,15.145453453063965,0.20317253470420837,0.20317253470420837,nan,nan,0,1.6304949522018433,-0.028175974264740944,0.5607742667198181,36.20222473144531,0.7652474753558636,0.7652474753558636,nan,nan,0,0.5945389866828918,0.29124385118484497,-0.22397002577781677,14.04625129699707,0.6072694957256317,0.6072694957256317,nan,nan,0,0.3316164016723633,0.6046733260154724,0.7066844701766968,-5.75383996963501,0.6558082103729248,0.6558082103729248,nan,nan,0,1.2159409523010254,-0.39167293906211853,-0.6762030124664307,24.17262077331543,0.3979704827070236,0.3979704827070236,nan,nan,0,-0.9199506044387817,-0.010701436549425125,0.3411581814289093,-20.614517211914062,-0.45997530221939087,-0.45997530221939087,nan,nan,0,0,0.9993447661399841,0.011932837776839733,0.032192524522542953,0.0114583820104599,0.2727798521518707,0.03575897216796875,0.21324044466018677,nan,nan,nan,0.0,337.208984375,0.0,337.208984375,0.0,0.32534030079841614,0.0013339095748960972,-0.04628103971481323
1782265741022960962,-0.9989930987358093,-0.04486418515443802,0.4000000059604645,0.0,0.0,0,1,0.027356402948498726,0.06426260620355606,0.025931341573596,0.25120124220848083,0.0040940479375422,0.2188286930322647,0.9308418035507202,0.3510741889476776,1.5621545314788818,9.551642417907715,0.8654209077358246,0.8654209077358246,nan,nan,0,0.21389618515968323,0.07052337378263474,0.35643407702445984,1.3626519441604614,0.15694809332489967,0.15694809332489967,nan,nan,0,0.11192943155765533,-0.3071575462818146,0.0677768737077713,0.11486631631851196,-0.2540352866053581,-0.2540352866053581,nan,nan,0,0.2611932158470154,0.5888333916664124,0.7949908375740051,-1.6532301902770996,0.6205966174602509,0.6205966174602509,nan,nan,0,-0.3752579092979431,-0.37628501653671265,-0.22242121398448944,-0.5413067936897278,-0.39762894809246063,-0.39762894809246063,nan,nan,0,-0.16929519176483154,-0.0725039690732956,-0.042641207575798035,-0.07443594932556152,-0.08464759588241577,-0.08464759588241577,nan,nan,0,1.1357026100158691,-0.3839942216873169,0.17440833151340485,14.985384941101074,0.1678512990474701,0.1678512990474701,nan,nan,0,1.537455439567566,-0.022980758920311928,0.5669333934783936,35.07557678222656,0.7187277190387249,0.7187277190387249,nan,nan,0,0.5750142335891724,0.28901228308677673,-0.287361741065979,13.687654495239258,0.597507119178772,0.597507119178772,nan,nan,0,0.3335821032524109,0.6120058298110962,0.6938754916191101,-5.699827671051025,0.6567910611629486,0.6567910611629486,nan,nan,0,1.2208442687988281,-0.40176570415496826,-0.6846837997436523,25.86713409423828,0.400422140955925,0.400422140955925,nan,nan,0,-0.8968981504440308,-0.009114740416407585,0.36264416575431824,-19.74251365661621,-0.4484490752220154,-0.4484490752220154,nan,nan,0,0,0.9993120431900024,0.013253084383904934,0.03229731321334839,0.01251803059130907,0.25120124220848083,0.0040940479375422,0.2188286930322647,nan,nan,nan,0.0,336.9814453125,0.0,336.9814453125,0.0,0.3273610472679138,0.013085678219795227,-0.05293402075767517
1782265741032960962,-0.9989929795265198,0.04486646503210068,0.4000000059604645,0.0,0.0,0,1,0.029829952865839005,0.06402327865362167,0.028072843328118324,0.2000456601381302,-0.022552818059921265,0.18894299864768982,0.901561439037323,0.36756885051727295,1.7387211322784424,9.07309627532959,0.850780725479126,0.850780725479126,nan,nan,0,0.21082815527915955,0.0738106295466423,0.2789052426815033,2.120311975479126,0.15541407838463783,0.15541407838463783,nan,nan,0,0.07331699132919312,-0.30587753653526306,0.16057419776916504,0.25909513235092163,-0.27334150671958923,-0.27334150671958923,nan,nan,0,0.2736127972602844,0.5959077477455139,0.622222363948822,-1.5161218643188477,0.6268064081668854,0.6268064081668854,nan,nan,0,-0.3602142333984375,-0.3783203661441803,-0.12784956395626068,-0.4171139597892761,-0.3901071101427078,-0.3901071101427078,nan,nan,0,-0.15993401408195496,-0.073572538793087,-0.07030422985553741,-0.09208071231842041,-0.07996700704097748,-0.07996700704097748,nan,nan,0,1.0604634284973145,-0.38149842619895935,0.09256181120872498,15.33092975616455,0.13023170828819275,0.13023170828819275,nan,nan,0,1.4360930919647217,-0.017787648364901543,0.465724915266037,33.33641052246094,0.6680465452373028,0.6680465452373028,nan,nan,0,0.5302817821502686,0.28620004653930664,-0.22465813159942627,13.210057258605957,0.5751408934593201,0.5751408934593201,nan,nan,0,0.36576002836227417,0.6194971799850464,0.8992218971252441,-6.264712333679199,0.6728800237178802,0.6728800237178802,nan,nan,0,1.2424495220184326,-0.4120572507381439,-0.6598156690597534,27.50631332397461,0.41122476756572723,0.41122476756572723,nan,nan,0,-0.8430551886558533,-0.007757590617984533,0.03858219459652901,-18.610816955566406,-0.42152759432792664,-0.42152759432792664,nan,nan,0,0,0.9992848038673401,0.014456127770245075,0.03220869228243828,0.01354990340769291,0.2000456601381302,-0.022552818059921265,0.18894299864768982,nan,nan,nan,0.0,610.0269775390625,0.0,610.0269775390625,0.0,0.32784780859947205,0.026853855699300766,-0.05035146698355675
1782265741042960962,-0.9909496903419495,0.1342339813709259,0.4000000059604645,0.0,0.0,0,1,0.03043382242321968,0.0635576844215393,0.02958068810403347,-0.025349752977490425,-0.09055880457162857,0.15848040580749512,0.8559359312057495,0.38612237572669983,1.8434005975723267,8.477574348449707,0.8279679715633392,0.8279679715633392,nan,nan,0,0.19856399297714233,0.0741308331489563,-0.05338659510016441,4.147899627685547,0.14928199723362923,0.14928199723362923,nan,nan,0,0.028756245970726013,-0.303680956363678,0.19938614964485168,0.37327808141708374,-0.2956218793988228,-0.2956218793988228,nan,nan,0,0.26202288269996643,0.6009857058525085,0.44070810079574585,-0.7145736217498779,0.6210114508867264,0.6210114508867264,nan,nan,0,-0.35798048973083496,-0.3798561692237854,-0.12763729691505432,-0.3171014189720154,-0.38899023830890656,-0.38899023830890656,nan,nan,0,-0.13797104358673096,-0.0752028226852417,-0.05886240676045418,-0.15749862790107727,-0.06898552179336548,-0.06898552179336548,nan,nan,0,1.0093094110488892,-0.3820166289806366,0.19153940677642822,16.268863677978516,0.1046546995639801,0.1046546995639801,nan,nan,0,1.3842869997024536,-0.01617201417684555,0.15479472279548645,31.709684371948242,0.6421434991061687,0.6421434991061687,nan,nan,0,0.47796326875686646,0.2853088080883026,-0.34702908992767334,12.658149719238281,0.548981636762619,0.548981636762619,nan,nan,0,0.40596508979797363,0.6310051679611206,0.9289922118186951,-9.610298156738281,0.69298255443573,0.69298255443573,nan,nan,0,1.2643077373504639,-0.40976598858833313,0.727379322052002,26.181934356689453,0.42215387523174286,0.42215387523174286,nan,nan,0,-0.78459632396698,-0.010834119282662868,-0.23567688465118408,-16.632173538208008,-0.39229816198349,-0.39229816198349,nan,nan,0,0,0.9992772936820984,0.014737109653651714,0.03199126943945885,0.014297205954790115,-0.025349752977490425,-0.09055880457162857,0.15848040580749512,nan,nan,nan,0.0,287.4566955566406,0.0,287.4566955566406,0.0,0.3251662254333496,0.05560237914323807,0.018178919330239296
1782265741052960962,-0.9749277234077454,0.22252167761325836,0.4000000059604645,0.0,0.0,1,1,0.02980988286435604,0.062424980103969574,0.030892446637153625,-0.10702567547559738,-0.12230503559112549,0.09780286252498627,0.7678505182266235,0.4053247570991516,1.945472002029419,7.9034199714660645,0.7839252650737762,0.7839252650737762,nan,nan,0,0.20367085933685303,0.07362048327922821,-0.05182646960020065,5.178467750549316,0.15183543041348457,0.15183543041348457,nan,nan,0,-0.07026554644107819,-0.30189695954322815,0.1423891931772232,0.8136414885520935,-0.3451327756047249,-0.3451327756047249,nan,nan,0,0.23526903986930847,0.6058802008628845,0.7187074422836304,-3.865737199783325,0.6076345294713974,0.6076345294713974,nan,nan,0,-0.3622451424598694,-0.37947335839271545,0.35171204805374146,-2.12045955657959,-0.39112256467342377,-0.39112256467342377,nan,nan,0,-0.14519095420837402,-0.07348603755235672,0.27048876881599426,-1.3240867853164673,-0.07259547710418701,-0.07259547710418701,nan,nan,0,0.786369264125824,-0.3777627944946289,0.5165721774101257,15.714838027954102,-0.00681537389755249,-0.00681537389755249,nan,nan,0,1.352634310722351,-0.01609458215534687,-0.04359845072031021,32.19365310668945,0.6263171546161175,0.6263171546161175,nan,nan,0,0.42612165212631226,0.28065556287765503,-0.5963302850723267,13.897890090942383,0.5230608284473419,0.5230608284473419,nan,nan,0,0.426303505897522,0.6399648785591125,0.7584760785102844,-6.700992107391357,0.7031517624855042,0.7031517624855042,nan,nan,0,1.1508978605270386,-0.4111284017562866,0.38629311323165894,27.540245056152344,0.3654489368200302,0.3654489368200302,nan,nan,0,-0.7971861958503723,-0.026734432205557823,-2.4834630489349365,-13.620526313781738,-0.39859309792518616,-0.39859309792518616,nan,nan,0,0,0.999289870262146,0.014413387514650822,0.03143032640218735,0.014971299096941948,-0.10702567547559738,-0.12230503559112549,0.09780286252498627,nan,nan,nan,24.831445693969727,358.9286804199219,24.831445693969727,358.9286804199219,0.0,0.3244346082210541,0.07589393854141235,0.044903792440891266
1782265741062960962,-0.9510560035705566,0.30901864171028137,0.4000000059604645,0.0,0.0,1,1,0.02906973473727703,0.06078188866376877,0.031472161412239075,-0.04824133589863777,-0.1839771866798401,0.02628316916525364,0.6742919683456421,0.42220062017440796,1.5161001682281494,8.130728721618652,0.7371459901332855,0.7371459901332855,nan,nan,0,0.24761536717414856,0.0736127570271492,0.04474485665559769,3.069016218185425,0.17380768433213234,0.17380768433213234,nan,nan,0,-0.15001031756401062,-0.300187885761261,0.1760309636592865,0.125299334526062,-0.3850051611661911,-0.3850051611661911,nan,nan,0,0.28007519245147705,0.6125254034996033,0.663082480430603,-6.177688121795654,0.6300376057624817,0.6300376057624817,nan,nan,0,-0.32412010431289673,-0.3746395707130432,0.4363902807235718,-1.6498305797576904,-0.37206004559993744,-0.37206004559993744,nan,nan,0,-0.13413909077644348,-0.07039579749107361,0.25823259353637695,-0.9985088109970093,-0.06706954538822174,-0.06706954538822174,nan,nan,0,0.7123928666114807,-0.37113282084465027,0.7743481993675232,13.514657020568848,-0.04380357265472412,-0.04380357265472412,nan,nan,0,1.3914893865585327,-0.014054586179554462,0.27668988704681396,27.767078399658203,0.6457446925342083,0.6457446925342083,nan,nan,0,0.3641093075275421,0.276022732257843,-0.6488757133483887,14.10147476196289,0.49205465614795685,0.49205465614795685,nan,nan,0,0.4410768747329712,0.6455345153808594,0.47738173604011536,-3.7854180335998535,0.7105384469032288,0.7105384469032288,nan,nan,0,1.1000406742095947,-0.40492716431617737,0.28879329562187195,27.43880844116211,0.3400203436613083,0.3400203436613083,nan,nan,0,-0.7732133269309998,-0.01961764506995678,-0.16983656585216522,-14.759011268615723,-0.3866066634654999,-0.3866066634654999,nan,nan,0,0,0.9993158578872681,0.014047754928469658,0.03060789220035076,0.01528491172939539,-0.04824133589863777,-0.1839771866798401,0.02628316916525364,nan,nan,nan,21.475820541381836,228.19459533691406,21.475820541381836,228.19459533691406,0.0,0.33191511034965515,0.0863834097981453,0.02282368391752243
1782265741072960962,-0.9195270538330078,0.3930266499519348,0.4000000059604645,0.0,0.0,1,1,0.02876005508005619,0.059009697288274765,0.03115675039589405,-0.004004006274044514,-0.18521998822689056,-0.06644513458013535,0.6597576141357422,0.4364736080169678,1.2928367853164673,7.955145359039307,0.7298788130283356,0.7298788130283356,nan,nan,0,0.21078181266784668,0.07450243830680847,0.13620445132255554,2.6726605892181396,0.1553909070789814,0.1553909070789814,nan,nan,0,-0.15404826402664185,-0.29933080077171326,0.07169370353221893,-0.17876577377319336,-0.3870241343975067,-0.3870241343975067,nan,nan,0,0.2881636917591095,0.6192352175712585,0.6606669425964355,-6.215144157409668,0.6340818554162979,0.6340818554162979,nan,nan,0,-0.32870787382125854,-0.3694770634174347,0.45748406648635864,-1.602828025817871,-0.37435393035411835,-0.37435393035411835,nan,nan,0,-0.13431710004806519,-0.0676514208316803,0.2281685322523117,-0.9612720012664795,-0.06715855002403259,-0.06715855002403259,nan,nan,0,0.6454789638519287,-0.3635674715042114,0.6571635007858276,12.50543212890625,-0.07726052403450012,-0.07726052403450012,nan,nan,0,1.1902238130569458,-0.01268131472170353,0.3296287953853607,25.52576446533203,0.5451119057834148,0.5451119057834148,nan,nan,0,0.34129875898361206,0.27115827798843384,-0.4365254044532776,12.613012313842773,0.4806493818759918,0.4806493818759918,nan,nan,0,0.43710267543792725,0.651780366897583,0.5883719325065613,-3.962887763977051,0.7085513472557068,0.7085513472557068,nan,nan,0,1.058091402053833,-0.40888944268226624,0.13479143381118774,28.092220306396484,0.31904570758342743,0.31904570758342743,nan,nan,0,-0.7272749543190002,-0.03375765681266785,0.1015872061252594,-13.340229988098145,-0.3636374771595001,-0.3636374771595001,nan,nan,0,0,0.9993467330932617,0.013912023976445198,0.029717842116951942,0.015145201236009598,-0.004004006274044514,-0.18521998822689056,-0.06644513458013535,nan,nan,nan,20.535919189453125,232.96206665039062,20.535919189453125,232.96206665039062,0.0,0.33713966608047485,0.09592436254024506,-0.0032248185016214848
1782265741082960962,-0.8805951476097107,0.4738694131374359,0.4000000059604645,0.0,0.0,1,1,0.028728501871228218,0.05711725726723671,0.03005076013505459,-0.010649402625858784,-0.19826756417751312,-0.13921059668064117,0.7423033118247986,0.44801294803619385,1.0641237497329712,7.680539608001709,0.7711516618728638,0.7711516618728638,nan,nan,0,0.30718371272087097,0.07584331929683685,0.06910361349582672,2.523409605026245,0.20359185710549355,0.20359185710549355,nan,nan,0,-0.12853467464447021,-0.299057275056839,0.03898696228861809,-0.9709926843643188,-0.3742673397064209,-0.3742673397064209,nan,nan,0,0.42579299211502075,0.6253435015678406,0.6146222352981567,-6.832074165344238,0.7028965055942535,0.7028965055942535,nan,nan,0,-0.3124934434890747,-0.36426469683647156,0.5091381072998047,-1.767611026763916,-0.36624671518802643,-0.36624671518802643,nan,nan,0,-0.09689988940954208,-0.06264250725507736,0.3621647357940674,-0.8422298431396484,-0.04844994470477104,-0.04844994470477104,nan,nan,0,0.796968936920166,-0.3572256565093994,0.7390432357788086,11.456844329833984,-0.0015155375003814697,-0.0015155375003814697,nan,nan,0,1.1341663599014282,-0.0100161237642169,-0.026773598045110703,25.037981033325195,0.517083179205656,0.517083179205656,nan,nan,0,0.2619302272796631,0.2682096064090729,-0.2956734299659729,11.383615493774414,0.44096511602401733,0.44096511602401733,nan,nan,0,0.3890274167060852,0.6587889194488525,0.7244377136230469,-3.966775894165039,0.6845137178897858,0.6845137178897858,nan,nan,0,1.105212926864624,-0.41052207350730896,-0.31427669525146484,29.813152313232422,0.34260646998882294,0.34260646998882294,nan,nan,0,-0.5794464349746704,-0.035078391432762146,-2.9296717643737793,-11.305006980895996,-0.2897232174873352,-0.2897232174873352,nan,nan,0,0,0.999382495880127,0.013927294872701168,0.028764300048351288,0.014607030898332596,-0.010649402625858784,-0.19826756417751312,-0.13921059668064117,nan,nan,nan,22.944704055786133,262.14593505859375,22.944704055786133,262.14593505859375,0.0,0.3429044187068939,0.099711112678051,-0.02866809442639351
