timestamp_ns,phase_sin,phase_cos,cmd_linear_x,cmd_linear_y,cmd_angular_z,left_contact,right_contact,base_euler_x,base_euler_y,base_euler_z,base_ang_vel_x,base_ang_vel_y,base_ang_vel_z,action_left_hip_pitch_joint,pos_left_hip_pitch_joint,vel_left_hip_pitch_joint,effort_left_hip_pitch_joint,pos_des_raw_left_hip_pitch_joint,pos_des_lpf_left_hip_pitch_joint,tau_des_raw_left_hip_pitch_joint,tau_des_lpf_left_hip_pitch_joint,is_parallel_left_hip_pitch_joint,action_left_hip_roll_joint,pos_left_hip_roll_joint,vel_left_hip_roll_joint,effort_left_hip_roll_joint,pos_des_raw_left_hip_roll_joint,pos_des_lpf_left_hip_roll_joint,tau_des_raw_left_hip_roll_joint,tau_des_lpf_left_hip_roll_joint,is_parallel_left_hip_roll_joint,action_left_hip_yaw_joint,pos_left_hip_yaw_joint,vel_left_hip_yaw_joint,effort_left_hip_yaw_joint,pos_des_raw_left_hip_yaw_joint,pos_des_lpf_left_hip_yaw_joint,tau_des_raw_left_hip_yaw_joint,tau_des_lpf_left_hip_yaw_joint,is_parallel_left_hip_yaw_joint,action_left_knee_pitch_joint,pos_left_knee_pitch_joint,vel_left_knee_pitch_joint,effort_left_knee_pitch_joint,pos_des_raw_left_knee_pitch_joint,pos_des_lpf_left_knee_pitch_joint,tau_des_raw_left_knee_pitch_joint,tau_des_lpf_left_knee_pitch_joint,is_parallel_left_knee_pitch_joint,action_left_ankle_pitch_joint,pos_left_ankle_pitch_joint,vel_left_ankle_pitch_joint,effort_left_ankle_pitch_joint,pos_des_raw_left_ankle_pitch_joint,pos_des_lpf_left_ankle_pitch_joint,tau_des_raw_left_ankle_pitch_joint,tau_des_lpf_left_ankle_pitch_joint,is_parallel_left_ankle_pitch_joint,action_left_ankle_roll_joint,pos_left_ankle_roll_joint,vel_left_ankle_roll_joint,effort_left_ankle_roll_joint,pos_des_raw_left_ankle_roll_joint,pos_des_lpf_left_ankle_roll_joint,tau_des_raw_left_ankle_roll_joint,tau_des_lpf_left_ankle_roll_joint,is_parallel_left_ankle_roll_joint,action_right_hip_pitch_joint,pos_right_hip_pitch_joint,vel_right_hip_pitch_joint,effort_right_hip_pitch_joint,pos_des_raw_right_hip_pitch_joint,pos_des_lpf_right_hip_pitch_joint,tau_des_raw_right_hip_pitch_joint,tau_des_lpf_right_hip_pitch_joint,is_parallel_right_hip_pitch_joint,action_right_hip_roll_joint,pos_right_hip_roll_joint,vel_right_hip_roll_joint,effort_right_hip_roll_joint,pos_des_raw_right_hip_roll_joint,pos_des_lpf_right_hip_roll_joint,tau_des_raw_right_hip_roll_joint,tau_des_lpf_right_hip_roll_joint,is_parallel_right_hip_roll_joint,action_right_hip_yaw_joint,pos_right_hip_yaw_joint,vel_right_hip_yaw_joint,effort_right_hip_yaw_joint,pos_des_raw_right_hip_yaw_joint,pos_des_lpf_right_hip_yaw_joint,tau_des_raw_right_hip_yaw_joint,tau_des_lpf_right_hip_yaw_joint,is_parallel_right_hip_yaw_joint,action_right_knee_pitch_joint,pos_right_knee_pitch_joint,vel_right_knee_pitch_joint,effort_right_knee_pitch_joint,pos_des_raw_right_knee_pitch_joint,pos_des_lpf_right_knee_pitch_joint,tau_des_raw_right_knee_pitch_joint,tau_des_lpf_right_knee_pitch_joint,is_parallel_right_knee_pitch_joint,action_right_ankle_pitch_joint,pos_right_ankle_pitch_joint,vel_right_ankle_pitch_joint,effort_right_ankle_pitch_joint,pos_des_raw_right_ankle_pitch_joint,pos_des_lpf_right_ankle_pitch_joint,tau_des_raw_right_ankle_pitch_joint,tau_des_lpf_right_ankle_pitch_joint,is_parallel_right_ankle_pitch_joint,action_right_ankle_roll_joint,pos_right_ankle_roll_joint,vel_right_ankle_roll_joint,effort_right_ankle_roll_joint,pos_des_raw_right_ankle_roll_joint,pos_des_lpf_right_ankle_roll_joint,tau_des_raw_right_ankle_roll_joint,tau_des_lpf_right_ankle_roll_joint,is_parallel_right_ankle_roll_joint,clip_count,imu_quat_w,imu_quat_x,imu_quat_y,imu_quat_z,imu_gyro_x,imu_gyro_y,imu_gyro_z,imu_accel_x,imu_accel_y,imu_accel_z,left_foot_contact_force_z,right_foot_contact_force_z,left_foot_contact_force_mag,right_foot_contact_force_mag,feet_contact_force_penalty,base_lin_vel_x,base_lin_vel_y,base_lin_vel_z
1782297564765830803,0.2660350799560547,-0.9639633297920227,0.4000000059604645,0.0,0.0,1,1,-0.03376007080078125,0.03461839258670807,-0.012687206268310547,0.12840016186237335,0.3472301661968231,0.1531803160905838,-0.4755195677280426,0.4146246910095215,-0.051581159234046936,0.02020314335823059,0.16224022209644318,0.16224022209644318,nan,nan,0,-0.9053829908370972,0.09595303982496262,0.013437662273645401,-25.979320526123047,-0.4026914946734905,-0.4026914946734905,nan,nan,0,-0.5166255831718445,-0.27472245693206787,-0.13481728732585907,-8.586384773254395,-0.568312793970108,-0.568312793970108,nan,nan,0,-0.27236318588256836,0.563639223575592,-0.7092428207397461,-18.706768035888672,0.353818416595459,0.353818416595459,nan,nan,0,0.6602506637573242,-0.2822037637233734,0.284292995929718,11.510910987854004,0.12012533843517303,0.12012533843517303,nan,nan,0,-0.294467955827713,0.08519286662340164,0.21318481862545013,-4.193835735321045,-0.1472339779138565,-0.1472339779138565,nan,nan,0,-0.43624594807624817,-0.3497779369354248,-0.3292301297187805,-2.7644567489624023,-0.6181229799985886,-0.6181229799985886,nan,nan,0,0.13217037916183472,-0.062066588550806046,-0.062477659434080124,2.4537479877471924,0.0160851888358593,0.0160851888358593,nan,nan,0,0.08414250612258911,0.30729520320892334,0.01989820972084999,-0.15464931726455688,0.35207125544548035,0.35207125544548035,nan,nan,0,-0.10106731951236725,0.5212392807006836,-0.0618850477039814,-1.7595831155776978,0.43946634978055954,0.43946634978055954,nan,nan,0,-0.36076027154922485,-0.35158535838127136,-0.2757929265499115,-2.0275306701660156,-0.3903801292181015,-0.3903801292181015,nan,nan,0,-0.29334503412246704,0.005326253827661276,-0.4175266921520233,-1.3667988777160645,-0.14667251706123352,-0.14667251706123352,nan,nan,0,0,0.9996894598007202,-0.016766592860221863,0.01741257682442665,-0.006049584597349167,0.12840016186237335,0.3472301661968231,0.1531803160905838,nan,nan,nan,327.1709899902344,19.00418472290039,327.1709899902344,19.00418472290039,0.0,0.10173707455396652,-0.13192658126354218,0.04705560952425003
1782297564775830803,0.17855599522590637,-0.9839297533035278,0.4000000059604645,0.0,0.0,1,1,-0.03211259841918945,0.03835169970989227,-0.011011600494384766,0.1907043159008026,0.39030617475509644,0.20965813100337982,-0.7296561002731323,0.41368159651756287,-0.04445020109415054,-1.4132636785507202,0.035171955823898315,0.035171955823898315,nan,nan,0,-0.8589308261871338,0.0960826650261879,0.0970875471830368,-21.47950553894043,-0.37946541234850883,-0.37946541234850883,nan,nan,0,-0.5082181096076965,-0.27603068947792053,-0.1353900134563446,-9.3480806350708,-0.5641090571880341,-0.5641090571880341,nan,nan,0,-0.20695942640304565,0.5553104877471924,-0.7837342619895935,-17.625988006591797,0.38652029633522034,0.38652029633522034,nan,nan,0,0.6854534149169922,-0.2781233787536621,0.38276946544647217,11.460341453552246,0.13272671401500702,0.13272671401500702,nan,nan,0,-0.3387070298194885,0.0833529531955719,0.2258327305316925,-6.398562908172607,-0.16935351490974426,-0.16935351490974426,nan,nan,0,-0.5066429376602173,-0.35293346643447876,-0.3619218170642853,-3.0896599292755127,-0.6533214747905731,-0.6533214747905731,nan,nan,0,0.10998953133821487,-0.0626831129193306,-0.034903451800346375,2.9163832664489746,0.0049947649240493774,0.0049947649240493774,nan,nan,0,0.15597423911094666,0.30694642663002014,0.06628581881523132,0.379364550113678,0.3879871219396591,0.3879871219396591,nan,nan,0,-0.09063258767127991,0.5196871757507324,-0.14864614605903625,-3.2237086296081543,0.4446837157011032,0.4446837157011032,nan,nan,0,-0.33794546127319336,-0.35070884227752686,0.0402858667075634,-2.9999747276306152,-0.37897272408008575,-0.37897272408008575,nan,nan,0,-0.3422529399394989,-0.005938324611634016,-0.6947131752967834,-2.1829278469085693,-0.17112646996974945,-0.17112646996974945,nan,nan,0,0,0.9996738433837891,-0.015946809202432632,0.01926029473543167,-0.0051962509751319885,0.1907043159008026,0.39030617475509644,0.20965813100337982,nan,nan,nan,311.12322998046875,32.740299224853516,311.12322998046875,32.740299224853516,0.0,0.10664859414100647,-0.1452704519033432,0.04233185946941376
1782297564785830803,0.0896383747458458,-0.9959743618965149,0.4000000059604645,0.0,0.0,1,1,-0.029891014099121094,0.04237708821892738,-0.008885383605957031,0.24134111404418945,0.4047521650791168,0.24764123558998108,-0.7934926748275757,0.412502646446228,-0.09662820398807526,-3.655423402786255,0.0032536685466766357,0.0032536685466766357,nan,nan,0,-0.8935396671295166,0.09689753502607346,0.15111759305000305,-22.326831817626953,-0.39676983281970024,-0.39676983281970024,nan,nan,0,-0.44048306345939636,-0.27744418382644653,-0.1274465173482895,-8.628087043762207,-0.530241534113884,-0.530241534113884,nan,nan,0,-0.15005412697792053,0.5462101697921753,-0.8695968985557556,-14.687594413757324,0.4149729460477829,0.4149729460477829,nan,nan,0,0.6775456666946411,-0.2735213339328766,0.42919468879699707,11.824692726135254,0.12877283990383148,0.12877283990383148,nan,nan,0,-0.33390843868255615,0.08155495673418045,0.2310173213481903,-7.330643653869629,-0.16695421934127808,-0.16695421934127808,nan,nan,0,-0.5368297100067139,-0.35703739523887634,-0.45390069484710693,-4.223245143890381,-0.6684148609638214,-0.6684148609638214,nan,nan,0,0.14091122150421143,-0.06326223909854889,-0.008293144404888153,1.718656063079834,0.020455610007047653,0.020455610007047653,nan,nan,0,0.1920115351676941,0.3077007830142975,0.1034931167960167,0.08988930284976959,0.40600576996803284,0.40600576996803284,nan,nan,0,-0.11399492621421814,0.5187503695487976,-0.05505307763814926,-4.149582386016846,0.4330025464296341,0.4330025464296341,nan,nan,0,-0.2529257535934448,-0.3491516709327698,0.08627840131521225,-3.022824287414551,-0.3364628702402115,-0.3364628702402115,nan,nan,0,-0.4102764129638672,-0.01828392595052719,-0.9127877950668335,-2.255901336669922,-0.2051382064819336,-0.2051382064819336,nan,nan,0,0,0.9996554851531982,-0.014847362414002419,0.021250762045383453,-0.004124453291296959,0.24134111404418945,0.4047521650791168,0.24764123558998108,nan,nan,nan,305.0697326660156,33.82729721069336,305.0697326660156,33.82729721069336,0.0,0.11029764264822006,-0.1581457108259201,0.03990435227751732
1782297564795830803,-9.775241096576792e-07,-1.0,0.4000000059604645,0.0,0.0,1,1,-0.02727651596069336,0.04641013219952583,-0.006435871124267578,0.2674838900566101,0.39662548899650574,0.2667308449745178,-0.668912410736084,0.411160409450531,-0.08982275426387787,-6.1142354011535645,0.06554380059242249,0.06554380059242249,nan,nan,0,-0.7306109666824341,0.09810660779476166,0.1751454472541809,-24.293498992919922,-0.315305482596159,-0.315305482596159,nan,nan,0,-0.34715959429740906,-0.2789442837238312,-0.1596493124961853,-8.146759033203125,-0.4835797995328903,-0.4835797995328903,nan,nan,0,-0.1180085837841034,0.5370703339576721,-0.8303574323654175,-10.129565238952637,0.43099571764469147,0.43099571764469147,nan,nan,0,0.5768687725067139,-0.26887983083724976,0.43162328004837036,12.61280632019043,0.07843439280986786,0.07843439280986786,nan,nan,0,-0.31569904088974,0.07973778992891312,0.20663844048976898,-7.371971607208252,-0.15784952044487,-0.15784952044487,nan,nan,0,-0.42843785881996155,-0.36126500368118286,-0.4451851546764374,-4.873532772064209,-0.6142189353704453,-0.6142189353704453,nan,nan,0,0.3760114312171936,-0.06354311853647232,0.007875202223658562,0.2564569115638733,0.13800571486353874,0.13800571486353874,nan,nan,0,0.28683531284332275,0.3083047866821289,0.07868754118680954,0.5772300958633423,0.45341765880584717,0.45341765880584717,nan,nan,0,-0.08668990433216095,0.5178649425506592,-0.06342501193284988,-5.120598793029785,0.4466550573706627,0.4466550573706627,nan,nan,0,-0.04969910532236099,-0.3463039994239807,0.19861575961112976,-2.9792847633361816,-0.23484954610466957,-0.23484954610466957,nan,nan,0,-0.47940707206726074,-0.03183727711439133,-1.0176029205322266,-2.2462856769561768,-0.23970353603363037,-0.23970353603363037,nan,nan,0,0,0.9996337294578552,-0.01355948019772768,0.023244576528668404,-0.0029002877417951822,0.2674838900566101,0.39662548899650574,0.2667308449745178,nan,nan,nan,300.5192565917969,32.4132080078125,300.5192565917969,32.4132080078125,0.0,0.11263282597064972,-0.17026367783546448,0.031891413033008575
1782297564805830803,-0.08964031934738159,-0.9959741830825806,0.4000000059604645,0.0,0.0,1,1,-0.024237632751464844,0.05050787329673767,-0.0036673545837402344,0.32002192735671997,0.4122130870819092,0.3059576153755188,-0.6826488971710205,0.4102154076099396,-0.044379398226737976,-6.822946548461914,0.058675557374954224,0.058675557374954224,nan,nan,0,-0.6283214092254639,0.09988632053136826,0.2501237988471985,-20.999746322631836,-0.2641607038676739,-0.2641607038676739,nan,nan,0,-0.32005563378334045,-0.280871719121933,-0.19672873616218567,-8.494715690612793,-0.470027819275856,-0.470027819275856,nan,nan,0,-0.031058579683303833,0.5285272598266602,-0.7810287475585938,-9.241928100585938,0.47447071969509125,0.47447071969509125,nan,nan,0,0.4861595332622528,-0.2644423842430115,0.42811405658721924,12.606396675109863,0.03307977318763733,0.03307977318763733,nan,nan,0,-0.307264506816864,0.07793258130550385,0.1617540717124939,-8.354325294494629,-0.153632253408432,-0.153632253408432,nan,nan,0,-0.18334898352622986,-0.36539578437805176,-0.4497213363647461,-5.920736789703369,-0.4916744977235794,-0.4916744977235794,nan,nan,0,0.5236454606056213,-0.06346183270215988,0.06454277783632278,2.2731332778930664,0.2118227295577526,0.2118227295577526,nan,nan,0,0.36483651399612427,0.30835017561912537,0.06590550392866135,1.051944613456726,0.4924182593822479,0.4924182593822479,nan,nan,0,-0.015916481614112854,0.5162774920463562,-0.14695902168750763,-6.071779727935791,0.48204176872968674,0.48204176872968674,nan,nan,0,0.19746431708335876,-0.34006085991859436,0.5412577986717224,-2.5983119010925293,-0.11126783490180969,-0.11126783490180969,nan,nan,0,-0.5381669998168945,-0.0487140417098999,-1.130705714225769,-2.6547491550445557,-0.26908349990844727,-0.26908349990844727,nan,nan,0,0,0.9996065497398376,-0.012068215757608414,0.025271572172641754,-0.0015270474832504988,0.32002192735671997,0.4122130870819092,0.3059576153755188,nan,nan,nan,283.605712890625,32.20317459106445,283.605712890625,32.20317459106445,0.0,0.11581332981586456,-0.18241412937641144,0.019428681582212448
1782297564815830803,-0.17855793237686157,-0.9839293956756592,0.4000000059604645,0.0,0.0,1,1,-0.020621776580810547,0.054626259952783585,-0.0007686614990234375,0.3706759214401245,0.3944879174232483,0.31027185916900635,-0.5249214172363281,0.4092854857444763,-0.08309224247932434,-10.551589012145996,0.13753929734230042,0.13753929734230042,nan,nan,0,-0.5380551218986511,0.1023603230714798,0.29593318700790405,-20.344770431518555,-0.2190275602042675,-0.2190275602042675,nan,nan,0,-0.24956023693084717,-0.2827232778072357,-0.15575987100601196,-8.409139633178711,-0.4347801208496094,-0.4347801208496094,nan,nan,0,0.02386191487312317,0.5202771425247192,-0.7571870684623718,-5.518436908721924,0.5019309669733047,0.5019309669733047,nan,nan,0,0.3266974091529846,-0.2601200044155121,0.4174143970012665,12.897643089294434,-0.046651288866996765,-0.046651288866996765,nan,nan,0,-0.2811734676361084,0.07624400407075882,0.11848442256450653,-9.090486526489258,-0.1405867338180542,-0.1405867338180542,nan,nan,0,0.04561920464038849,-0.3714471161365509,-0.6061089634895325,-6.2489728927612305,-0.37719040364027023,-0.37719040364027023,nan,nan,0,0.7939261794090271,-0.0625213235616684,0.13562847673892975,1.5587533712387085,0.3469630889594555,0.3469630889594555,nan,nan,0,0.4692181348800659,0.3099684715270996,0.15406835079193115,1.832695722579956,0.5446090698242188,0.5446090698242188,nan,nan,0,0.040305204689502716,0.5157114863395691,0.03931232914328575,-7.828342914581299,0.5101526118814945,0.5101526118814945,nan,nan,0,0.46695956587791443,-0.3257990777492523,0.6514659523963928,-2.739858627319336,0.02347978949546814,0.02347978949546814,nan,nan,0,-0.6338998079299927,-0.05794767290353775,-0.6648961901664734,-3.521160364151001,-0.31694990396499634,-0.31694990396499634,nan,nan,0,0,0.9995739459991455,-0.010296384803950787,0.02731223963201046,-0.00010248352191410959,0.3706759214401245,0.3944879174232483,0.31027185916900635,nan,nan,nan,264.0494689941406,45.786434173583984,264.0494689941406,45.786434173583984,0.0,0.1172606498003006,-0.19357816874980927,0.01034767646342516
1782297564825830803,-0.2660379111766815,-0.9639625549316406,0.4000000059604645,0.0,0.0,1,1,-0.016560077667236328,0.05841836333274841,0.0021407734602689743,0.41700658202171326,0.36147111654281616,0.2921595275402069,-0.1918637752532959,0.4080963730812073,-0.09821426123380661,-11.381049156188965,0.30406811833381653,0.30406811833381653,nan,nan,0,-0.35975199937820435,0.105209581553936,0.33920973539352417,-21.251142501831055,-0.1298759989440441,-0.1298759989440441,nan,nan,0,-0.16740086674690247,-0.2842457890510559,-0.12502573430538177,-7.296132564544678,-0.393700435757637,-0.393700435757637,nan,nan,0,0.084771528840065,0.5128010511398315,-0.6565492749214172,-2.718425750732422,0.5323857739567757,0.5323857739567757,nan,nan,0,0.08940213918685913,-0.25635871291160583,0.3622744083404541,12.66203498840332,-0.1652989238500595,-0.1652989238500595,nan,nan,0,-0.1804298609495163,0.0745331346988678,0.1555965393781662,-8.897378921508789,-0.09021493047475815,-0.09021493047475815,nan,nan,0,0.311125248670578,-0.3770137131214142,-0.5698388814926147,-6.690692901611328,-0.24443738162517548,-0.24443738162517548,nan,nan,0,1.2411038875579834,-0.061454545706510544,0.16201691329479218,2.0695877075195312,0.5705519430339336,0.5705519430339336,nan,nan,0,0.6194714307785034,0.310865581035614,0.1426946222782135,2.545729637145996,0.6197357177734375,0.6197357177734375,nan,nan,0,0.08918731659650803,0.5150286555290222,-0.009856237098574638,-7.924551486968994,0.5345936678349972,0.5345936678349972,nan,nan,0,0.7802894115447998,-0.31025853753089905,1.2482296228408813,-2.1382243633270264,0.18014471232891083,0.18014471232891083,nan,nan,0,-0.7672999501228333,-0.07302796840667725,-1.0195969343185425,-3.9239144325256348,-0.3836499750614166,-0.3836499750614166,nan,nan,0,0,0.9995384216308594,-0.008307598531246185,0.02919515036046505,0.0013117071939632297,0.41700658202171326,0.36147111654281616,0.2921595275402069,nan,nan,nan,267.87384033203125,44.507625579833984,267.87384033203125,44.507625579833984,0.0,0.11885057389736176,-0.20547707378864288,-0.0036790133453905582
1782297564835830803,-0.35137587785720825,-0.9362344741821289,0.4000000059604645,0.0,0.0,1,1,-0.012094497680664062,0.061823442578315735,0.004875915590673685,0.4402323365211487,0.31324541568756104,0.2784511148929596,-0.0731317400932312,0.40672701597213745,-0.12762634456157684,-9.443922996520996,0.3634341359138489,0.3634341359138489,nan,nan,0,-0.3470461964607239,0.10844466090202332,0.3513283431529999,-18.19931411743164,-0.12352309748530388,-0.12352309748530388,nan,nan,0,-0.21794945001602173,-0.2853080630302429,-0.09008198976516724,-5.7237443923950195,-0.41897472739219666,-0.41897472739219666,nan,nan,0,0.2522791922092438,0.5063803791999817,-0.5529688596725464,-1.754606008529663,0.616139605641365,0.616139605641365,nan,nan,0,-0.16125497221946716,-0.25332745909690857,0.2790171205997467,10.820887565612793,-0.29062747955322266,-0.29062747955322266,nan,nan,0,-0.08510573208332062,0.07298475503921509,0.10403072834014893,-8.551977157592773,-0.04255286604166031,-0.04255286604166031,nan,nan,0,0.4808347523212433,-0.3841877579689026,-0.6903891563415527,-4.52950382232666,-0.15958262979984283,-0.15958262979984283,nan,nan,0,1.5349500179290771,-0.058773476630449295,0.29869523644447327,6.343643665313721,0.7174750082194805,0.7174750082194805,nan,nan,0,0.6977421045303345,0.31484678387641907,0.28870445489883423,3.813072919845581,0.658871054649353,0.658871054649353,nan,nan,0,0.1229519322514534,0.5152623057365417,0.3448076844215393,-8.242969512939453,0.5514759756624699,0.5514759756624699,nan,nan,0,1.0087395906448364,-0.28279179334640503,-0.08332812786102295,0.15109044313430786,0.29436980187892914,0.29436980187892914,nan,nan,0,-0.8448673486709595,-0.0661889985203743,1.1078587770462036,-6.201858043670654,-0.42243367433547974,-0.42243367433547974,nan,nan,0,0,0.9995006322860718,-0.006119563244283199,0.030891403555870056,0.0026236430276185274,0.4402323365211487,0.31324541568756104,0.2784511148929596,nan,nan,nan,206.14549255371094,116.844970703125,206.14549255371094,116.844970703125,0.0,0.11973754316568375,-0.21209244430065155,-0.014437965117394924
1782297564845830803,-0.43388479948043823,-0.9009683728218079,0.4000000059604645,0.0,0.0,1,1,-0.0077266693115234375,0.0645613744854927,0.007438231259584427,0.4110088348388672,0.24314168095588684,0.24151304364204407,0.11109499633312225,0.4054188132286072,-0.10665565729141235,-9.591922760009766,0.4555475041270256,0.4555475041270256,nan,nan,0,-0.3815903961658478,0.11137181520462036,0.28530579805374146,-16.07994842529297,-0.14079519733786583,-0.14079519733786583,nan,nan,0,-0.2671346962451935,-0.28625646233558655,-0.06048845499753952,-5.328747749328613,-0.44356735050678253,-0.44356735050678253,nan,nan,0,0.3338664472103119,0.5017548203468323,-0.36758795380592346,1.490559458732605,0.6569332331418991,0.6569332331418991,nan,nan,0,-0.3174598813056946,-0.25149694085121155,0.2493647187948227,9.21693229675293,-0.36872993409633636,-0.36872993409633636,nan,nan,0,-0.04553978145122528,0.07122916728258133,0.08233907073736191,-8.299689292907715,-0.02276989072561264,-0.02276989072561264,nan,nan,0,0.4486279785633087,-0.38967379927635193,-0.46363750100135803,-1.296552300453186,-0.17568601667881012,-0.17568601667881012,nan,nan,0,1.6265922784805298,-0.0558457188308239,0.2661612331867218,9.135095596313477,0.7632961384952068,0.7632961384952068,nan,nan,0,0.6408461332321167,0.3168072998523712,0.17133000493049622,5.374217987060547,0.6304230690002441,0.6304230690002441,nan,nan,0,0.10403337329626083,0.5184676051139832,0.3248182535171509,-6.891071319580078,0.5420166961848736,0.5420166961848736,nan,nan,0,1.1242998838424683,-0.28725412487983704,-0.5807154178619385,7.040274620056152,0.35214994847774506,0.35214994847774506,nan,nan,0,-0.8809961676597595,-0.05609992519021034,0.6379560828208923,-7.947212219238281,-0.44049808382987976,-0.44049808382987976,nan,nan,0,0,0.999464213848114,-0.003981245681643486,0.03226025402545929,0.003841827856376767,0.4110088348388672,0.24314168095588684,0.24151304364204407,nan,nan,nan,187.13771057128906,151.3243408203125,187.13771057128906,151.3243408203125,0.0,0.11893267184495926,-0.21684059500694275,-0.02369624190032482
1782297564855830803,-0.5128994584083557,-0.8584486842155457,0.4000000059604645,0.0,0.0,1,1,-0.0036478042602539062,0.06662501394748688,0.009445102885365486,0.38627445697784424,0.1712644249200821,0.17011290788650513,0.0967378169298172,0.40483343601226807,-0.0666927918791771,-7.356335163116455,0.4483689144253731,0.4483689144253731,nan,nan,0,-0.4036495089530945,0.11379321664571762,0.23674963414669037,-14.205486297607422,-0.15182475373148918,-0.15182475373148918,nan,nan,0,-0.22973552346229553,-0.2872149348258972,-0.028105702251195908,-4.232396125793457,-0.42486776411533356,-0.42486776411533356,nan,nan,0,0.3136279284954071,0.49976876378059387,-0.13080304861068726,2.0694875717163086,0.6468139737844467,0.6468139737844467,nan,nan,0,-0.38065335154533386,-0.2513340413570404,0.12128584086894989,6.461610794067383,-0.400326669216156,-0.400326669216156,nan,nan,0,-0.027536824345588684,0.06860342621803284,0.11286589503288269,-7.776485443115234,-0.013768412172794342,-0.013768412172794342,nan,nan,0,0.49888595938682556,-0.393963485956192,-0.33034005761146545,1.8851776123046875,-0.1505570262670517,-0.1505570262670517,nan,nan,0,1.6411129236221313,-0.05312886834144592,0.2507256865501404,14.488512992858887,0.7705564610660076,0.7705564610660076,nan,nan,0,0.5723764896392822,0.3187171518802643,0.10413533449172974,7.2471184730529785,0.5961882472038269,0.5961882472038269,nan,nan,0,0.10649609565734863,0.5221124887466431,0.2998334467411041,-4.3974609375,0.5432480573654175,0.5432480573654175,nan,nan,0,1.2454478740692139,-0.2950889766216278,-0.5561630129814148,12.001466751098633,0.41272394359111786,0.41272394359111786,nan,nan,0,-0.8250868916511536,-0.042572323232889175,0.8740943074226379,-10.214834213256836,-0.4125434458255768,-0.4125434458255768,nan,nan,0,0,0.9994320869445801,-0.0019800630398094654,0.03329731151461601,0.004780649673193693,0.38627445697784424,0.1712644249200821,0.17011290788650513,nan,nan,nan,143.57107543945312,161.5138397216797,143.57107543945312,161.5138397216797,0.0,0.11667153984308243,-0.21861319243907928,-0.034683555364608765
1782297564865830803,-0.5877862572669983,-0.8090162873268127,0.4000000059604645,0.0,0.0,1,1,0.00025642316904850304,0.06799455732107162,0.010721616446971893,0.37843525409698486,0.10194622725248337,0.09188907593488693,0.06310686469078064,0.4050214886665344,-0.009752314537763596,-3.5121328830718994,0.4315534383058548,0.4315534383058548,nan,nan,0,-0.3304421901702881,0.11593873798847198,0.2125316858291626,-10.659063339233398,-0.11522109434008598,-0.11522109434008598,nan,nan,0,-0.174230694770813,-0.28798186779022217,-0.004914902150630951,-2.820523738861084,-0.3971153497695923,-0.3971153497695923,nan,nan,0,0.28192830085754395,0.5006920695304871,0.1449103206396103,1.3874809741973877,0.6309641599655151,0.6309641599655151,nan,nan,0,-0.3794419467449188,-0.2530154287815094,-0.10821657627820969,3.7403886318206787,-0.3997209668159485,-0.3997209668159485,nan,nan,0,-0.022130772471427917,0.06512875854969025,-0.04034268110990524,-5.007553577423096,-0.011065386235713959,-0.011065386235713959,nan,nan,0,0.3445693254470825,-0.39754143357276917,-0.3158852159976959,5.910555839538574,-0.22771534323692322,-0.22771534323692322,nan,nan,0,1.6108040809631348,-0.050212517380714417,0.29037392139434814,23.19831085205078,0.7554020397365093,0.7554020397365093,nan,nan,0,0.44106483459472656,0.3212484121322632,0.15230639278888702,9.618281364440918,0.5305324196815491,0.5305324196815491,nan,nan,0,0.07414482533931732,0.5249614715576172,0.34664806723594666,-2.639369010925293,0.5270724222064018,0.5270724222064018,nan,nan,0,1.261828064918518,-0.2933253347873688,-0.1784113049507141,17.233028411865234,0.42091403901576996,0.42091403901576996,nan,nan,0,-0.8136717081069946,-0.021811114624142647,1.6535059213638306,-13.694778442382812,-0.4068358540534973,-0.4068358540534973,nan,nan,0,0,0.9994078278541565,-5.408123615779914e-05,0.033990923315286636,0.005353327374905348,0.37843525409698486,0.10194622725248337,0.09188907593488693,nan,nan,nan,94.1823501586914,219.05734252929688,94.1823501586914,219.05734252929688,0.0,0.11371738463640213,-0.21621116995811462,-0.04755278676748276
1782297564875830803,-0.6579396724700928,-0.7530706524848938,0.4000000059604645,0.0,0.0,1,1,0.003887302242219448,0.06863591820001602,0.011438948102295399,0.35588887333869934,0.022144658491015434,0.033257294446229935,0.017611756920814514,0.40775373578071594,0.2777363955974579,-2.6719439029693604,0.40880588442087173,0.40880588442087173,nan,nan,0,-0.32569700479507446,0.11797893047332764,0.20637696981430054,-10.45640754699707,-0.11284850165247917,-0.11284850165247917,nan,nan,0,-0.15207216143608093,-0.2899101972579956,-0.13208258152008057,-3.106584072113037,-0.38603608310222626,-0.38603608310222626,nan,nan,0,0.31473347544670105,0.5069741606712341,0.7470707893371582,3.2210333347320557,0.6473667472600937,0.6473667472600937,nan,nan,0,-0.3895992636680603,-0.2577766180038452,-0.46200796961784363,-0.2803956866264343,-0.4047996252775192,-0.4047996252775192,nan,nan,0,-0.05113552510738373,0.058063581585884094,-0.5062111616134644,-2.867007255554199,-0.025567762553691864,-0.025567762553691864,nan,nan,0,0.3335304260253906,-0.3994626998901367,-0.03731602430343628,7.678476333618164,-0.23323479294776917,-0.23323479294776917,nan,nan,0,1.4072668552398682,-0.04796358197927475,0.2043495774269104,29.264184951782227,0.653633426874876,0.653633426874876,nan,nan,0,0.28963974118232727,0.3227745592594147,-0.021777695044875145,12.068449020385742,0.4548198729753494,0.4548198729753494,nan,nan,0,0.08430814743041992,0.5286267995834351,0.3526867628097534,-1.4521780014038086,0.5321540832519531,0.5321540832519531,nan,nan,0,1.2596962451934814,-0.299247145652771,-1.1839325428009033,21.960020065307617,0.41984812915325165,0.41984812915325165,nan,nan,0,-0.753305196762085,-0.009106291458010674,0.21079523861408234,-14.700883865356445,-0.3766525983810425,-0.3766525983810425,nan,nan,0,0,0.9993934035301208,0.0017462330870330334,0.034321706742048264,0.0056493766605854034,0.35588887333869934,0.022144658491015434,0.033257294446229935,nan,nan,nan,55.975486755371094,231.9049530029297,55.975486755371094,231.9049530029297,0.0,0.10976355522871017,-0.2125670164823532,-0.06630577892065048
1782297564885830803,-0.7227957844734192,-0.6910617351531982,0.4000000059604645,0.0,0.0,1,1,0.007174048572778702,0.06871507316827774,0.011364830657839775,0.23906473815441132,0.02754506841301918,-0.10712766647338867,0.047081321477890015,0.41281646490097046,0.6399085521697998,-0.9054431915283203,0.4235406666994095,0.4235406666994095,nan,nan,0,-0.26507246494293213,0.11974677443504333,0.027905452996492386,-11.065583229064941,-0.082536231726408,-0.082536231726408,nan,nan,0,-0.11295571178197861,-0.29259997606277466,-0.25567930936813354,-3.460127115249634,-0.3664778582751751,-0.3664778582751751,nan,nan,0,0.2823646664619446,0.5180327296257019,1.156102180480957,1.8783705234527588,0.6311823427677155,0.6311823427677155,nan,nan,0,-0.3423174321651459,-0.26534345746040344,-0.7716696262359619,-2.6023712158203125,-0.381158709526062,-0.381158709526062,nan,nan,0,-0.055210843682289124,0.048257939517498016,-0.9152306318283081,-1.780462622642517,-0.027605421841144562,-0.027605421841144562,nan,nan,0,0.19908738136291504,-0.4001741409301758,-0.9676343202590942,7.960443019866943,-0.30045631527900696,-0.30045631527900696,nan,nan,0,1.3000221252441406,-0.046357251703739166,-0.24870476126670837,31.535131454467773,0.6000110618770123,0.6000110618770123,nan,nan,0,0.15310856699943542,0.3240344822406769,0.7052273154258728,8.804734230041504,0.3865542858839035,0.3865542858839035,nan,nan,0,0.047028154134750366,0.5327374339103699,1.5050071477890015,-6.265798091888428,0.5135140866041183,0.5135140866041183,nan,nan,0,1.2254517078399658,-0.3095436990261078,-0.590969443321228,24.17523193359375,0.40272586047649384,0.40272586047649384,nan,nan,0,-0.7630816698074341,-0.0010275028180330992,-0.04180237650871277,-16.149089813232422,-0.38154083490371704,-0.38154083490371704,nan,nan,0,0,0.9993879199028015,0.0033896483946591616,0.03437037393450737,0.0055557796731591225,0.23906473815441132,0.02754506841301918,-0.10712766647338867,nan,nan,nan,31.646268844604492,1219.4215087890625,31.646268844604492,1219.4215087890625,400.0,0.10180173814296722,-0.1998957097530365,-0.05371881648898125
1782297564895830803,-0.7818323373794556,-0.6234887838363647,0.4000000059604645,0.0,0.0,1,1,0.00872441940009594,0.06767117232084274,0.010562741197645664,0.12082719057798386,-0.16474778950214386,-0.08720815181732178,0.012867756187915802,0.41584312915802,0.1588183492422104,-0.08967277407646179,0.4064338840544224,0.4064338840544224,nan,nan,0,-0.18599466979503632,0.11804575473070145,-0.26539117097854614,-9.88174057006836,-0.0429973341524601,-0.0429973341524601,nan,nan,0,-0.09848077595233917,-0.29362258315086365,-0.07215146720409393,-3.4925639629364014,-0.3592403903603554,-0.3592403903603554,nan,nan,0,0.27872198820114136,0.5287117958068848,1.0252546072006226,1.1110752820968628,0.6293610036373138,0.6293610036373138,nan,nan,0,-0.3282824158668518,-0.2762942612171173,-1.1537836790084839,-3.0915002822875977,-0.374141201376915,-0.374141201376915,nan,nan,0,-0.042917534708976746,0.03929987549781799,-0.6791216135025024,-1.0984418392181396,-0.021458767354488373,-0.021458767354488373,nan,nan,0,0.32498958706855774,-0.4019017219543457,0.06814172863960266,7.909944534301758,-0.2375052124261856,-0.2375052124261856,nan,nan,0,1.5342605113983154,-0.0485071986913681,-0.1916995793581009,34.129886627197266,0.7171302549540997,0.7171302549540997,nan,nan,0,0.15229421854019165,0.3256964683532715,-0.0077675096690654755,9.034811019897461,0.3861471116542816,0.3861471116542816,nan,nan,0,0.09478062391281128,0.541936457157135,0.7458589673042297,-8.25161361694336,0.5373903214931488,0.5373903214931488,nan,nan,0,1.2449429035186768,-0.315250039100647,-0.3690292537212372,26.2677059173584,0.4124714583158493,0.4124714583158493,nan,nan,0,-0.7586899995803833,-0.005121955182403326,-0.18550457060337067,-14.013769149780273,-0.37934499979019165,-0.37934499979019165,nan,nan,0,0,0.999405026435852,0.0041809771209955215,0.03385135531425476,0.005130705889314413,0.12082719057798386,-0.16474778950214386,-0.08720815181732178,nan,nan,nan,24.970840454101562,334.68353271484375,24.970840454101562,334.68353271484375,0.0,0.10645242780447006,-0.1839384138584137,-0.02959989383816719
1782297564905830803,-0.8345740437507629,-0.5508958697319031,0.4000000059604645,0.0,0.0,1,1,0.00967126153409481,0.06563939154148102,0.009624656289815903,0.08280890434980392,-0.2215174436569214,-0.10491301119327545,0.020548619329929352,0.41606616973876953,-0.04188551381230354,1.0445200204849243,0.41027431562542915,0.41027431562542915,nan,nan,0,-0.24843718111515045,0.11526511609554291,-0.3010072708129883,-8.166661262512207,-0.07421858981251717,-0.07421858981251717,nan,nan,0,-0.08673392981290817,-0.2936490476131439,-0.018303368240594864,-2.7155604362487793,-0.3533669672906399,-0.3533669672906399,nan,nan,0,0.27370530366897583,0.5380820631980896,0.8893643617630005,-0.03352847695350647,0.6268526613712311,0.6268526613712311,nan,nan,0,-0.31341683864593506,-0.28680214285850525,-1.1061007976531982,-2.709879159927368,-0.3667084127664566,-0.3667084127664566,nan,nan,0,-0.03239138424396515,0.03537442907691002,-0.4248126149177551,-1.0003753900527954,-0.016195692121982574,-0.016195692121982574,nan,nan,0,0.10094115138053894,-0.3987920880317688,0.35411322116851807,3.7554283142089844,-0.349529430270195,-0.349529430270195,nan,nan,0,1.512176275253296,-0.05017920210957527,-0.15928517282009125,33.43210983276367,0.7060881368815899,0.7060881368815899,nan,nan,0,0.1305282562971115,0.3240877389907837,-0.17690913379192352,8.148102760314941,0.37526413053274155,0.37526413053274155,nan,nan,0,0.0722566694021225,0.547784149646759,0.5422030687332153,-7.632153034210205,0.5261283442378044,0.5261283442378044,nan,nan,0,1.0814212560653687,-0.32067832350730896,-0.3611930012702942,26.708084106445312,0.33071063458919525,0.33071063458919525,nan,nan,0,-0.785807728767395,-0.008083025924861431,-0.026584453880786896,-14.10219669342041,-0.3929038643836975,-0.3929038643836975,nan,nan,0,0,0.999439001083374,0.004675043746829033,0.032836299389600754,0.00465098861604929,0.08280890434980392,-0.2215174436569214,-0.10491301119327545,nan,nan,nan,23.02886199951172,326.01104736328125,23.02886199951172,326.01104736328125,0.0,0.1095568910241127,-0.17073993384838104,-0.02943873591721058
1782297564915830803,-0.8805962204933167,-0.47386741638183594,0.4000000059604645,0.0,0.0,1,1,0.010065740905702114,0.06325455754995346,0.008583813905715942,0.02051050215959549,-0.25271087884902954,-0.10771133750677109,0.028970375657081604,0.41584286093711853,-0.043203797191381454,0.3713192045688629,0.4144851937890053,0.4144851937890053,nan,nan,0,-0.09080825001001358,0.1119295209646225,-0.367515504360199,-7.740327835083008,0.0045958757400512695,0.0045958757400512695,nan,nan,0,-0.13256040215492249,-0.2937781810760498,0.01443704403936863,-2.3863465785980225,-0.37628020346164703,-0.37628020346164703,nan,nan,0,0.33080607652664185,0.5477697849273682,0.9287213683128357,0.2109997570514679,0.6554030478000641,0.6554030478000641,nan,nan,0,-0.3671724200248718,-0.29822003841400146,-0.9358537197113037,-2.581144094467163,-0.393586203455925,-0.393586203455925,nan,nan,0,-0.03711159527301788,0.02968011610209942,-0.4932050108909607,-1.273417592048645,-0.01855579763650894,-0.01855579763650894,nan,nan,0,0.07825106382369995,-0.3940907418727875,0.5023788213729858,3.006873607635498,-0.3608744740486145,-0.3608744740486145,nan,nan,0,1.552809238433838,-0.052166152745485306,-0.20478031039237976,29.579294204711914,0.7264046184718609,0.7264046184718609,nan,nan,0,0.16019710898399353,0.321315735578537,-0.28434401750564575,6.016983985900879,0.39009855687618256,0.39009855687618256,nan,nan,0,0.0262107253074646,0.5527973175048828,0.4703626334667206,-6.923402309417725,0.5031053721904755,0.5031053721904755,nan,nan,0,1.0825308561325073,-0.3259519040584564,-0.3584691882133484,26.844972610473633,0.3312654346227646,0.3312654346227646,nan,nan,0,-0.7807125449180603,-0.011209317483007908,0.0013093650341033936,-12.933649063110352,-0.39035627245903015,-0.39035627245903015,nan,nan,0,0,0.9994786977767944,0.0048945690505206585,0.03164290264248848,0.004130545537918806,0.02051050215959549,-0.25271087884902954,-0.10771133750677109,nan,nan,nan,25.384292602539062,305.4161376953125,25.384292602539062,305.4161376953125,0.0,0.11115804314613342,-0.15928718447685242,-0.03539012745022774
1782297564925830803,-0.9195279479026794,-0.39302459359169006,0.4000000059604645,0.0,0.0,1,1,0.00980934128165245,0.06072038412094116,0.0075607881881296635,-0.04842035472393036,-0.25138306617736816,-0.09675683826208115,0.022876113653182983,0.41517043113708496,-0.07304701209068298,0.9828922748565674,0.41143806278705597,0.41143806278705597,nan,nan,0,-0.11301618069410324,0.10763169825077057,-0.4612903296947479,-6.017197608947754,-0.006508089601993561,-0.006508089601993561,nan,nan,0,-0.10384730249643326,-0.2939436733722687,-0.03622446209192276,-3.4668149948120117,-0.3619236536324024,-0.3619236536324024,nan,nan,0,0.2935176491737366,0.5560318231582642,0.7788528800010681,-0.5526902675628662,0.6367588341236115,0.6367588341236115,nan,nan,0,-0.363636314868927,-0.30414000153541565,-0.463351309299469,-1.8001186847686768,-0.3918181508779526,-0.3918181508779526,nan,nan,0,-0.018692418932914734,0.022740084677934647,-0.5152294039726257,-1.1145594120025635,-0.009346209466457367,-0.009346209466457367,nan,nan,0,0.05698010325431824,-0.38831543922424316,0.5763527154922485,0.5550190210342407,-0.37150995433330536,-0.37150995433330536,nan,nan,0,1.6781065464019775,-0.054735325276851654,-0.27953287959098816,27.75936508178711,0.7890532724559307,0.7890532724559307,nan,nan,0,0.19998177886009216,0.3175826370716095,-0.3500255048274994,4.034939289093018,0.4099908918142319,0.4099908918142319,nan,nan,0,0.03677213191986084,0.5572356581687927,0.4261103868484497,-8.787378311157227,0.5083860754966736,0.5083860754966736,nan,nan,0,1.0778018236160278,-0.3311314284801483,-0.36752402782440186,26.43581771850586,0.32890091836452484,0.32890091836452484,nan,nan,0,-0.7976959943771362,-0.014461152255535126,0.01071619987487793,-12.999017715454102,-0.3988479971885681,-0.3988479971885681,nan,nan,0,0,0.9995205402374268,0.004787601064890623,0.030373480170965195,0.0036297154147177935,-0.04842035472393036,-0.25138306617736816,-0.09675683826208115,nan,nan,nan,20.36526870727539,306.8654479980469,20.36526870727539,306.8654479980469,0.0,0.11437248438596725,-0.1478252112865448,-0.04297079145908356
1782297564935830803,-0.9510566592216492,-0.30901649594306946,0.4000000059604645,0.0,0.0,1,1,0.009161665104329586,0.05801206827163696,0.006740900222212076,-0.06947041302919388,-0.2827393412590027,-0.06796839088201523,0.11196466535329819,0.413435697555542,-0.2261398732662201,0.9152689576148987,0.45598233863711357,0.45598233863711357,nan,nan,0,-0.179783433675766,0.10306650400161743,-0.45044559240341187,-4.311797142028809,-0.039891716092824936,-0.039891716092824936,nan,nan,0,-0.032893106341362,-0.29403454065322876,0.02488841488957405,-1.4677479267120361,-0.3264465555548668,-0.3264465555548668,nan,nan,0,0.2578262984752655,0.563080906867981,0.6540966033935547,-0.38804173469543457,0.6189131587743759,0.6189131587743759,nan,nan,0,-0.3443324863910675,-0.3083828389644623,-0.3331559896469116,-1.4855287075042725,-0.3821662366390228,-0.3821662366390228,nan,nan,0,-0.008972719311714172,0.018518934026360512,-0.27626875042915344,-0.8502479791641235,-0.004486359655857086,-0.004486359655857086,nan,nan,0,0.04478776454925537,-0.38195472955703735,0.6321343779563904,2.1093242168426514,-0.3776061236858368,-0.3776061236858368,nan,nan,0,1.6868932247161865,-0.05754970759153366,-0.27609893679618835,32.57177734375,0.7934466116130352,0.7934466116130352,nan,nan,0,0.19632989168167114,0.3131480813026428,-0.4143234193325043,4.433413028717041,0.40816494822502136,0.40816494822502136,nan,nan,0,0.048620566725730896,0.561668336391449,0.4609223008155823,-7.127436637878418,0.5143102928996086,0.5143102928996086,nan,nan,0,1.0118941068649292,-0.3365176022052765,-0.45663973689079285,26.985158920288086,0.2959470599889755,0.2959470599889755,nan,nan,0,-0.8100165128707886,-0.01775357313454151,0.005516901612281799,-12.53027057647705,-0.4050082564353943,-0.4050082564353943,nan,nan,0,0,0.9995636940002441,0.004481115378439426,0.029016928747296333,0.003236138727515936,-0.06947041302919388,-0.2827393412590027,-0.06796839088201523,nan,nan,nan,17.286067962646484,311.7467346191406,17.286067962646484,311.7467346191406,0.0,0.11641941219568253,-0.13519348204135895,-0.05027882009744644
1782297564945830803,-0.9749282598495483,-0.22251944243907928,0.4000000059604645,0.0,0.0,1,1,0.008323472924530506,0.05534758046269417,0.006159989628940821,-0.09188881516456604,-0.254844069480896,-0.04557954519987106,0.1470361351966858,0.41138485074043274,-0.18868304789066315,1.047584891319275,0.4735180735588074,0.4735180735588074,nan,nan,0,-0.06661124527454376,0.09852486848831177,-0.45186343789100647,-5.337800979614258,0.01669437810778618,0.01669437810778618,nan,nan,0,-0.1251276731491089,-0.29417768120765686,-0.04065437987446785,-2.918386220932007,-0.37256383895874023,-0.37256383895874023,nan,nan,0,0.3155100345611572,0.5693690180778503,0.6052112579345703,-0.6184459924697876,0.6477550268173218,0.6477550268173218,nan,nan,0,-0.35644328594207764,-0.3106224238872528,-0.11270712316036224,-1.2586960792541504,-0.3882216364145279,-0.3882216364145279,nan,nan,0,-0.011149987578392029,0.015846550464630127,-0.16743499040603638,-0.6500110626220703,-0.005574993789196014,-0.005574993789196014,nan,nan,0,0.13187453150749207,-0.3761003315448761,0.5246724486351013,-1.1508070230484009,-0.33406274020671844,-0.33406274020671844,nan,nan,0,1.7272512912750244,-0.060534823685884476,-0.31241247057914734,32.35049819946289,0.8136256448924541,0.8136256448924541,nan,nan,0,0.25736334919929504,0.3087962567806244,-0.3564690053462982,3.9912209510803223,0.4386816769838333,0.4386816769838333,nan,nan,0,0.05807626247406006,0.566828191280365,0.554836094379425,-9.685420989990234,0.5190381407737732,0.5190381407737732,nan,nan,0,1.0111985206604004,-0.3422998785972595,-0.4889478087425232,24.383987426757812,0.2955992668867111,0.2955992668867111,nan,nan,0,-0.8138512969017029,-0.02094567008316517,-0.00045692920684814453,-13.17956829071045,-0.40692564845085144,-0.40692564845085144,nan,nan,0,0,0.9996041059494019,0.004074887838214636,0.027682697400450706,0.00296362885273993,-0.09188881516456604,-0.254844069480896,-0.04557954519987106,nan,nan,nan,17.40848731994629,312.1083984375,17.40848731994629,312.1083984375,0.0,0.11922318488359451,-0.12388991564512253,-0.06185467168688774
1782297564955830803,-0.9909498691558838,-0.13423265516757965,0.4000000059604645,0.0,0.0,1,1,0.007357301656156778,0.053006287664175034,0.006004003807902336,-0.09916557371616364,-0.22221606969833374,0.00475349323824048,0.13637502491474152,0.41081371903419495,-0.012091661803424358,0.6263567209243774,0.46818751841783524,0.46818751841783524,nan,nan,0,-0.09891146421432495,0.0948851928114891,-0.3361230492591858,-2.409666061401367,0.0005442686378955841,0.0005442686378955841,nan,nan,0,-0.05603819340467453,-0.294818639755249,-0.05996733903884888,-1.8333702087402344,-0.33801909908652306,-0.33801909908652306,nan,nan,0,0.2350570112466812,0.5774673223495483,0.8451307415962219,-1.037936806678772,0.6075285151600838,0.6075285151600838,nan,nan,0,-0.33475565910339355,-0.31687691807746887,-0.6953527927398682,-1.6733043193817139,-0.37737782299518585,-0.37737782299518585,nan,nan,0,0.013946577906608582,0.016211140900850296,0.13146524131298065,-1.6747751235961914,0.006973288953304291,0.006973288953304291,nan,nan,0,0.06621839106082916,-0.3709251880645752,0.4898502826690674,-1.5046663284301758,-0.3668908104300499,-0.3668908104300499,nan,nan,0,1.7258896827697754,-0.06355542689561844,-0.2944757342338562,33.250389099121094,0.8129448406398296,0.8129448406398296,nan,nan,0,0.2902395725250244,0.3045007288455963,-0.384833961725235,4.752840518951416,0.455119788646698,0.455119788646698,nan,nan,0,0.05231437832117081,0.5721943378448486,0.5321187973022461,-12.440471649169922,0.5161571986973286,0.5161571986973286,nan,nan,0,0.9739742875099182,-0.34816649556159973,-0.4877409338951111,24.600465774536133,0.27698715031147003,0.27698715031147003,nan,nan,0,-0.8038066625595093,-0.02399171143770218,-0.026726365089416504,-12.702234268188477,-0.40190333127975464,-0.40190333127975464,nan,nan,0,0,0.9996378421783447,0.003597781527787447,0.026510782539844513,0.0029034391045570374,-0.09916557371616364,-0.22221606969833374,0.00475349323824048,nan,nan,nan,32.91502380371094,331.1452941894531,32.91502380371094,331.1452941894531,0.0,0.12245584279298782,-0.11087212711572647,-0.062128566205501556
1782297564965830803,-0.9989930987358093,-0.04486418515443802,0.4000000059604645,0.0,0.0,1,1,0.0065178279764950275,0.05087387561798096,0.006141943391412497,-0.07749462872743607,-0.19852115213871002,0.029187140986323357,0.07969731092453003,0.4097858965396881,-0.11235377937555313,0.8940893411636353,0.4398486614227295,0.4398486614227295,nan,nan,0,-0.11044871062040329,0.09176872670650482,-0.28699055314064026,-2.8743252754211426,-0.005224354565143585,-0.005224354565143585,nan,nan,0,-0.07688624411821365,-0.2950412333011627,-0.025738390162587166,-3.1392223834991455,-0.3484431244432926,-0.3484431244432926,nan,nan,0,0.2080993354320526,0.5847496390342712,0.6843615174293518,-1.9904805421829224,0.5940496772527695,0.5940496772527695,nan,nan,0,-0.3348497748374939,-0.3236149251461029,-0.6248478889465332,-1.4055840969085693,-0.377424880862236,-0.377424880862236,nan,nan,0,0.028527915477752686,0.018410949036478996,0.23771731555461884,-1.5099684000015259,0.014263957738876343,0.014263957738876343,nan,nan,0,0.015753744170069695,-0.3660396933555603,0.4386523962020874,-1.8340896368026733,-0.39212313387542963,-0.39212313387542963,nan,nan,0,1.6656358242034912,-0.06615172326564789,-0.24489213526248932,35.704612731933594,0.7828179113566875,0.7828179113566875,nan,nan,0,0.3309922218322754,0.3002229332923889,-0.36167246103286743,5.520965576171875,0.4754961133003235,0.4754961133003235,nan,nan,0,0.017443940043449402,0.5774019956588745,0.5336572527885437,-12.40353012084961,0.49872197955846786,0.49872197955846786,nan,nan,0,1.007890224456787,-0.3540198802947998,-0.49056780338287354,24.73009490966797,0.2939451187849045,0.2939451187849045,nan,nan,0,-0.7727468013763428,-0.02676602266728878,-0.012834906578063965,-12.895513534545898,-0.3863734006881714,-0.3863734006881714,nan,nan,0,0,0.9996667504310608,0.003179731545969844,0.025443943217396736,0.002987070009112358,-0.07749462872743607,-0.19852115213871002,0.029187140986323357,nan,nan,nan,32.40633773803711,326.1986999511719,32.40633773803711,326.1986999511719,0.0,0.1274469494819641,-0.09940216690301895,-0.061575938016176224
1782297564975830803,-0.9989929795265198,0.04486646503210068,0.4000000059604645,0.0,0.0,1,1,0.005863830912858248,0.04909008741378784,0.006536014843732119,-0.06223085895180702,-0.15917792916297913,0.05136735737323761,0.12217214703559875,0.4082117974758148,-0.161489799618721,2.4172332286834717,0.46108607947826385,0.46108607947826385,nan,nan,0,-0.11212047189474106,0.08914974331855774,-0.23575998842716217,-4.278794288635254,-0.0060602352023124695,-0.0060602352023124695,nan,nan,0,-0.11876112967729568,-0.29493218660354614,0.004814748652279377,-1.9054327011108398,-0.36938056722283363,-0.36938056722283363,nan,nan,0,0.2266492247581482,0.590692400932312,0.5512486696243286,-3.054830551147461,0.6033246219158173,0.6033246219158173,nan,nan,0,-0.3347060978412628,-0.3295982778072357,-0.5685736536979675,-0.8869686722755432,-0.3773530423641205,-0.3773530423641205,nan,nan,0,0.02187095582485199,0.022034989669919014,0.4303591251373291,-1.5905840396881104,0.010935477912425995,0.010935477912425995,nan,nan,0,0.12029120326042175,-0.3619105815887451,0.3573981821537018,-1.8966941833496094,-0.3398544043302536,-0.3398544043302536,nan,nan,0,1.583953619003296,-0.06834907084703445,-0.21032217144966125,35.85926055908203,0.7419768087565899,0.7419768087565899,nan,nan,0,0.362994909286499,0.29633429646492004,-0.3134671747684479,5.411258220672607,0.4914974570274353,0.4914974570274353,nan,nan,0,0.0389743447303772,0.5826851725578308,0.5375276803970337,-12.353381156921387,0.5094871819019318,0.5094871819019318,nan,nan,0,1.0649051666259766,-0.3598938286304474,-0.4988744258880615,23.779693603515625,0.3224525898694992,0.3224525898694992,nan,nan,0,-0.7539877891540527,-0.029222002252936363,0.04533228278160095,-13.030388832092285,-0.37699389457702637,-0.37699389457702637,nan,nan,0,0,0.9996894598007202,0.00285080773755908,0.024551918730139732,0.0031950471457093954,-0.06223085895180702,-0.15917792916297913,0.05136735737323761,nan,nan,nan,38.449161529541016,322.64947509765625,38.449161529541016,322.64947509765625,0.0,0.13272614777088165,-0.08877477794885635,-0.0611850842833519
1782297564985830803,-0.9909496903419495,0.1342339813709259,0.4000000059604645,0.0,0.0,1,1,0.0053741903975605965,0.04776883125305176,0.007331647910177708,-0.04469486325979233,-0.12023583054542542,0.09250304102897644,0.14644935727119446,0.4079706072807312,-0.01712401770055294,1.4666823148727417,0.4732246845960617,0.4732246845960617,nan,nan,0,-0.10183405131101608,0.08737605810165405,-0.13501441478729248,-2.3214216232299805,-0.0009170249104499817,-0.0009170249104499817,nan,nan,0,-0.08160477876663208,-0.2960837185382843,-0.1758975237607956,-1.0405728816986084,-0.35080239176750183,-0.35080239176750183,nan,nan,0,0.19437262415885925,0.5974673628807068,0.6548100113868713,-2.240142583847046,0.5871863216161728,0.5871863216161728,nan,nan,0,-0.32933276891708374,-0.335703045129776,-0.4558853507041931,-0.9383925795555115,-0.37466637790203094,-0.37466637790203094,nan,nan,0,0.031576886773109436,0.02508571930229664,0.07071350514888763,-1.5802537202835083,0.015788443386554718,0.015788443386554718,nan,nan,0,0.16295219957828522,-0.3587644100189209,0.2707109749317169,-0.3711850643157959,-0.31852390617132187,-0.31852390617132187,nan,nan,0,1.5777182579040527,-0.07019653171300888,-0.16517406702041626,36.627662658691406,0.7388591282069683,0.7388591282069683,nan,nan,0,0.39585623145103455,0.29283609986305237,-0.296203076839447,6.453123092651367,0.5079281181097031,0.5079281181097031,nan,nan,0,0.05349266529083252,0.5880802869796753,0.5517843961715698,-12.647639274597168,0.5167463421821594,0.5167463421821594,nan,nan,0,1.0886586904525757,-0.36576128005981445,-0.5104309916496277,23.976552963256836,0.33432935178279877,0.33432935178279877,nan,nan,0,-0.7261924743652344,-0.031407490372657776,-0.0014617592096328735,-13.019097328186035,-0.3630962371826172,-0.3630962371826172,nan,nan,0,0,0.9997047185897827,0.0025987604167312384,0.023891746997833252,0.0036005834117531776,-0.04469486325979233,-0.12023583054542542,0.09250304102897644,nan,nan,nan,19.009366989135742,333.05340576171875,19.009366989135742,333.05340576171875,0.0,0.1367175281047821,-0.07731030881404877,-0.060505807399749756
1782297564995830803,-0.9749277234077454,0.22252167761325836,0.4000000059604645,0.0,0.0,1,1,0.005113656632602215,0.04670943319797516,0.008185284212231636,-0.02342039905488491,-0.08131174743175507,0.09547397494316101,0.20266243815422058,0.406234472990036,-0.18750707805156708,2.9135260581970215,0.5013312250375748,0.5013312250375748,nan,nan,0,-0.14895206689834595,0.08585931360721588,-0.12684370577335358,-2.847477436065674,-0.024476032704114914,-0.024476032704114914,nan,nan,0,-0.10455483198165894,-0.2961367964744568,0.013157769106328487,-2.3265793323516846,-0.36227741837501526,-0.36227741837501526,nan,nan,0,0.21955803036689758,0.6018160581588745,0.39454203844070435,-3.8190977573394775,0.599779024720192,0.599779024720192,nan,nan,0,-0.35746437311172485,-0.3399844765663147,-0.5946065783500671,-0.3575287461280823,-0.3887321799993515,-0.3887321799993515,nan,nan,0,0.027503371238708496,0.02891024760901928,0.4919881522655487,-1.41295325756073,0.013751685619354248,0.013751685619354248,nan,nan,0,0.22466300427913666,-0.3562205135822296,0.1824098527431488,-1.218212604522705,-0.28766850382089615,-0.28766850382089615,nan,nan,0,1.5640923976898193,-0.0715646892786026,-0.12486764043569565,36.50685501098633,0.7320461980998516,0.7320461980998516,nan,nan,0,0.41792258620262146,0.28982415795326233,-0.22663137316703796,6.944027423858643,0.5189612954854965,0.5189612954854965,nan,nan,0,0.06651193648576736,0.5935414433479309,0.5635043382644653,-13.521925926208496,0.5232559777796268,0.5232559777796268,nan,nan,0,1.0708301067352295,-0.37165072560310364,-0.5011504888534546,23.525484085083008,0.32541505992412567,0.32541505992412567,nan,nan,0,-0.7166990637779236,-0.03320061042904854,0.04853580892086029,-13.084310531616211,-0.3583495318889618,-0.3583495318889618,nan,nan,0,0,0.9997158646583557,0.002460533520206809,0.0233627837151289,0.004031792748719454,-0.02342039905488491,-0.08131174743175507,0.09547397494316101,nan,nan,nan,33.554100036621094,330.7997741699219,33.554100036621094,330.7997741699219,0.0,0.143419086933136,-0.06653377413749695,-0.05941016599535942
1782297565005830803,-0.9510560035705566,0.30901864171028137,0.4000000059604645,0.0,0.0,1,1,0.005153760313987732,0.04618312045931816,0.009251088835299015,0.034325726330280304,-0.04123784974217415,0.1006302684545517,0.21956279873847961,0.40501639246940613,-0.11862531304359436,1.6898083686828613,0.5097814053297043,0.5097814053297043,nan,nan,0,-0.07168750464916229,0.08506850898265839,-0.042287617921829224,-3.407280206680298,0.014156248420476913,0.014156248420476913,nan,nan,0,-0.09386751800775528,-0.2967360019683838,-0.01856594905257225,-0.5111951231956482,-0.35693376138806343,-0.35693376138806343,nan,nan,0,0.21227693557739258,0.6059622764587402,0.43241390585899353,-6.073629856109619,0.5961384773254395,0.5961384773254395,nan,nan,0,-0.390366792678833,-0.3452408015727997,-0.6387282609939575,-0.26483410596847534,-0.4051833897829056,-0.4051833897829056,nan,nan,0,0.035118862986564636,0.031063664704561234,-0.06987296044826508,-0.1659543216228485,0.017559431493282318,0.017559431493282318,nan,nan,0,0.23907095193862915,-0.35432732105255127,0.1922338902950287,-2.0749573707580566,-0.2804645299911499,-0.2804645299911499,nan,nan,0,1.6360516548156738,-0.07233259826898575,-0.006335761863738298,34.96343994140625,0.7680258266627789,0.7680258266627789,nan,nan,0,0.48977673053741455,0.2872215807437897,-0.22378657758235931,7.808766841888428,0.5548883676528931,0.5548883676528931,nan,nan,0,0.0671294555068016,0.5984053611755371,0.4118328094482422,-14.11832046508789,0.523564737290144,0.523564737290144,nan,nan,0,1.1420106887817383,-0.3771826922893524,-0.4067806601524353,24.28706169128418,0.36100535094738007,0.36100535094738007,nan,nan,0,-0.6879567503929138,-0.034642428159713745,0.08332647383213043,-12.466054916381836,-0.3439783751964569,-0.3439783751964569,nan,nan,0,0,0.9997196197509766,0.0024693619925528765,0.02310110069811344,0.004564780741930008,0.034325726330280304,-0.04123784974217415,0.1006302684545517,nan,nan,nan,36.832698822021484,331.3729248046875,36.832698822021484,331.3729248046875,0.0,0.15017154812812805,-0.05875718593597412,-0.042047157883644104
1782297565015830803,-0.9195270538330078,0.3930266499519348,0.4000000059604645,0.0,0.0,1,1,0.0056291865184903145,0.046040330082178116,0.010145233944058418,0.04902425780892372,0.009963346645236015,0.08203042298555374,0.2664439082145691,0.403878390789032,-0.10402584075927734,2.48844575881958,0.533221960067749,0.533221960067749,nan,nan,0,-0.08880563825368881,0.08479911088943481,-0.006509370170533657,-3.45220947265625,0.0055971816182136536,0.0055971816182136536,nan,nan,0,-0.08631415665149689,-0.2968951463699341,-0.0017025768756866455,-1.7057437896728516,-0.35315708070993423,-0.35315708070993423,nan,nan,0,0.23499196767807007,0.6096939444541931,0.3482072949409485,-4.6681694984436035,0.6074959933757782,0.6074959933757782,nan,nan,0,-0.4499155580997467,-0.34970822930336,-0.4462224245071411,-0.08554786443710327,-0.4349577724933624,-0.4349577724933624,nan,nan,0,0.025524243712425232,0.030322525650262833,-0.0066726310178637505,-0.28592661023139954,0.012762121856212616,0.012762121856212616,nan,nan,0,0.3609997630119324,-0.35277411341667175,0.09742198139429092,-0.2449706494808197,-0.2195001244544983,-0.2195001244544983,nan,nan,0,1.6569904088974,-0.07232922315597534,0.02193809114396572,31.76832389831543,0.7784952037036419,0.7784952037036419,nan,nan,0,0.5079964399337769,0.2852337658405304,-0.1451542228460312,8.059100151062012,0.5639982223510742,0.5639982223510742,nan,nan,0,0.09413132071495056,0.602476179599762,0.3923991024494171,-13.374066352844238,0.5370656698942184,0.5370656698942184,nan,nan,0,1.246171236038208,-0.38223791122436523,-0.35822761058807373,25.417356491088867,0.41308562457561493,0.41308562457561493,nan,nan,0,-0.6504570841789246,-0.03569634631276131,0.138097882270813,-12.159467697143555,-0.3252285420894623,-0.3252285420894623,nan,nan,0,0,0.9997185468673706,0.0026970466133207083,0.023032017052173615,0.0050064451061189175,0.04902425780892372,0.009963346645236015,0.08203042298555374,nan,nan,nan,49.779991149902344,315.4178466796875,49.779991149902344,315.4178466796875,0.0,0.15634317696094513,-0.04958803206682205,-0.03826795890927315
1782297565025830803,-0.8805951476097107,0.4738694131374359,0.4000000059604645,0.0,0.0,1,1,0.006227867212146521,0.04640493914484978,0.01089552789926529,0.06181350350379944,0.0610760860145092,0.07288018614053726,0.35566532611846924,0.4028603732585907,-0.0865878015756607,2.8552448749542236,0.5778326690196991,0.5778326690196991,nan,nan,0,-0.12419599294662476,0.08488429337739944,0.029338058084249496,-3.672200918197632,-0.012097995728254318,-0.012097995728254318,nan,nan,0,-0.08931712061166763,-0.2969158887863159,0.014963549561798573,-2.7290821075439453,-0.3546585626900196,-0.3546585626900196,nan,nan,0,0.2541501522064209,0.6126168966293335,0.2753850221633911,-5.748019695281982,0.6170750856399536,0.6170750856399536,nan,nan,0,-0.4977521002292633,-0.3537113666534424,-0.4230794906616211,0.12914714217185974,-0.4588760435581207,-0.4588760435581207,nan,nan,0,0.02186468243598938,0.029865117743611336,0.062040988355875015,-0.9190521240234375,0.01093234121799469,0.01093234121799469,nan,nan,0,0.4614519476890564,-0.3520500659942627,0.021307388320565224,0.6076221466064453,-0.16927403211593628,-0.16927403211593628,nan,nan,0,1.6647062301635742,-0.07212858647108078,0.044334776699543,31.567441940307617,0.782353114336729,0.782353114336729,nan,nan,0,0.5084684491157532,0.2840404212474823,-0.07990926504135132,8.406087875366211,0.5642342269420624,0.5642342269420624,nan,nan,0,0.1221705973148346,0.6062853336334229,0.35802578926086426,-12.69859790802002,0.5510853081941605,0.5510853081941605,nan,nan,0,1.2944350242614746,-0.38699033856391907,-0.32819491624832153,25.984312057495117,0.43721751868724823,0.43721751868724823,nan,nan,0,-0.6260339021682739,-0.03644517809152603,0.15934467315673828,-11.6537504196167,-0.31301695108413696,-0.31301695108413696,nan,nan,0,0,0.9997116327285767,0.0029866553377360106,0.023216888308525085,0.005374001804739237,0.06181350350379944,0.0610760860145092,0.07288018614053726,nan,nan,nan,61.26764678955078,310.49432373046875,61.26764678955078,310.49432373046875,0.0,0.16278022527694702,-0.04106814041733742,-0.033722031861543655
