timestamp_ns,phase_sin,phase_cos,cmd_linear_x,cmd_linear_y,cmd_angular_z,left_contact,right_contact,base_euler_x,base_euler_y,base_euler_z,base_ang_vel_x,base_ang_vel_y,base_ang_vel_z,action_left_hip_pitch_joint,pos_left_hip_pitch_joint,vel_left_hip_pitch_joint,effort_left_hip_pitch_joint,pos_des_raw_left_hip_pitch_joint,pos_des_lpf_left_hip_pitch_joint,tau_des_raw_left_hip_pitch_joint,tau_des_lpf_left_hip_pitch_joint,is_parallel_left_hip_pitch_joint,action_left_hip_roll_joint,pos_left_hip_roll_joint,vel_left_hip_roll_joint,effort_left_hip_roll_joint,pos_des_raw_left_hip_roll_joint,pos_des_lpf_left_hip_roll_joint,tau_des_raw_left_hip_roll_joint,tau_des_lpf_left_hip_roll_joint,is_parallel_left_hip_roll_joint,action_left_hip_yaw_joint,pos_left_hip_yaw_joint,vel_left_hip_yaw_joint,effort_left_hip_yaw_joint,pos_des_raw_left_hip_yaw_joint,pos_des_lpf_left_hip_yaw_joint,tau_des_raw_left_hip_yaw_joint,tau_des_lpf_left_hip_yaw_joint,is_parallel_left_hip_yaw_joint,action_left_knee_pitch_joint,pos_left_knee_pitch_joint,vel_left_knee_pitch_joint,effort_left_knee_pitch_joint,pos_des_raw_left_knee_pitch_joint,pos_des_lpf_left_knee_pitch_joint,tau_des_raw_left_knee_pitch_joint,tau_des_lpf_left_knee_pitch_joint,is_parallel_left_knee_pitch_joint,action_left_ankle_pitch_joint,pos_left_ankle_pitch_joint,vel_left_ankle_pitch_joint,effort_left_ankle_pitch_joint,pos_des_raw_left_ankle_pitch_joint,pos_des_lpf_left_ankle_pitch_joint,tau_des_raw_left_ankle_pitch_joint,tau_des_lpf_left_ankle_pitch_joint,is_parallel_left_ankle_pitch_joint,action_left_ankle_roll_joint,pos_left_ankle_roll_joint,vel_left_ankle_roll_joint,effort_left_ankle_roll_joint,pos_des_raw_left_ankle_roll_joint,pos_des_lpf_left_ankle_roll_joint,tau_des_raw_left_ankle_roll_joint,tau_des_lpf_left_ankle_roll_joint,is_parallel_left_ankle_roll_joint,action_right_hip_pitch_joint,pos_right_hip_pitch_joint,vel_right_hip_pitch_joint,effort_right_hip_pitch_joint,pos_des_raw_right_hip_pitch_joint,pos_des_lpf_right_hip_pitch_joint,tau_des_raw_right_hip_pitch_joint,tau_des_lpf_right_hip_pitch_joint,is_parallel_right_hip_pitch_joint,action_right_hip_roll_joint,pos_right_hip_roll_joint,vel_right_hip_roll_joint,effort_right_hip_roll_joint,pos_des_raw_right_hip_roll_joint,pos_des_lpf_right_hip_roll_joint,tau_des_raw_right_hip_roll_joint,tau_des_lpf_right_hip_roll_joint,is_parallel_right_hip_roll_joint,action_right_hip_yaw_joint,pos_right_hip_yaw_joint,vel_right_hip_yaw_joint,effort_right_hip_yaw_joint,pos_des_raw_right_hip_yaw_joint,pos_des_lpf_right_hip_yaw_joint,tau_des_raw_right_hip_yaw_joint,tau_des_lpf_right_hip_yaw_joint,is_parallel_right_hip_yaw_joint,action_right_knee_pitch_joint,pos_right_knee_pitch_joint,vel_right_knee_pitch_joint,effort_right_knee_pitch_joint,pos_des_raw_right_knee_pitch_joint,pos_des_lpf_right_knee_pitch_joint,tau_des_raw_right_knee_pitch_joint,tau_des_lpf_right_knee_pitch_joint,is_parallel_right_knee_pitch_joint,action_right_ankle_pitch_joint,pos_right_ankle_pitch_joint,vel_right_ankle_pitch_joint,effort_right_ankle_pitch_joint,pos_des_raw_right_ankle_pitch_joint,pos_des_lpf_right_ankle_pitch_joint,tau_des_raw_right_ankle_pitch_joint,tau_des_lpf_right_ankle_pitch_joint,is_parallel_right_ankle_pitch_joint,action_right_ankle_roll_joint,pos_right_ankle_roll_joint,vel_right_ankle_roll_joint,effort_right_ankle_roll_joint,pos_des_raw_right_ankle_roll_joint,pos_des_lpf_right_ankle_roll_joint,tau_des_raw_right_ankle_roll_joint,tau_des_lpf_right_ankle_roll_joint,is_parallel_right_ankle_roll_joint,clip_count,imu_quat_w,imu_quat_x,imu_quat_y,imu_quat_z,imu_gyro_x,imu_gyro_y,imu_gyro_z,imu_accel_x,imu_accel_y,imu_accel_z,left_foot_contact_force_z,right_foot_contact_force_z,left_foot_contact_force_mag,right_foot_contact_force_mag,feet_contact_force_penalty,base_lin_vel_x,base_lin_vel_y,base_lin_vel_z
1782287536683021954,0.2660350799560547,-0.9639633297920227,0.4000000059604645,0.0,0.0,1,0,-0.07096052169799805,0.022551387548446655,-0.007010936737060547,-0.0016481896163895726,0.03933950141072273,-0.03201635926961899,-0.4339097738265991,0.4022583067417145,-0.20920175313949585,-3.1711366176605225,0.18304511904716492,0.18304511904716492,nan,nan,0,-1.0862666368484497,-0.12970876693725586,-0.5755566954612732,-16.71114730834961,-0.4931333176791668,-0.4931333176791668,nan,nan,0,0.1579456478357315,-0.12518665194511414,0.05048924311995506,-7.60167932510376,-0.23102717846632004,-0.23102717846632004,nan,nan,0,-0.1195308044552803,0.5671135783195496,0.13668903708457947,-18.493667602539062,0.430234607309103,0.430234607309103,nan,nan,0,0.707240641117096,-0.3338508605957031,-0.46383529901504517,15.505817413330078,0.1436203271150589,0.1436203271150589,nan,nan,0,0.16354262828826904,-0.053390223532915115,-0.7645992636680603,8.689681053161621,0.08177131414413452,0.08177131414413452,nan,nan,0,-0.2674209177494049,-0.5181329846382141,-0.07204297930002213,-1.5981179475784302,-0.5337104648351669,-0.5337104648351669,nan,nan,0,0.660300612449646,0.21772558987140656,-0.03271277993917465,0.5063591599464417,0.28015030547976494,0.28015030547976494,nan,nan,0,-1.3853905200958252,-0.43650397658348083,-0.5210960507392883,-0.5045089721679688,-0.3826952576637268,-0.3826952576637268,nan,nan,0,0.2121930718421936,0.6777028441429138,-0.002911294111981988,0.28136131167411804,0.59609654545784,0.59609654545784,nan,nan,0,-0.06132180988788605,-0.22383901476860046,-0.1449640542268753,-0.19728761911392212,-0.2406608983874321,-0.2406608983874321,nan,nan,0,-0.12677815556526184,0.05134623497724533,-0.07365879416465759,-0.14337508380413055,-0.06338907778263092,-0.06338907778263092,nan,nan,0,0,0.999302327632904,-0.035430822521448135,0.011392629705369473,-0.003103040624409914,-0.0016481896163895726,0.03933950141072273,-0.03201635926961899,nan,nan,nan,323.2237243652344,0.0,323.2237243652344,0.0,0.0,0.2133713811635971,-0.24174270033836365,-0.050064682960510254
1782287536693021954,0.17855599522590637,-0.9839297533035278,0.4000000059604645,0.0,0.0,1,0,-0.07059049606323242,0.02284478023648262,-0.007238864898681641,0.06894539296627045,0.02673354372382164,-0.0038483128882944584,-0.5448019504547119,0.399330735206604,-0.321051687002182,-4.877309799194336,0.12759903073310852,0.12759903073310852,nan,nan,0,-0.9245767593383789,-0.13500231504440308,-0.5106343030929565,-15.682401657104492,-0.4122883789241314,-0.4122883789241314,nan,nan,0,0.255032479763031,-0.12379521876573563,0.13490012288093567,-7.886566162109375,-0.1824837625026703,-0.1824837625026703,nan,nan,0,-0.06798098236322403,0.5679316520690918,0.08397276699542999,-16.683652877807617,0.45600951835513115,0.45600951835513115,nan,nan,0,0.783670961856842,-0.3372962772846222,-0.4397321939468384,16.651275634765625,0.18183548748493195,0.18183548748493195,nan,nan,0,0.037645675241947174,-0.05890730395913124,-0.775822639465332,8.04075813293457,0.018822837620973587,0.018822837620973587,nan,nan,0,-0.16376982629299164,-0.5184517502784729,-0.01059202291071415,-1.1991660594940186,-0.4818849191069603,-0.4818849191069603,nan,nan,0,0.7961806058883667,0.21706914901733398,-0.06424171477556229,-0.0002454519271850586,0.3480903021991253,0.3480903021991253,nan,nan,0,-1.2483798265457153,-0.440273642539978,-0.2748807370662689,-0.12836791574954987,-0.3141899108886719,-0.3141899108886719,nan,nan,0,0.18312856554985046,0.6759949922561646,-0.22337326407432556,0.2111961841583252,0.5815642923116684,0.5815642923116684,nan,nan,0,0.04425334930419922,-0.221939817070961,0.2818296551704407,0.8227589130401611,-0.18787331879138947,-0.18787331879138947,nan,nan,0,-0.2709319293498993,0.045511022210121155,-0.29297369718551636,-0.5293946862220764,-0.13546596467494965,-0.13546596467494965,nan,nan,0,0,0.9993069171905518,-0.03524397313594818,0.0115426667034626,-0.0032138978131115437,0.06894539296627045,0.02673354372382164,-0.0038483128882944584,nan,nan,nan,319.41058349609375,0.0,319.41058349609375,0.0,0.0,0.2163785696029663,-0.26120203733444214,-0.05818108469247818
1782287536703021954,0.0896383747458458,-0.9959743618965149,0.4000000059604645,0.0,0.0,1,0,-0.06934928894042969,0.023066604509949684,-0.007041454315185547,0.1644275188446045,0.01988212764263153,0.04617111757397652,-0.4435824155807495,0.3954518139362335,-0.40130332112312317,-4.398290157318115,0.17820879817008972,0.17820879817008972,nan,nan,0,-0.8095573782920837,-0.13930658996105194,-0.3932209610939026,-13.364917755126953,-0.3547786884009838,-0.3547786884009838,nan,nan,0,0.4174705147743225,-0.12180968374013901,0.18038295209407806,-7.304579734802246,-0.10126474499702454,-0.10126474499702454,nan,nan,0,-0.03313712030649185,0.5684415102005005,0.06331963837146759,-16.203914642333984,0.47343144938349724,0.47343144938349724,nan,nan,0,0.6935253739356995,-0.3406471908092499,-0.433243989944458,16.676490783691406,0.13676269352436066,0.13676269352436066,nan,nan,0,-0.02946476638317108,-0.06427053362131119,-0.7330337762832642,7.771759033203125,-0.01473238319158554,-0.01473238319158554,nan,nan,0,-0.0025378279387950897,-0.5182788372039795,0.023246951401233673,-0.9730793237686157,-0.401268919929862,-0.401268919929862,nan,nan,0,1.1383297443389893,0.21682621538639069,0.01405890192836523,0.72365403175354,0.5191648714244366,0.5191648714244366,nan,nan,0,-1.0048333406448364,-0.4418615400791168,-0.03443241864442825,0.318757563829422,-0.19241666793823242,-0.19241666793823242,nan,nan,0,0.09387008845806122,0.6722466945648193,-0.4458431303501129,-0.48276710510253906,0.5369350537657738,0.5369350537657738,nan,nan,0,0.14147759974002838,-0.22091852128505707,0.18607160449028015,0.6644065380096436,-0.13926119357347488,-0.13926119357347488,nan,nan,0,-0.4569303095340729,0.03627362847328186,-0.47649621963500977,-0.8648338317871094,-0.22846515476703644,-0.22846515476703644,nan,nan,0,0,0.9993276000022888,-0.03462454304099083,0.011648093350231647,-0.003118644468486309,0.1644275188446045,0.01988212764263153,0.04617111757397652,nan,nan,nan,309.73358154296875,0.0,309.73358154296875,0.0,0.0,0.21955056488513947,-0.27927157282829285,-0.07007653266191483
1782287536713021954,-9.775241096576792e-07,-1.0,0.4000000059604645,0.0,0.0,1,0,-0.06710672378540039,0.023081427440047264,-0.006366252899169922,0.26594477891921997,-0.01891561597585678,0.09349364787340164,-0.2756250500679016,0.3904412090778351,-0.5462691187858582,-5.845627307891846,0.26218748092651367,0.26218748092651367,nan,nan,0,-0.7152765989303589,-0.14245165884494781,-0.2774927616119385,-12.541900634765625,-0.3076382987201214,-0.3076382987201214,nan,nan,0,0.4811793565750122,-0.11910545080900192,0.27567702531814575,-7.236012935638428,-0.06941032409667969,-0.06941032409667969,nan,nan,0,-0.056634970009326935,0.5688762664794922,0.059420228004455566,-13.593597412109375,0.4616825245320797,0.4616825245320797,nan,nan,0,0.5148430466651917,-0.34407734870910645,-0.4240041971206665,18.135589599609375,0.04742152988910675,0.04742152988910675,nan,nan,0,-0.1541745662689209,-0.069461390376091,-0.7015919089317322,6.045834064483643,-0.07708728313446045,-0.07708728313446045,nan,nan,0,0.19906514883041382,-0.5179985761642456,0.06289365887641907,-0.5995613932609558,-0.30046743154525757,-0.30046743154525757,nan,nan,0,1.606231451034546,0.21777787804603577,0.17369882762432098,1.5733920335769653,0.7531157247722149,0.7531157247722149,nan,nan,0,-0.7677799463272095,-0.44169771671295166,0.10413038730621338,0.5031078457832336,-0.07388997077941895,-0.07388997077941895,nan,nan,0,-0.05759885907173157,0.6679946780204773,-0.4210299253463745,0.04230774939060211,0.4612005800008774,0.4612005800008774,nan,nan,0,0.2236437052488327,-0.2192361056804657,0.275684654712677,0.8271396160125732,-0.09817814081907272,-0.09817814081907272,nan,nan,0,-0.7152628302574158,0.019332315772771835,-0.8550056219100952,-1.5451432466506958,-0.3576314151287079,-0.3576314151287079,nan,nan,0,0,0.9993667602539062,-0.03350786864757538,0.011640678159892559,-0.002793890656903386,0.26594477891921997,-0.01891561597585678,0.09349364787340164,nan,nan,nan,301.7191467285156,0.0,301.7191467285156,0.0,0.0,0.22120214998722076,-0.2972584366798401,-0.0842423066496849
1782287536723021954,-0.08964031934738159,-0.9959741830825806,0.4000000059604645,0.0,0.0,1,0,-0.06398677825927734,0.022965827956795692,-0.0052890777587890625,0.34639498591423035,-0.02044111303985119,0.1251947283744812,-0.13147367537021637,0.3848668932914734,-0.561548113822937,-3.8754680156707764,0.3342631682753563,0.3342631682753563,nan,nan,0,-0.6601107120513916,-0.1446034163236618,-0.17942404747009277,-13.198266983032227,-0.28005535528063774,-0.28005535528063774,nan,nan,0,0.6273377537727356,-0.11611150205135345,0.28206419944763184,-5.982671737670898,0.003668874502182007,0.003668874502182007,nan,nan,0,-0.008889980614185333,0.5695317983627319,0.07818177342414856,-15.074753761291504,0.4855550192296505,0.4855550192296505,nan,nan,0,0.3281436562538147,-0.34767353534698486,-0.37159785628318787,18.022218704223633,-0.045928165316581726,-0.045928165316581726,nan,nan,0,-0.17055600881576538,-0.07458463311195374,-0.6206672787666321,6.210783958435059,-0.08527800440788269,-0.08527800440788269,nan,nan,0,0.4881153702735901,-0.517218291759491,0.09252607077360153,-1.085595726966858,-0.15594232082366943,-0.15594232082366943,nan,nan,0,2.1476147174835205,0.21933993697166443,0.19214339554309845,1.1355195045471191,1.0238073579967022,1.0238073579967022,nan,nan,0,-0.49428343772888184,-0.4394471347332001,0.33759838342666626,0.4244881868362427,0.06285828351974487,0.06285828351974487,nan,nan,0,-0.1938464641571045,0.6623077988624573,-0.6195210218429565,-0.31391462683677673,0.3930767774581909,0.3930767774581909,nan,nan,0,0.3396255075931549,-0.22032329440116882,-0.08446778357028961,-0.10607892274856567,-0.04018723964691162,-0.04018723964691162,nan,nan,0,-0.9600449800491333,0.0011668874649330974,-0.9232290983200073,-1.6249866485595703,-0.48002249002456665,-0.48002249002456665,nan,nan,0,0,0.9994198679924011,-0.031955406069755554,0.011561335995793343,-0.002275813603773713,0.34639498591423035,-0.02044111303985119,0.1251947283744812,nan,nan,nan,306.6385192871094,0.0,306.6385192871094,0.0,0.0,0.2238258719444275,-0.3168712556362152,-0.09782328456640244
1782287536733021954,-0.17855793237686157,-0.9839293956756592,0.4000000059604645,0.0,0.0,1,0,-0.05977344512939453,0.02254413813352585,-0.003963947296142578,0.47101709246635437,-0.07261550426483154,0.1513117253780365,0.1511632204055786,0.37775519490242004,-0.7924957871437073,-4.650014877319336,0.4755816161632538,0.4755816161632538,nan,nan,0,-0.6762288212776184,-0.1455654352903366,-0.04350167140364647,-10.335442543029785,-0.28811440989375114,-0.28811440989375114,nan,nan,0,0.6271924376487732,-0.11186610907316208,0.466290682554245,-5.14209508895874,0.0035962164402008057,0.0035962164402008057,nan,nan,0,-0.015065662562847137,0.5700725317001343,0.05078426003456116,-12.24089527130127,0.4824671782553196,0.4824671782553196,nan,nan,0,0.060726284980773926,-0.35143202543258667,-0.39424583315849304,19.501935958862305,-0.1796368509531021,-0.1796368509531021,nan,nan,0,-0.22780486941337585,-0.07939732819795609,-0.5955958962440491,4.136238098144531,-0.11390243470668793,-0.11390243470668793,nan,nan,0,0.7653366923332214,-0.5162937641143799,0.15513718128204346,0.2815817892551422,-0.01733165979385376,-0.01733165979385376,nan,nan,0,2.657101631164551,0.2221374660730362,0.39524587988853455,3.159836769104004,1.2785508148372173,1.2785508148372173,nan,nan,0,-0.24006104469299316,-0.43454161286354065,0.6450158357620239,1.4103974103927612,0.1899694800376892,0.1899694800376892,nan,nan,0,-0.41224178671836853,0.6553104519844055,-0.691224217414856,-0.3150506913661957,0.2838791161775589,0.2838791161775589,nan,nan,0,0.31428730487823486,-0.2160332351922989,0.22206296026706696,0.301349401473999,-0.05285634100437164,-0.05285634100437164,nan,nan,0,-1.1786177158355713,-0.028882695361971855,-1.5303317308425903,-2.7632148265838623,-0.5893088579177856,-0.5893088579177856,nan,nan,0,0,0.9994887113571167,-0.029858052730560303,0.011325997300446033,-0.0016441865591332316,0.47101709246635437,-0.07261550426483154,0.1513117253780365,nan,nan,nan,290.4921569824219,0.0,290.4921569824219,0.0,0.0,0.22527578473091125,-0.3359581530094147,-0.11297690123319626
1782287536743021954,-0.2660379111766815,-0.9639625549316406,0.4000000059604645,0.0,0.0,1,0,-0.05414009094238281,0.02156614139676094,-0.0022568702697753906,0.627015233039856,-0.1381724327802658,0.1973976343870163,0.3795101046562195,0.36866825819015503,-0.9822357296943665,-2.282351016998291,0.5897550582885742,0.5897550582885742,nan,nan,0,-0.9456629157066345,-0.1448640078306198,0.15516451001167297,-8.9696683883667,-0.4228314571082592,-0.4228314571082592,nan,nan,0,0.6110944151878357,-0.10607489943504333,0.5928102135658264,-3.020258903503418,-0.004452794790267944,-0.004452794790267944,nan,nan,0,-0.01691310852766037,0.5708723664283752,0.10733276605606079,-11.075536727905273,0.481543455272913,0.481543455272913,nan,nan,0,-0.08120845258235931,-0.35566645860671997,-0.4284432530403137,18.08401870727539,-0.25060421973466873,-0.25060421973466873,nan,nan,0,-0.2290782630443573,-0.08383209258317947,-0.5097410678863525,3.095630168914795,-0.11453913152217865,-0.11453913152217865,nan,nan,0,0.9216561913490295,-0.514436662197113,0.2953978478908539,2.2436773777008057,0.06082808971405029,0.06082808971405029,nan,nan,0,3.126858711242676,0.22775886952877045,0.7816219925880432,8.66672134399414,1.5134293548762798,1.5134293548762798,nan,nan,0,-0.11595333367586136,-0.4252130091190338,1.1708496809005737,3.236980676651001,0.2520233355462551,0.2520233355462551,nan,nan,0,-0.6415143609046936,0.645991861820221,-0.9365526437759399,-1.4209657907485962,0.16924282908439636,0.16924282908439636,nan,nan,0,0.26288077235221863,-0.20220117270946503,0.9207888841629028,1.1413458585739136,-0.07855960726737976,-0.07855960726737976,nan,nan,0,-1.333920955657959,-0.07233884930610657,-2.223010540008545,-4.117095470428467,-0.6669604778289795,-0.6669604778289795,nan,nan,0,0,0.9995751976966858,-0.027052899822592735,0.010809444822371006,-0.0008360948413610458,0.627015233039856,-0.1381724327802658,0.1973976343870163,nan,nan,nan,262.0564270019531,0.0,262.0564270019531,0.0,0.0,0.22643348574638367,-0.35193198919296265,-0.13737332820892334
1782287536753021954,-0.35137587785720825,-0.9362344741821289,0.4000000059604645,0.0,0.0,1,0,-0.04676198959350586,0.019960029050707817,0.0003196900070179254,0.8196357488632202,-0.20264120399951935,0.3082060217857361,0.5223564505577087,0.35799407958984375,-1.1124656200408936,0.9553742408752441,0.6611782312393188,0.6611782312393188,nan,nan,0,-1.2327427864074707,-0.14181852340698242,0.4372919201850891,-8.03559684753418,-0.5663713924586773,-0.5663713924586773,nan,nan,0,0.6901203989982605,-0.09944909065961838,0.6487109661102295,-2.4449093341827393,0.03506019711494446,0.03506019711494446,nan,nan,0,-0.048039503395557404,0.5725181102752686,0.22052305936813354,-13.607680320739746,0.46598025783896446,0.46598025783896446,nan,nan,0,-0.09204593300819397,-0.36061954498291016,-0.5170961618423462,15.210702896118164,-0.25602295994758606,-0.25602295994758606,nan,nan,0,-0.1664470136165619,-0.08769288659095764,-0.3306695222854614,0.9323246479034424,-0.08322350680828094,-0.08322350680828094,nan,nan,0,0.8350397944450378,-0.5097782015800476,0.6097862720489502,4.181650638580322,0.017519891262054443,0.017519891262054443,nan,nan,0,3.1579763889312744,0.2384810745716095,1.4241232872009277,15.718807220458984,1.5289881937205791,1.5289881937205791,nan,nan,0,-0.19582289457321167,-0.41214534640312195,1.6336641311645508,5.07596492767334,0.21208855509757996,0.21208855509757996,nan,nan,0,-0.7637860178947449,0.6322329640388489,-1.4000264406204224,-3.019230365753174,0.10810700058937073,0.10810700058937073,nan,nan,0,0.12538757920265198,-0.18136994540691376,1.3382353782653809,1.6237131357192993,-0.14730620384216309,-0.14730620384216309,nan,nan,0,-1.3528673648834229,-0.13446319103240967,-3.1722917556762695,-5.943458557128906,-0.6764336824417114,-0.6764336824417114,nan,nan,0,0,0.9996768832206726,-0.023379210382699966,0.009973383508622646,0.00039311000728048384,0.8196357488632202,-0.20264120399951935,0.3082060217857361,nan,nan,nan,243.23622131347656,0.0,243.23622131347656,0.0,0.0,0.22934068739414215,-0.366227388381958,-0.16713060438632965
1782287536763021954,-0.43388479948043823,-0.9009683728218079,0.4000000059604645,0.0,0.0,1,1,-0.03782987594604492,0.017959369346499443,0.0034573276061564684,0.9061333537101746,-0.16967368125915527,0.24825789034366608,0.5569975972175598,0.34592440724372864,-1.1803721189498901,3.774566411972046,0.6784988045692444,0.6784988045692444,nan,nan,0,-1.4243321418762207,-0.1365109235048294,0.5657007694244385,-7.6101179122924805,-0.6621660701930523,-0.6621660701930523,nan,nan,0,0.8054333925247192,-0.09188714623451233,0.7734301090240479,-0.6037554740905762,0.09271669387817383,0.09271669387817383,nan,nan,0,-0.08496617525815964,0.574459433555603,0.13407257199287415,-10.67611312866211,0.44751692190766335,0.44751692190766335,nan,nan,0,-0.04318445920944214,-0.36597374081611633,-0.4755774140357971,12.096946716308594,-0.23159222304821014,-0.23159222304821014,nan,nan,0,-0.11723629385232925,-0.09059514105319977,-0.2723938226699829,0.7252980470657349,-0.05861814692616463,-0.05861814692616463,nan,nan,0,0.5922228097915649,-0.5027706623077393,0.590084969997406,8.20327377319336,-0.103888601064682,-0.103888601064682,nan,nan,0,2.9359583854675293,0.2533484101295471,1.1557594537734985,26.224546432495117,1.4179791919887066,1.4179791919887066,nan,nan,0,-0.3427978754043579,-0.40451377630233765,-0.07585418224334717,15.883452415466309,0.13860106468200684,0.13860106468200684,nan,nan,0,-0.8653762340545654,0.6295559406280518,0.6019220352172852,-28.63588523864746,0.05731189250946045,0.05731189250946045,nan,nan,0,0.03158727288246155,-0.20658326148986816,-3.4991908073425293,8.272941589355469,-0.1942063570022583,-0.1942063570022583,nan,nan,0,-1.2790242433547974,-0.13361471891403198,2.53950572013855,-13.662337303161621,-0.6395121216773987,-0.6395121216773987,nan,nan,0,0,0.9997789859771729,-0.018928512930870056,0.008945250883698463,0.0018981213215738535,0.9061333537101746,-0.16967368125915527,0.24825789034366608,nan,nan,nan,147.9520721435547,213.70811462402344,147.9520721435547,213.70811462402344,0.0,0.22601237893104553,-0.36908698081970215,-0.1712316870689392
1782287536773021954,-0.5128994584083557,-0.8584486842155457,0.4000000059604645,0.0,0.0,1,1,-0.028562068939208984,0.016851110383868217,0.005461995489895344,0.9336156249046326,-0.07619266211986542,0.15564346313476562,0.5363182425498962,0.3349210023880005,-1.042070984840393,7.6279730796813965,0.6681591272354126,0.6681591272354126,nan,nan,0,-1.3472563028335571,-0.13037845492362976,0.6610009670257568,-8.374517440795898,-0.6236281506717205,-0.6236281506717205,nan,nan,0,0.7565309405326843,-0.08395816385746002,0.7364376783370972,-0.49823176860809326,0.06826546788215637,0.06826546788215637,nan,nan,0,-0.08295203000307083,0.5756377577781677,0.0791403278708458,-10.966801643371582,0.44852399453520775,0.44852399453520775,nan,nan,0,0.01575973629951477,-0.36956435441970825,-0.191717267036438,7.3918890953063965,-0.2021201252937317,-0.2021201252937317,nan,nan,0,-0.12007249891757965,-0.09326620399951935,-0.3135618269443512,-0.1295282542705536,-0.060036249458789825,-0.060036249458789825,nan,nan,0,0.5979176759719849,-0.4981260597705841,0.29679790139198303,13.254613876342773,-0.10104116797447205,-0.10104116797447205,nan,nan,0,2.8866143226623535,0.2666715681552887,1.4969033002853394,36.14884567260742,1.3933071605861187,1.3933071605861187,nan,nan,0,-0.49586397409439087,-0.40450388193130493,-0.3132456839084625,20.267866134643555,0.062068015336990356,0.062068015336990356,nan,nan,0,-0.8047143220901489,0.6327173113822937,0.6829447746276855,-30.428096771240234,0.0876428484916687,0.0876428484916687,nan,nan,0,-0.04646681249141693,-0.2050924301147461,-2.244941473007202,1.5881198644638062,-0.23323339968919754,-0.23323339968919754,nan,nan,0,-1.3069143295288086,-0.084029920399189,4.723435401916504,-19.266897201538086,-0.6534571647644043,-0.6534571647644043,nan,nan,0,0,0.9998584985733032,-0.014303061179816723,0.00838556606322527,0.0028509392868727446,0.9336156249046326,-0.07619266211986542,0.15564346313476562,nan,nan,nan,83.62677764892578,463.8851623535156,83.62677764892578,463.8851623535156,0.0,0.227199524641037,-0.34975549578666687,-0.14795692265033722
1782287536783021954,-0.5877862572669983,-0.8090162873268127,0.4000000059604645,0.0,0.0,1,1,-0.019478797912597656,0.016782646998763084,0.00650931429117918,0.9151349663734436,0.047608472406864166,0.051025502383708954,0.4757150113582611,0.3271322250366211,-0.6474550366401672,10.093489646911621,0.637857511639595,0.637857511639595,nan,nan,0,-1.231528401374817,-0.12466105818748474,0.5552681684494019,-13.65034008026123,-0.5657641999423504,-0.5657641999423504,nan,nan,0,0.9025699496269226,-0.076570525765419,0.7279902100563049,-1.1212422847747803,0.1412849724292755,0.1412849724292755,nan,nan,0,-0.19424080848693848,0.5770813822746277,0.0857323408126831,-11.513296127319336,0.3928796052932739,0.3928796052932739,nan,nan,0,-0.0005499273538589478,-0.37009790539741516,0.06898405402898788,3.552696704864502,-0.21027495712041855,-0.21027495712041855,nan,nan,0,-0.12317236512899399,-0.09634548425674438,-0.32810166478157043,-0.062013715505599976,-0.061586182564496994,-0.061586182564496994,nan,nan,0,0.430575430393219,-0.49096381664276123,0.6424897313117981,13.748523712158203,-0.18471229076385498,-0.18471229076385498,nan,nan,0,2.556689500808716,0.27953746914863586,1.3850340843200684,45.817466735839844,1.2283447496592999,1.2283447496592999,nan,nan,0,-0.776552677154541,-0.40611305832862854,-0.1511896848678589,24.13937759399414,-0.07827633619308472,-0.07827633619308472,nan,nan,0,-0.7834041714668274,0.633465588092804,-0.9050437211990356,-43.388885498046875,0.09829792380332947,0.09829792380332947,nan,nan,0,-0.12151417136192322,-0.224131241440773,6.832245826721191,7.930419921875,-0.2707570791244507,-0.2707570791244507,nan,nan,0,-1.2362384796142578,-0.022161003202199936,8.472126007080078,-23.35385513305664,-0.6181192398071289,-0.6181192398071289,nan,nan,0,0,0.999911904335022,-0.009766168892383575,0.008359084837138653,0.003336106427013874,0.9151349663734436,0.047608472406864166,0.051025502383708954,nan,nan,nan,44.320037841796875,569.2907104492188,44.320037841796875,569.2907104492188,0.0,0.2297697216272354,-0.33260563015937805,-0.12424885481595993
1782287536793021954,-0.6579396724700928,-0.7530706524848938,0.4000000059604645,0.0,0.0,1,1,-0.010721206665039062,0.018116984516382217,0.006223276257514954,0.8692255616188049,0.197967067360878,-0.07559002935886383,0.47141212224960327,0.3240504562854767,-0.05117037147283554,10.681228637695312,0.6357060670852661,0.6357060670852661,nan,nan,0,-1.102521300315857,-0.12229329347610474,0.07329680770635605,-18.1573486328125,-0.5012606494128704,-0.5012606494128704,nan,nan,0,0.856468141078949,-0.06672509014606476,1.059546709060669,-1.517585039138794,0.1182340681552887,0.1182340681552887,nan,nan,0,-0.20886263251304626,0.5770460963249207,-0.08633731305599213,-10.416655540466309,0.38556869328022003,0.38556869328022003,nan,nan,0,0.03836850821971893,-0.36913493275642395,0.31586045026779175,3.1687002182006836,-0.1908157393336296,-0.1908157393336296,nan,nan,0,-0.17933043837547302,-0.09992572665214539,-0.05599882826209068,0.08212506771087646,-0.08966521918773651,-0.08966521918773651,nan,nan,0,0.6674379110336304,-0.48374196887016296,0.7263352274894714,12.501852989196777,-0.06628105044364929,-0.06628105044364929,nan,nan,0,2.4861879348754883,0.2889596223831177,0.8981680274009705,47.06316375732422,1.193093966692686,1.193093966692686,nan,nan,0,-0.7843102216720581,-0.4076360762119293,-0.08364386111497879,22.850963592529297,-0.08215510845184326,-0.08215510845184326,nan,nan,0,-0.7016579508781433,0.6285292506217957,-0.7748178243637085,-45.733917236328125,0.1391710340976715,0.1391710340976715,nan,nan,0,0.10938099026679993,-0.23903974890708923,0.2562854290008545,5.939962863922119,-0.1553094983100891,-0.1553094983100891,nan,nan,0,-1.2222497463226318,0.026802759617567062,7.049266815185547,-25.37082862854004,-0.6111248731613159,-0.6111248731613159,nan,nan,0,0,0.9999396204948425,-0.005388469435274601,0.009041515178978443,0.0031600177753716707,0.8692255616188049,0.197967067360878,-0.07559002935886383,nan,nan,nan,33.60529708862305,470.81005859375,33.60529708862305,470.81005859375,0.0,0.23198561370372772,-0.3244135081768036,-0.12109021097421646
1782287536803021954,-0.7227957844734192,-0.6910617351531982,0.4000000059604645,0.0,0.0,1,1,-0.0026235580444335938,0.0208705123513937,0.004696881864219904,0.7784082293510437,0.34659940004348755,-0.21148759126663208,0.6277948021888733,0.32605716586112976,0.41768819093704224,8.956579208374023,0.7138974070549011,0.7138974070549011,nan,nan,0,-1.0287163257598877,-0.1252996176481247,-0.49117064476013184,-19.87783432006836,-0.4643581621348858,-0.4643581621348858,nan,nan,0,0.8664942383766174,-0.05219186842441559,1.511208415031433,-1.8439054489135742,0.12324711680412292,0.12324711680412292,nan,nan,0,-0.25870460271835327,0.5751374959945679,-0.23950780928134918,-10.185296058654785,0.36064770817756653,0.36064770817756653,nan,nan,0,0.04938763380050659,-0.36664044857025146,0.39504551887512207,3.9091153144836426,-0.18530617654323578,-0.18530617654323578,nan,nan,0,-0.22539269924163818,-0.10368737578392029,-0.47043555974960327,2.2436933517456055,-0.11269634962081909,-0.11269634962081909,nan,nan,0,0.8395168781280518,-0.47811612486839294,0.22930902242660522,9.32038688659668,0.0197584331035614,0.0197584331035614,nan,nan,0,2.628638744354248,0.29682379961013794,0.7078407406806946,42.17200469970703,1.264319371432066,1.264319371432066,nan,nan,0,-0.8344903588294983,-0.40777403116226196,0.14557603001594543,21.07107162475586,-0.10724517703056335,-0.10724517703056335,nan,nan,0,-0.6511113047599792,0.619960606098175,-0.7285395860671997,-48.84939956665039,0.16444435715675354,0.16444435715675354,nan,nan,0,0.1501668393611908,-0.23398686945438385,0.48081278800964355,2.776623249053955,-0.13491657376289368,-0.13491657376289368,nan,nan,0,-1.1988191604614258,0.09314502030611038,6.115169048309326,-28.014951705932617,-0.5994095802307129,-0.5994095802307129,nan,nan,0,0,0.9999419450759888,-0.001336282934062183,0.010431948117911816,0.0023619981948286295,0.7784082293510437,0.34659940004348755,-0.21148759126663208,nan,nan,nan,40.942588806152344,552.430908203125,40.942588806152344,552.430908203125,0.0,0.23614884912967682,-0.3095603883266449,-0.10346293449401855
1782287536813021954,-0.7818323373794556,-0.6234887838363647,0.4000000059604645,0.0,0.0,1,1,0.0014799231430515647,0.02324853651225567,0.004102437756955624,0.29134678840637207,0.20336459577083588,0.02136390097439289,0.6183896064758301,0.3307929039001465,0.6215720772743225,7.868839740753174,0.7091948091983795,0.7091948091983795,nan,nan,0,-0.8448395133018494,-0.1368240863084793,-1.37344229221344,-15.190827369689941,-0.3724197559058666,-0.3724197559058666,nan,nan,0,0.8308323621749878,-0.03865882009267807,1.1383066177368164,-1.653773546218872,0.1054161787033081,0.1054161787033081,nan,nan,0,-0.20901703834533691,0.5707796812057495,-0.44031384587287903,-7.503792762756348,0.3854914903640747,0.3854914903640747,nan,nan,0,0.02724398672580719,-0.3530578911304474,1.4320549964904785,3.8445472717285156,-0.19637800008058548,-0.19637800008058548,nan,nan,0,-0.26933780312538147,-0.10966519266366959,0.148670494556427,2.213595151901245,-0.13466890156269073,-0.13466890156269073,nan,nan,0,1.1325557231903076,-0.4848533570766449,0.157325878739357,10.64279556274414,0.16627785563468933,0.16627785563468933,nan,nan,0,2.704469680786133,0.2994658946990967,0.02470322884619236,42.8422737121582,1.3022348396480083,1.3022348396480083,nan,nan,0,-0.6674800515174866,-0.40111735463142395,-0.3096974492073059,17.67620277404785,-0.023740023374557495,-0.023740023374557495,nan,nan,0,-0.6066299080848694,0.6256633400917053,0.16728849709033966,-55.44094467163086,0.18668505549430847,0.18668505549430847,nan,nan,0,0.31703513860702515,-0.24043039977550507,-0.848402738571167,1.2144474983215332,-0.0514824241399765,-0.0514824241399765,nan,nan,0,-1.2703028917312622,0.092917300760746,-1.309180736541748,-25.461997985839844,-0.6351514458656311,-0.6351514458656311,nan,nan,0,0,0.9999300837516785,0.0007160665700212121,0.011625496670603752,0.0020424770191311836,0.29134678840637207,0.20336459577083588,0.02136390097439289,nan,nan,nan,28.93110466003418,541.0296020507812,28.93110466003418,541.0296020507812,0.0,0.2334737777709961,-0.2519606351852417,0.058449625968933105
1782287536823021954,-0.8345740437507629,-0.5508958697319031,0.4000000059604645,0.0,0.0,1,1,0.004046496469527483,0.025366749614477158,0.004254770930856466,0.24428972601890564,0.2540562152862549,0.0011538778198882937,0.759688675403595,0.3358194828033447,0.6603450179100037,6.69893217086792,0.779844343662262,0.779844343662262,nan,nan,0,-0.9746974110603333,-0.15190523862838745,-1.5273131132125854,-11.748749732971191,-0.43734870478510857,-0.43734870478510857,nan,nan,0,0.9670714735984802,-0.02443067356944084,1.322658896446228,-0.4213462471961975,0.17353573441505432,0.17353573441505432,nan,nan,0,-0.24167099595069885,0.5618583559989929,-0.9812816977500916,-6.554188251495361,0.36916451156139374,0.36916451156139374,nan,nan,0,-0.09010584652423859,-0.33645591139793396,1.515515923500061,2.9071948528289795,-0.25505291670560837,-0.25505291670560837,nan,nan,0,-0.26590561866760254,-0.11292663961648941,0.024578630924224854,1.2267704010009766,-0.13295280933380127,-0.13295280933380127,nan,nan,0,0.9278967380523682,-0.47757819294929504,0.6509637236595154,6.428055763244629,0.0639483630657196,0.0639483630657196,nan,nan,0,3.0715291500091553,0.2986489534378052,-0.13260141015052795,38.332244873046875,1.4857645742595196,1.4857645742595196,nan,nan,0,-0.37756311893463135,-0.40774431824684143,-0.7342530488967896,14.68733024597168,0.12121844291687012,0.12121844291687012,nan,nan,0,-0.8164427876472473,0.6222873330116272,-0.34870389103889465,-48.644100189208984,0.0817786157131195,0.0817786157131195,nan,nan,0,-0.03998735547065735,-0.2437814474105835,-0.585300087928772,-0.1355496048927307,-0.22999367117881775,-0.22999367117881775,nan,nan,0,-1.2704620361328125,0.0928935632109642,-0.8395771980285645,-24.325300216674805,-0.6352310180664062,-0.6352310180664062,nan,nan,0,0,0.9999153017997742,0.0019960978534072638,0.01268728356808424,0.0021015473175793886,0.24428972601890564,0.2540562152862549,0.0011538778198882937,nan,nan,nan,23.783300399780273,386.48077392578125,23.783300399780273,386.48077392578125,0.0,0.24112996459007263,-0.22989162802696228,0.07774541527032852
1782287536833021954,-0.8805962204933167,-0.47386741638183594,0.4000000059604645,0.0,0.0,1,1,0.006421766243875027,0.02801184356212616,0.004316884092986584,0.23983913660049438,0.2820987403392792,-0.005464077461510897,0.6350460052490234,0.34323814511299133,0.8305652141571045,5.822140693664551,0.7175230085849762,0.7175230085849762,nan,nan,0,-0.7931409478187561,-0.1669352501630783,-1.4547772407531738,-8.75830078125,-0.34657047316432,-0.34657047316432,nan,nan,0,0.9703194499015808,-0.013127341866493225,1.020362377166748,-0.4875227212905884,0.17515972256660461,0.17515972256660461,nan,nan,0,-0.08735059946775436,0.5511458516120911,-1.0919079780578613,-5.552979946136475,0.446324709802866,0.446324709802866,nan,nan,0,0.07762037217617035,-0.315387487411499,1.8244192600250244,2.7935292720794678,-0.1711898073554039,-0.1711898073554039,nan,nan,0,-0.2740245759487152,-0.11914406716823578,0.06222674250602722,0.5076713562011719,-0.1370122879743576,-0.1370122879743576,nan,nan,0,1.14015793800354,-0.4694301187992096,0.7105094790458679,9.546260833740234,0.17007896304130554,0.17007896304130554,nan,nan,0,3.351442337036133,0.29713037610054016,-0.15513233840465546,37.0794792175293,1.6257211677730083,1.6257211677730083,nan,nan,0,-0.5017585754394531,-0.41524261236190796,-0.7819835543632507,15.028877258300781,0.05912071466445923,0.05912071466445923,nan,nan,0,-0.7635422348976135,0.6166408061981201,-0.5173950791358948,-42.178550720214844,0.1082288920879364,0.1082288920879364,nan,nan,0,0.04505497217178345,-0.24576814472675323,-0.431285560131073,3.9080610275268555,-0.18747250735759735,-0.18747250735759735,nan,nan,0,-1.284619927406311,0.09319865703582764,-0.7967059016227722,-24.101533889770508,-0.6423099637031555,-0.6423099637031555,nan,nan,0,0,0.9998946189880371,0.0031803257297724485,0.014012287370860577,0.00211324798874557,0.23983913660049438,0.2820987403392792,-0.005464077461510897,nan,nan,nan,11.451580047607422,376.9290771484375,11.451580047607422,376.9290771484375,0.0,0.24369417130947113,-0.20500317215919495,0.08754459768533707
1782287536843021954,-0.9195279479026794,-0.39302459359169006,0.4000000059604645,0.0,0.0,0,1,0.008864067494869232,0.030731797218322754,0.004616620950400829,0.25102439522743225,0.2733159363269806,0.04076598584651947,0.6186524629592896,0.35263845324516296,1.0793187618255615,7.173475742340088,0.7093262374401093,0.7093262374401093,nan,nan,0,-0.8546707034111023,-0.1813282072544098,-1.405234694480896,-6.856032371520996,-0.3773353509604931,-0.3773353509604931,nan,nan,0,0.9203484654426575,-0.0044612642377614975,0.7846029996871948,0.4318475127220154,0.15017423033714294,0.15017423033714294,nan,nan,0,-0.05277989059686661,0.5383983254432678,-1.3321068286895752,-4.255270004272461,0.46361006423830986,0.46361006423830986,nan,nan,0,0.07779668271541595,-0.2921014428138733,1.9753265380859375,2.028353452682495,-0.1711016520857811,-0.1711016520857811,nan,nan,0,-0.2625378966331482,-0.12416788190603256,0.2743302285671234,-0.1334453523159027,-0.1312689483165741,-0.1312689483165741,nan,nan,0,1.1246440410614014,-0.46075135469436646,0.7633004188537598,11.72762393951416,0.1623220145702362,0.1623220145702362,nan,nan,0,3.2127485275268555,0.295938104391098,-0.09499276429414749,39.815860748291016,1.5563742630183697,1.5563742630183697,nan,nan,0,-0.5298259258270264,-0.42329686880111694,-0.832741916179657,14.60562801361084,0.04508703947067261,0.04508703947067261,nan,nan,0,-0.7381910681724548,0.6100891828536987,-0.5636054873466492,-38.45975112915039,0.12090447545051575,0.12090447545051575,nan,nan,0,0.15497948229312897,-0.24703429639339447,-0.3801792860031128,4.628300666809082,-0.1325102522969246,-0.1325102522969246,nan,nan,0,-1.2511937618255615,0.0938928872346878,-0.7963204383850098,-23.71202278137207,-0.6255968809127808,-0.6255968809127808,nan,nan,0,0,0.9998695850372314,0.004396016243845224,0.015375331975519657,0.0022399139124900103,0.25102439522743225,0.2733159363269806,0.04076598584651947,nan,nan,nan,0.11462975293397903,365.3825988769531,0.11462975293397903,365.3825988769531,0.0,0.24427829682826996,-0.1807708740234375,0.08914180099964142
1782287536853021954,-0.9510566592216492,-0.30901649594306946,0.4000000059604645,0.0,0.0,0,1,0.011716493405401707,0.033115267753601074,0.005169983953237534,0.3087203800678253,0.21427282691001892,0.04618750512599945,0.6412346363067627,0.3645135760307312,1.2314183712005615,6.144751071929932,0.7206173241138458,0.7206173241138458,nan,nan,0,-0.7680404782295227,-0.19425742328166962,-1.203974723815918,-3.2265937328338623,-0.3340202383697033,-0.3340202383697033,nan,nan,0,0.8345137238502502,0.001288599451072514,0.543087363243103,0.7351208329200745,0.10725685954093933,0.10725685954093933,nan,nan,0,-0.0396355465054512,0.5259531736373901,-1.1664167642593384,-1.9520556926727295,0.47018223628401756,0.47018223628401756,nan,nan,0,0.043160662055015564,-0.2741307318210602,1.1948386430740356,1.4287137985229492,-0.1884196624159813,-0.1884196624159813,nan,nan,0,-0.2744419276714325,-0.12646789848804474,0.0530942901968956,0.26398390531539917,-0.13722096383571625,-0.13722096383571625,nan,nan,0,1.075215220451355,-0.45225390791893005,0.7678208947181702,15.92982292175293,0.137607604265213,0.137607604265213,nan,nan,0,3.223787307739258,0.29607993364334106,0.07732357829809189,39.312255859375,1.5618936531245708,1.5618936531245708,nan,nan,0,-0.4937950372695923,-0.4309893250465393,-0.8106542825698853,17.756671905517578,0.06310248374938965,0.06310248374938965,nan,nan,0,-0.7515068650245667,0.6038663983345032,-0.5151406526565552,-36.46403121948242,0.11424657702445984,0.11424657702445984,nan,nan,0,0.11659418046474457,-0.24802881479263306,-0.36416861414909363,7.642953395843506,-0.1517029032111168,-0.1517029032111168,nan,nan,0,-1.2827670574188232,0.09521054476499557,-0.7876672148704529,-24.95067596435547,-0.6413835287094116,-0.6413835287094116,nan,nan,0,0,0.9998427033424377,0.005814592353999615,0.01657167635858059,0.0024875972885638475,0.3087203800678253,0.21427282691001892,0.04618750512599945,nan,nan,nan,0.0,357.7520446777344,0.0,357.7520446777344,0.0,0.24158339202404022,-0.15366266667842865,0.08823787420988083
1782287536863021954,-0.9749282598495483,-0.22251944243907928,0.4000000059604645,0.0,0.0,0,1,0.015404416248202324,0.035421159118413925,0.0049536582082509995,0.4064864218235016,0.2385774552822113,-0.06209966167807579,0.6828129291534424,0.37755316495895386,1.4219974279403687,7.341839790344238,0.7414064705371857,0.7414064705371857,nan,nan,0,-0.7753682136535645,-0.20578761398792267,-1.0841283798217773,-5.7425642013549805,-0.33768410608172417,-0.33768410608172417,nan,nan,0,0.8544462323188782,0.010601108893752098,0.9728327393531799,1.0644307136535645,0.1172231137752533,0.1172231137752533,nan,nan,0,-0.1171669140458107,0.5142881870269775,-1.1475754976272583,-2.6451256275177,0.4314165525138378,0.4314165525138378,nan,nan,0,0.061310380697250366,-0.2720448970794678,0.06354691833257675,-0.06463092565536499,-0.1793448030948639,-0.1793448030948639,nan,nan,0,-0.25844576954841614,-0.12764909863471985,0.06706357002258301,0.35754749178886414,-0.12922288477420807,-0.12922288477420807,nan,nan,0,0.9468576312065125,-0.4469432234764099,0.3197082281112671,14.036266326904297,0.07342880964279175,0.07342880964279175,nan,nan,0,3.00079345703125,0.2978927195072174,0.24499572813510895,46.05873489379883,1.450396727770567,1.450396727770567,nan,nan,0,-0.5660585761070251,-0.4347602427005768,-0.32335716485977173,21.038000106811523,0.026970714330673218,0.026970714330673218,nan,nan,0,-0.7353026270866394,0.5986666083335876,-0.397543340921402,-47.70218276977539,0.12234869599342346,0.12234869599342346,nan,nan,0,0.13063134253025055,-0.24860213696956635,-0.356387734413147,1.4227063655853271,-0.1446843221783638,-0.1446843221783638,nan,nan,0,-1.2162911891937256,0.09721395373344421,-0.7933956980705261,-25.020618438720703,-0.6081455945968628,-0.6081455945968628,nan,nan,0,0,0.9998108148574829,0.007657038047909737,0.01772814802825451,0.0023399631027132273,0.4064864218235016,0.2385774552822113,-0.06209966167807579,nan,nan,nan,0.0,390.60565185546875,0.0,390.60565185546875,0.0,0.24372106790542603,-0.12800249457359314,0.08959680050611496
1782287536873021954,-0.9909498691558838,-0.13423265516757965,0.4000000059604645,0.0,0.0,0,1,0.020033670589327812,0.03698592260479927,0.004719672724604607,0.5203012824058533,0.09902384132146835,-0.019605711102485657,0.7278856039047241,0.3922363221645355,1.390330195426941,4.9944562911987305,0.7639428079128265,0.7639428079128265,nan,nan,0,-0.7174580693244934,-0.21515946090221405,-0.789280116558075,-2.5712664127349854,-0.30872903391718864,-0.30872903391718864,nan,nan,0,0.8193354606628418,0.019527748227119446,0.9085549116134644,1.0666799545288086,0.09966772794723511,0.09966772794723511,nan,nan,0,-0.12322593480348587,0.5062305927276611,-0.5897639393806458,0.5450198650360107,0.42838704213500023,0.42838704213500023,nan,nan,0,0.08669377863407135,-0.25576919317245483,1.2438874244689941,1.647038221359253,-0.1666531041264534,-0.1666531041264534,nan,nan,0,-0.23802649974822998,-0.12932246923446655,0.05957144871354103,0.2761828899383545,-0.11901324987411499,-0.11901324987411499,nan,nan,0,0.9817710518836975,-0.44075942039489746,0.6249012351036072,16.16992950439453,0.09088551998138428,0.09088551998138428,nan,nan,0,2.7544984817504883,0.30184319615364075,0.5110319256782532,50.724998474121094,1.327249240130186,1.327249240130186,nan,nan,0,-0.7382164001464844,-0.43854326009750366,-0.4646868109703064,19.60912322998047,-0.059108197689056396,-0.059108197689056396,nan,nan,0,-0.635416567325592,0.593221127986908,-0.47258466482162476,-43.94522476196289,0.17229172587394714,0.17229172587394714,nan,nan,0,0.2020634263753891,-0.24859338998794556,-0.1278286576271057,2.8632421493530273,-0.10896828025579453,-0.10896828025579453,nan,nan,0,-1.1579272747039795,0.10026080906391144,-0.6053711175918579,-25.423288345336914,-0.5789636373519897,-0.5789636373519897,nan,nan,0,0,0.9997764825820923,0.009971290826797485,0.018514562398195267,0.002174085471779108,0.5203012824058533,0.09902384132146835,-0.019605711102485657,nan,nan,nan,0.0,371.033935546875,0.0,371.033935546875,0.0,0.24082419276237488,-0.09904176741838455,0.09976526349782944
1782287536883021954,-0.9989930987358093,-0.04486418515443802,0.4000000059604645,0.0,0.0,0,1,0.02577080763876438,0.03740837424993515,0.004502628464251757,0.6204968690872192,0.002353853080421686,-0.04008311778306961,0.7660503387451172,0.40562644600868225,1.250779151916504,4.781395435333252,0.7830251753330231,0.7830251753330231,nan,nan,0,-0.7082281708717346,-0.2217923253774643,-0.5567813515663147,-4.28232479095459,-0.30411408469080925,-0.30411408469080925,nan,nan,0,0.87246173620224,0.02747116982936859,0.7669820189476013,0.4645189642906189,0.1262308657169342,0.1262308657169342,nan,nan,0,-0.1305209994316101,0.502030074596405,-0.3196680545806885,-0.13136747479438782,0.4247395098209381,0.4247395098209381,nan,nan,0,0.0906694233417511,-0.24140621721744537,1.013979196548462,1.272249460220337,-0.16466528177261353,-0.16466528177261353,nan,nan,0,-0.24181023240089417,-0.12977872788906097,0.12846265733242035,0.45820122957229614,-0.12090511620044708,-0.12090511620044708,nan,nan,0,0.90774005651474,-0.432899534702301,0.7428861856460571,15.319172859191895,0.05387002229690552,0.05387002229690552,nan,nan,0,2.541287899017334,0.3084584176540375,0.7529670596122742,46.92811965942383,1.220643948763609,1.220643948763609,nan,nan,0,-0.8394728302955627,-0.4428569972515106,-0.47822466492652893,19.355201721191406,-0.10973641276359558,-0.10973641276359558,nan,nan,0,-0.6263377070426941,0.5878000855445862,-0.4689643085002899,-42.16770935058594,0.17683115601539612,0.17683115601539612,nan,nan,0,0.1974778026342392,-0.2480999082326889,-0.055622637271881104,4.741609573364258,-0.11126109212636948,-0.11126109212636948,nan,nan,0,-1.0879777669906616,0.10457552224397659,-0.4399760365486145,-25.08193016052246,-0.5439888834953308,-0.5439888834953308,nan,nan,0,0,0.9997401237487793,0.012840659357607365,0.01873049885034561,0.002009741961956024,0.6204968690872192,0.002353853080421686,-0.04008311778306961,nan,nan,nan,0.0,360.1568298339844,0.0,360.1568298339844,0.0,0.23993106186389923,-0.07087906450033188,0.10394489020109177
1782287536893021954,-0.9989929795265198,0.04486646503210068,0.4000000059604645,0.0,0.0,0,1,0.03262466937303543,0.037172939628362656,0.003936594817787409,0.7370867729187012,-0.051763877272605896,-0.0798354297876358,0.7284107804298401,0.41793784499168396,1.1412960290908813,5.085862159729004,0.7642053961753845,0.7642053961753845,nan,nan,0,-0.6806187033653259,-0.22539837658405304,-0.2332170158624649,-3.385488271713257,-0.2903093509376049,-0.2903093509376049,nan,nan,0,0.9482478499412537,0.03199486806988716,0.4189144968986511,0.21980410814285278,0.16412392258644104,0.16412392258644104,nan,nan,0,-0.19023606181144714,0.49973392486572266,-0.20417377352714539,-0.4795128405094147,0.3948819786310196,0.3948819786310196,nan,nan,0,0.11621429026126862,-0.2332727611064911,0.547137439250946,0.6414487957954407,-0.15189284831285477,-0.15189284831285477,nan,nan,0,-0.22250178456306458,-0.1315019428730011,0.07369331270456314,0.3402602970600128,-0.11125089228153229,-0.11125089228153229,nan,nan,0,0.711176872253418,-0.4256618618965149,0.6342183947563171,14.653742790222168,-0.04441156983375549,-0.04441156983375549,nan,nan,0,2.1608245372772217,0.31755003333091736,1.002617359161377,46.040035247802734,1.0304122678935528,1.0304122678935528,nan,nan,0,-0.98236083984375,-0.44559574127197266,-0.31288135051727295,19.326187133789062,-0.1811804175376892,-0.1811804175376892,nan,nan,0,-0.6018991470336914,0.582907497882843,-0.3926956057548523,-42.80340576171875,0.18905043601989746,0.18905043601989746,nan,nan,0,0.13716436922550201,-0.24711500108242035,-0.16358160972595215,4.020983695983887,-0.14141780883073807,-0.14141780883073807,nan,nan,0,-0.9815161228179932,0.11003546416759491,-0.42570680379867554,-25.88731575012207,-0.4907580614089966,-0.4907580614089966,nan,nan,0,0,0.999692976474762,0.016272185370326042,0.018614990636706352,0.00166453723795712,0.7370867729187012,-0.051763877272605896,-0.0798354297876358,nan,nan,nan,0.0,374.46923828125,0.0,374.46923828125,0.0,0.24030092358589172,-0.04235522449016571,0.10588600486516953
1782287536903021954,-0.9909496903419495,0.1342339813709259,0.4000000059604645,0.0,0.0,0,1,0.04031457379460335,0.036568377166986465,0.002797203604131937,0.7985653877258301,-0.07126057893037796,-0.13870453834533691,0.6689696907997131,0.4284593164920807,1.0507208108901978,5.7278056144714355,0.734484851360321,0.734484851360321,nan,nan,0,-0.5586369037628174,-0.22689653933048248,-0.08574019372463226,-3.9587433338165283,-0.22931845113635063,-0.22931845113635063,nan,nan,0,0.9984369874000549,0.036636412143707275,0.4388940632343292,0.32845157384872437,0.18921849131584167,0.18921849131584167,nan,nan,0,-0.20584037899971008,0.4956197738647461,-0.4353524446487427,-1.709803819656372,0.3870798200368881,0.3870798200368881,nan,nan,0,0.18240581452846527,-0.2242652326822281,0.5895553827285767,0.6175567507743835,-0.11879708617925644,-0.11879708617925644,nan,nan,0,-0.20954939723014832,-0.1309865117073059,0.1836397349834442,0.544988751411438,-0.10477469861507416,-0.10477469861507416,nan,nan,0,0.6039621233940125,-0.41899579763412476,0.5805498361587524,12.676898002624512,-0.09801894426345825,-0.09801894426345825,nan,nan,0,1.7684202194213867,0.3283534646034241,1.1260731220245361,40.74599075317383,0.8342101089656353,0.8342101089656353,nan,nan,0,-1.1996837854385376,-0.4468497037887573,-0.17793792486190796,17.56688690185547,-0.289841890335083,-0.289841890335083,nan,nan,0,-0.5378538966178894,0.57794588804245,-0.4311874806880951,-41.14922332763672,0.22107306122779846,0.22107306122779846,nan,nan,0,0.17710630595684052,-0.24546438455581665,-0.09263366460800171,4.162327766418457,-0.12144684046506882,-0.12144684046506882,nan,nan,0,-0.8435390591621399,0.11626660078763962,-0.2832658290863037,-25.0174617767334,-0.42176952958106995,-0.42176952958106995,nan,nan,0,0,0.9996292591094971,0.02012696862220764,0.018307622522115707,0.0010295695392414927,0.7985653877258301,-0.07126057893037796,-0.13870453834533691,nan,nan,nan,0.0,369.62939453125,0.0,369.62939453125,0.0,0.24336685240268707,-0.015408344566822052,0.10735035687685013
1782287536913021954,-0.9749277234077454,0.22252167761325836,0.4000000059604645,0.0,0.0,0,1,0.04827212169766426,0.03567607328295708,0.001469167647883296,0.8097708821296692,-0.11032029241323471,-0.1400718241930008,0.6455280780792236,0.43987834453582764,1.1656991243362427,5.720755100250244,0.7227640450000763,0.7227640450000763,nan,nan,0,-0.43163132667541504,-0.22739708423614502,-0.021148663014173508,-3.005603313446045,-0.16581566259264946,-0.16581566259264946,nan,nan,0,1.0132012367248535,0.03937827795743942,0.2544609010219574,0.28388339281082153,0.19660061597824097,0.19660061597824097,nan,nan,0,-0.21796941757202148,0.491144061088562,-0.4323423206806183,-1.5652812719345093,0.3810153007507324,0.3810153007507324,nan,nan,0,0.21464870870113373,-0.21483813226222992,0.6429035067558289,0.7042360901832581,-0.10267563909292221,-0.10267563909292221,nan,nan,0,-0.2136830985546112,-0.13033705949783325,0.0050530461594462395,0.0007494091987609863,-0.1068415492773056,-0.1068415492773056,nan,nan,0,0.5784125924110413,-0.41129857301712036,0.7538347840309143,12.466594696044922,-0.11079370975494385,-0.11079370975494385,nan,nan,0,1.4694724082946777,0.33996716141700745,1.1909809112548828,35.15354537963867,0.6847362034022808,0.6847362034022808,nan,nan,0,-1.388238549232483,-0.4486357271671295,-0.29301249980926514,15.040251731872559,-0.38411927223205566,-0.38411927223205566,nan,nan,0,-0.4764916002750397,0.5723691582679749,-0.4991283714771271,-34.89925765991211,0.2517542093992233,0.2517542093992233,nan,nan,0,0.23379583656787872,-0.24318522214889526,-0.017140120267868042,5.2841691970825195,-0.09310207515954971,-0.09310207515954971,nan,nan,0,-0.7231236100196838,0.12305605411529541,-0.15924367308616638,-24.30299186706543,-0.3615618050098419,-0.3615618050098419,nan,nan,0,0,0.9995496869087219,0.024116771295666695,0.017849616706371307,0.00030377766233868897,0.8097708821296692,-0.11032029241323471,-0.1400718241930008,nan,nan,nan,0.0,344.70269775390625,0.0,344.70269775390625,0.0,0.24521048367023468,0.009776966646313667,0.1036587506532669
1782287536923021954,-0.9510560035705566,0.30901864171028137,0.4000000059604645,0.0,0.0,0,1,0.05623656511306763,0.034549422562122345,-0.0001621246337890625,0.8013376593589783,-0.12489106506109238,-0.1786080300807953,0.6160445213317871,0.45220282673835754,1.2854790687561035,5.57631254196167,0.708022266626358,0.708022266626358,nan,nan,0,-0.3734109401702881,-0.2277827262878418,-0.03189573809504509,-2.7737154960632324,-0.13670546934008598,-0.13670546934008598,nan,nan,0,1.0418471097946167,0.043290138244628906,0.4118211269378662,0.5444537997245789,0.21092355251312256,0.21092355251312256,nan,nan,0,-0.22556793689727783,0.48666125535964966,-0.42893752455711365,-1.513204574584961,0.37721604108810425,0.37721604108810425,nan,nan,0,0.2309747189283371,-0.20702442526817322,0.5284484624862671,0.5639126896858215,-0.09451263397932053,-0.09451263397932053,nan,nan,0,-0.2241252362728119,-0.12795023620128632,0.2735200822353363,0.6820787191390991,-0.11206261813640594,-0.11206261813640594,nan,nan,0,0.5613831281661987,-0.4026298522949219,0.8127182126045227,10.883853912353516,-0.11930844187736511,-0.11930844187736511,nan,nan,0,1.2236449718475342,0.3519834280014038,1.2119616270065308,30.323806762695312,0.561822485178709,0.561822485178709,nan,nan,0,-1.4630839824676514,-0.45091986656188965,-0.30347201228141785,13.431190490722656,-0.4215419888496399,-0.4215419888496399,nan,nan,0,-0.4568067789077759,0.5663837790489197,-0.5333991050720215,-33.47426223754883,0.2615966200828552,0.2615966200828552,nan,nan,0,0.3326583802700043,-0.2404748797416687,0.056440651416778564,3.956573963165283,-0.04367080330848694,-0.04367080330848694,nan,nan,0,-0.6074303984642029,0.13029557466506958,-0.04421606659889221,-23.415319442749023,-0.30371519923210144,-0.30371519923210144,nan,nan,0,0,0.9994555115699768,0.028111781924962997,0.017264744266867638,-0.0005667047807946801,0.8013376593589783,-0.12489106506109238,-0.1786080300807953,nan,nan,nan,0.0,336.24566650390625,0.0,336.24566650390625,0.0,0.24835556745529175,0.0336417593061924,0.09617515653371811
1782287536933021954,-0.9195270538330078,0.3930266499519348,0.4000000059604645,0.0,0.0,0,1,0.06395205855369568,0.03348914906382561,-0.0024466514587402344,0.761504054069519,-0.11004538089036942,-0.2526126801967621,0.6059080958366394,0.46455955505371094,1.2889559268951416,4.640137672424316,0.7029540538787842,0.7029540538787842,nan,nan,0,-0.22996366024017334,-0.22852486371994019,-0.08340518921613693,-2.063889980316162,-0.06498182937502861,-0.06498182937502861,nan,nan,0,1.0408616065979004,0.04975210130214691,0.6284540891647339,0.645125687122345,0.2104308009147644,0.2104308009147644,nan,nan,0,-0.2546420693397522,0.480199933052063,-0.6599236726760864,-1.5783640146255493,0.36267897486686707,0.36267897486686707,nan,nan,0,0.22421397268772125,-0.19795270264148712,0.5903975963592529,0.6577985882759094,-0.09789300709962845,-0.09789300709962845,nan,nan,0,-0.22314608097076416,-0.12652155756950378,0.05699549615383148,0.11201968789100647,-0.11157304048538208,-0.11157304048538208,nan,nan,0,0.516627311706543,-0.39421311020851135,0.7600391507148743,7.842606067657471,-0.141686350107193,-0.141686350107193,nan,nan,0,0.979794442653656,0.3638412356376648,1.1666579246520996,22.346172332763672,0.43989722058176994,0.43989722058176994,nan,nan,0,-1.5770866870880127,-0.4524969160556793,-0.19800633192062378,10.561826705932617,-0.47854334115982056,-0.47854334115982056,nan,nan,0,-0.41124728322029114,0.5602315068244934,-0.5545163750648499,-31.455917358398438,0.2843763679265976,0.2843763679265976,nan,nan,0,0.3620694577693939,-0.2374216616153717,0.08160804212093353,2.771580219268799,-0.028965264558792114,-0.028965264558792114,nan,nan,0,-0.48509928584098816,0.13768872618675232,0.07215605676174164,-22.138063430786133,-0.24254964292049408,-0.24254964292049408,nan,nan,0,0,0.9993473291397095,0.031986549496650696,0.01669611781835556,-0.0017577465623617172,0.761504054069519,-0.11004538089036942,-0.2526126801967621,nan,nan,nan,0.0,328.0699462890625,0.0,328.0699462890625,0.0,0.25377926230430603,0.05619117245078087,0.0853755995631218
1782287536943021954,-0.8805951476097107,0.4738694131374359,0.4000000059604645,0.0,0.0,0,1,0.07102836668491364,0.032551005482673645,-0.005223751068115234,0.6875971555709839,-0.10512501001358032,-0.29382896423339844,0.593599796295166,0.4772948622703552,1.3051426410675049,3.2961177825927734,0.6967999041080475,0.6967999041080475,nan,nan,0,-0.07505909353494644,-0.22958078980445862,-0.09988931566476822,0.4834390878677368,0.012470453977584839,0.012470453977584839,nan,nan,0,1.0123473405838013,0.05723188444972038,0.708252489566803,0.9375647902488708,0.19617366790771484,0.19617366790771484,nan,nan,0,-0.24567478895187378,0.47237828373908997,-0.746123194694519,-0.671492338180542,0.3671626150608063,0.3671626150608063,nan,nan,0,0.2223503440618515,-0.18451538681983948,0.921568751335144,1.1617460250854492,-0.09882482141256332,-0.09882482141256332,nan,nan,0,-0.21707391738891602,-0.1236962378025055,0.13276304304599762,0.20017942786216736,-0.10853695869445801,-0.10853695869445801,nan,nan,0,0.5307029485702515,-0.3849656283855438,0.8830088376998901,5.578792572021484,-0.13464853167533875,-0.13464853167533875,nan,nan,0,0.7779104113578796,0.37488311529159546,1.071258544921875,14.348883628845215,0.33895520493388176,0.33895520493388176,nan,nan,0,-1.6838830709457397,-0.4546270966529846,-0.27751749753952026,7.139842510223389,-0.5319415330886841,-0.5319415330886841,nan,nan,0,-0.35397449135780334,0.5534974932670593,-0.621814489364624,-26.863618850708008,0.3130127638578415,0.3130127638578415,nan,nan,0,0.4213559925556183,-0.234035924077034,0.12363352626562119,3.309147357940674,0.0006780028343200684,0.0006780028343200684,nan,nan,0,-0.37235045433044434,0.14509077370166779,0.17894066870212555,-20.062875747680664,-0.18617522716522217,-0.18617522716522217,nan,nan,0,0,0.9992321729660034,0.03554437309503555,0.016171740368008614,-0.0031876906286925077,0.6875971555709839,-0.10512501001358032,-0.29382896423339844,nan,nan,nan,0.0,313.6456298828125,0.0,313.6456298828125,0.0,0.2590167224407196,0.07902330160140991,0.07412506639957428
